[
 {
  "section": "food",
  "name_ko": "가나돈까스의집",
  "district": "강남구",
  "category": "한식·백반",
  "lat": 37.5099674377,
  "lng": 127.0377755568,
  "phone": "",
  "thumb": "http://tong.visitkorea.or.kr/cms/resource/08/2871008_image3_1.JPG",
  "i18n": {
   "ko": {
    "name": "가나돈까스의집",
    "desc": "",
    "address": "서울특별시 강남구 언주로 608"
   }
  }
 },
 {
  "section": "food",
  "name_ko": "가담",
  "district": "강남구",
  "category": "중식",
  "lat": 37.5264209476,
  "lng": 127.0302729961,
  "phone": "",
  "thumb": "http://tong.visitkorea.or.kr/cms/resource/53/2869753_image3_1.jpg",
  "i18n": {
   "ko": {
    "name": "가담",
    "desc": "",
    "address": "서울특별시 강남구 언주로167길 35 (신사동)"
   }
  }
 },
 {
  "section": "food",
  "name_ko": "가막골흑염소요리전문점",
  "district": "강서구",
  "category": "한식·백반",
  "lat": 37.5516842628,
  "lng": 126.8518857611,
  "phone": "",
  "thumb": "http://tong.visitkorea.or.kr/cms/resource/29/2849629_image3_1.jpg",
  "i18n": {
   "ko": {
    "name": "가막골흑염소요리전문점",
    "desc": "",
    "address": "서울특별시 강서구 화곡로56길 37-11"
   }
  }
 },
 {
  "section": "food",
  "name_ko": "가문",
  "district": "강북구",
  "category": "중식",
  "lat": 37.6368246468,
  "lng": 127.0226983297,
  "phone": "",
  "thumb": "",
  "i18n": {
   "ko": {
    "name": "가문",
    "desc": "",
    "address": "서울특별시 강북구 노해로 13"
   }
  }
 },
 {
  "section": "food",
  "name_ko": "가산물갈비&백년불고기",
  "district": "금천구",
  "category": "고기·구이",
  "lat": 37.4773045854,
  "lng": 126.8837682791,
  "phone": "",
  "thumb": "http://tong.visitkorea.or.kr/cms/resource/60/2836560_image3_1.jpg",
  "i18n": {
   "ko": {
    "name": "가산물갈비&백년불고기",
    "desc": "",
    "address": "서울특별시 금천구 가산디지털1로 128 에스티엑스브이타워"
   }
  }
 },
 {
  "section": "food",
  "name_ko": "가야밀냉면해물칼국수",
  "district": "은평구",
  "category": "해산물·회",
  "lat": 37.6555794652,
  "lng": 126.948537895,
  "phone": "",
  "thumb": "http://tong.visitkorea.or.kr/cms/resource/70/2873170_image3_1.jpg",
  "i18n": {
   "ko": {
    "name": "가야밀냉면해물칼국수",
    "desc": "",
    "address": "서울특별시 은평구 대서문길 36 (진관동)"
   }
  }
 },
 {
  "section": "food",
  "name_ko": "가양칼국수버섯매운탕",
  "district": "영등포구",
  "category": "면·국물",
  "lat": 37.5209253677,
  "lng": 126.9313127207,
  "phone": "",
  "thumb": "http://tong.visitkorea.or.kr/cms/resource/00/2850200_image3_1.jpg",
  "i18n": {
   "ko": {
    "name": "가양칼국수버섯매운탕",
    "desc": "",
    "address": "서울특별시 영등포구 국제금융로 78 (여의도동)"
   }
  }
 },
 {
  "section": "food",
  "name_ko": "가조쿠",
  "district": "성동구",
  "category": "일식",
  "lat": 37.5432832891,
  "lng": 127.0531343258,
  "phone": "",
  "thumb": "http://tong.visitkorea.or.kr/cms/resource/12/2901212_image3_1.jpg",
  "i18n": {
   "ko": {
    "name": "가조쿠",
    "desc": "",
    "address": "서울특별시 성동구 연무장길 31-2 (성수동2가)"
   }
  }
 },
 {
  "section": "food",
  "name_ko": "가족천하 본점",
  "district": "영등포구",
  "category": "한식·백반",
  "lat": 37.4989023017,
  "lng": 126.8963415265,
  "phone": "",
  "thumb": "",
  "i18n": {
   "ko": {
    "name": "가족천하 본점",
    "desc": "",
    "address": "서울특별시 영등포구 가마산로 330 (대림동)"
   }
  }
 },
 {
  "section": "food",
  "name_ko": "각시보쌈",
  "district": "마포구",
  "category": "한식·백반",
  "lat": 37.5475858397,
  "lng": 126.9134774828,
  "phone": "",
  "thumb": "http://tong.visitkorea.or.kr/cms/resource/51/2853851_image3_1.jpg",
  "i18n": {
   "ko": {
    "name": "각시보쌈",
    "desc": "",
    "address": "서울특별시 마포구 성지길 25 보광빌딩"
   }
  }
 },
 {
  "section": "food",
  "name_ko": "갈비명가이상 돈암본관",
  "district": "성북구",
  "category": "고기·구이",
  "lat": 37.6015259912,
  "lng": 127.0236686891,
  "phone": "",
  "thumb": "http://tong.visitkorea.or.kr/cms/resource/42/2836642_image3_1.jpg",
  "i18n": {
   "ko": {
    "name": "갈비명가이상 돈암본관",
    "desc": "",
    "address": "서울특별시 성북구 정릉로 364"
   }
  }
 },
 {
  "section": "food",
  "name_ko": "갈비사랑",
  "district": "서초구",
  "category": "고기·구이",
  "lat": 37.482531716,
  "lng": 127.0367458713,
  "phone": "",
  "thumb": "http://tong.visitkorea.or.kr/cms/resource/58/2860758_image3_1.jpg",
  "i18n": {
   "ko": {
    "name": "갈비사랑",
    "desc": "",
    "address": "서울특별시 서초구 강남대로 204 (양재동)"
   }
  }
 },
 {
  "section": "food",
  "name_ko": "갈현동할머니떡볶이",
  "district": "은평구",
  "category": "분식·주점",
  "lat": 37.6235354372,
  "lng": 126.9187804084,
  "phone": "",
  "thumb": "http://tong.visitkorea.or.kr/cms/resource/67/2875267_image3_1.jpg",
  "i18n": {
   "ko": {
    "name": "갈현동할머니떡볶이",
    "desc": "",
    "address": "서울특별시 은평구 통일로87길 8-1 (갈현동)"
   }
  }
 },
 {
  "section": "food",
  "name_ko": "감꽃당",
  "district": "종로구",
  "category": "카페·베이커리",
  "lat": 37.5738480486,
  "lng": 126.9900725369,
  "phone": "",
  "thumb": "http://tong.visitkorea.or.kr/cms/resource/24/2622724_image2_1.jpg",
  "i18n": {
   "ko": {
    "name": "감꽃당",
    "desc": "",
    "address": "서울특별시 종로구 돈화문로11다길 38"
   }
  }
 },
 {
  "section": "food",
  "name_ko": "감나무집기사식당",
  "district": "마포구",
  "category": "한식·백반",
  "lat": 37.561950988,
  "lng": 126.9219151974,
  "phone": "",
  "thumb": "http://tong.visitkorea.or.kr/cms/resource/14/2843814_image3_1.jpg",
  "i18n": {
   "ko": {
    "name": "감나무집기사식당",
    "desc": "",
    "address": "서울특별시 마포구 연남로 25 (연남동)"
   }
  }
 },
 {
  "section": "food",
  "name_ko": "감동식당",
  "district": "노원구",
  "category": "한식·백반",
  "lat": 37.6617086556,
  "lng": 127.0665963946,
  "phone": "",
  "thumb": "http://tong.visitkorea.or.kr/cms/resource/94/2832994_image3_1.jpg",
  "i18n": {
   "ko": {
    "name": "감동식당",
    "desc": "",
    "address": "서울특별시 노원구 한글비석로47길 58"
   }
  }
 },
 {
  "section": "food",
  "name_ko": "값진식육",
  "district": "영등포구",
  "category": "한식·백반",
  "lat": 37.5190803938,
  "lng": 126.8896998979,
  "phone": "",
  "thumb": "http://tong.visitkorea.or.kr/cms/resource/81/2851581_image3_1.jpg",
  "i18n": {
   "ko": {
    "name": "값진식육",
    "desc": "",
    "address": "서울특별시 영등포구 선유로 58-4 (문래동3가)"
   }
  }
 },
 {
  "section": "food",
  "name_ko": "갓포아키 도산공원점",
  "district": "강남구",
  "category": "일식",
  "lat": 37.5230742215,
  "lng": 127.0362419924,
  "phone": "",
  "thumb": "http://tong.visitkorea.or.kr/cms/resource/72/2869772_image3_1.jpg",
  "i18n": {
   "ko": {
    "name": "갓포아키 도산공원점",
    "desc": "",
    "address": "서울특별시 강남구 도산대로45길 8-3 쿠키빌딩"
   }
  }
 },
 {
  "section": "food",
  "name_ko": "갓포준 x 에스테반",
  "district": "강남구",
  "category": "일식",
  "lat": 37.52425448,
  "lng": 127.0273372138,
  "phone": "",
  "thumb": "http://tong.visitkorea.or.kr/cms/resource/90/2869790_image3_1.jpg",
  "i18n": {
   "ko": {
    "name": "갓포준 x 에스테반",
    "desc": "",
    "address": "서울특별시 강남구 논현로163길 10 (신사동)"
   }
  }
 },
 {
  "section": "food",
  "name_ko": "강강술래 신림동",
  "district": "관악구",
  "category": "한식·백반",
  "lat": 37.4845518811,
  "lng": 126.9350272959,
  "phone": "",
  "thumb": "",
  "i18n": {
   "ko": {
    "name": "강강술래 신림동",
    "desc": "",
    "address": "서울특별시 관악구 남부순환로 1660"
   }
  }
 },
 {
  "section": "food",
  "name_ko": "강남목장",
  "district": "강남구",
  "category": "한식·백반",
  "lat": 37.5003213806,
  "lng": 127.0402783799,
  "phone": "",
  "thumb": "",
  "i18n": {
   "ko": {
    "name": "강남목장",
    "desc": "",
    "address": "서울특별시 강남구 논현로86길 34"
   }
  }
 },
 {
  "section": "food",
  "name_ko": "강남진해장",
  "district": "강남구",
  "category": "한식·백반",
  "lat": 37.4995434958,
  "lng": 127.0292766253,
  "phone": "",
  "thumb": "http://tong.visitkorea.or.kr/cms/resource/61/2871461_image3_1.jpg",
  "i18n": {
   "ko": {
    "name": "강남진해장",
    "desc": "",
    "address": "서울특별시 강남구 테헤란로5길 11 (역삼동)"
   }
  }
 },
 {
  "section": "food",
  "name_ko": "강동반상",
  "district": "강동구",
  "category": "한식·백반",
  "lat": 37.5498569527,
  "lng": 127.1753646796,
  "phone": "",
  "thumb": "http://tong.visitkorea.or.kr/cms/resource/86/2839486_image3_1.jpg",
  "i18n": {
   "ko": {
    "name": "강동반상",
    "desc": "",
    "address": "서울특별시 강동구 상일로6길 39 강동타워"
   }
  }
 },
 {
  "section": "food",
  "name_ko": "강동해물찜해천탕",
  "district": "강동구",
  "category": "해산물·회",
  "lat": 37.5323083258,
  "lng": 127.1385935255,
  "phone": "",
  "thumb": "http://tong.visitkorea.or.kr/cms/resource/99/2839499_image3_1.jpg",
  "i18n": {
   "ko": {
    "name": "강동해물찜해천탕",
    "desc": "",
    "address": "서울특별시 강동구 양재대로 1416"
   }
  }
 },
 {
  "section": "food",
  "name_ko": "강수사",
  "district": "서대문구",
  "category": "일식",
  "lat": 37.5714167743,
  "lng": 126.9342193638,
  "phone": "",
  "thumb": "http://tong.visitkorea.or.kr/cms/resource/18/2900318_image3_1.jpg",
  "i18n": {
   "ko": {
    "name": "강수사",
    "desc": "",
    "address": "서울특별시 서대문구 연희로 157 (연희동)"
   }
  }
 },
 {
  "section": "food",
  "name_ko": "강촌쌈밥",
  "district": "종로구",
  "category": "한식·백반",
  "lat": 37.610762927,
  "lng": 126.9747812177,
  "phone": "",
  "thumb": "http://tong.visitkorea.or.kr/cms/resource/54/2847154_image3_1.jpg",
  "i18n": {
   "ko": {
    "name": "강촌쌈밥",
    "desc": "",
    "address": "서울특별시 종로구 평창30길 9"
   }
  }
 },
 {
  "section": "food",
  "name_ko": "개뿔",
  "district": "종로구",
  "category": "카페·베이커리",
  "lat": 37.5782311958,
  "lng": 127.0080624399,
  "phone": "",
  "thumb": "http://tong.visitkorea.or.kr/cms/resource/05/2848105_image3_1.jpg",
  "i18n": {
   "ko": {
    "name": "개뿔",
    "desc": "",
    "address": "서울특별시 종로구 낙산성곽서1길 26 (이화동)"
   }
  }
 },
 {
  "section": "food",
  "name_ko": "개성만두 궁",
  "district": "종로구",
  "category": "한식·백반",
  "lat": 37.5743229103,
  "lng": 126.9854257249,
  "phone": "",
  "thumb": "",
  "i18n": {
   "ko": {
    "name": "개성만두 궁",
    "desc": "",
    "address": "서울특별시 종로구 인사동10길 11-3 (관훈동)"
   }
  }
 },
 {
  "section": "food",
  "name_ko": "개화",
  "district": "중구",
  "category": "중식",
  "lat": 37.5621214856,
  "lng": 126.9818402861,
  "phone": "",
  "thumb": "http://tong.visitkorea.or.kr/cms/resource/96/3474896_image3_1.jpg",
  "i18n": {
   "ko": {
    "name": "개화",
    "desc": "",
    "address": "서울특별시 중구 남대문로 52-5 (명동2가)"
   }
  }
 },
 {
  "section": "food",
  "name_ko": "개화산장",
  "district": "강서구",
  "category": "한식·백반",
  "lat": 37.573861386,
  "lng": 126.8039700643,
  "phone": "",
  "thumb": "http://tong.visitkorea.or.kr/cms/resource/40/2849640_image3_1.jpg",
  "i18n": {
   "ko": {
    "name": "개화산장",
    "desc": "",
    "address": "서울특별시 강서구 개화동로19길 6-53 (방화동)"
   }
  }
 },
 {
  "section": "food",
  "name_ko": "거창 왕돈까스",
  "district": "영등포구",
  "category": "한식·백반",
  "lat": 37.521775185,
  "lng": 126.9266186801,
  "phone": "",
  "thumb": "http://tong.visitkorea.or.kr/cms/resource/45/2663445_image2_1.jpg",
  "i18n": {
   "ko": {
    "name": "거창 왕돈까스",
    "desc": "",
    "address": "서울특별시 영등포구 국제금융로6길 30 (여의도동)"
   }
  }
 },
 {
  "section": "food",
  "name_ko": "경동함흥냉면",
  "district": "동대문구",
  "category": "면·국물",
  "lat": 37.5801509845,
  "lng": 127.0396456189,
  "phone": "",
  "thumb": "http://tong.visitkorea.or.kr/cms/resource/42/2789742_image3_1.jpg",
  "i18n": {
   "ko": {
    "name": "경동함흥냉면",
    "desc": "",
    "address": "서울특별시 동대문구 고산자로38길 19"
   }
  }
 },
 {
  "section": "food",
  "name_ko": "경복식당",
  "district": "노원구",
  "category": "한식·백반",
  "lat": 37.6237632891,
  "lng": 127.0788741361,
  "phone": "",
  "thumb": "http://tong.visitkorea.or.kr/cms/resource/04/2875304_image3_1.jpg",
  "i18n": {
   "ko": {
    "name": "경복식당",
    "desc": "",
    "address": "서울특별시 노원구 공릉로39길 10 (공릉동, 대아아파트)"
   }
  }
 },
 {
  "section": "food",
  "name_ko": "경천애인2237",
  "district": "강남구",
  "category": "한식·백반",
  "lat": 37.5060431587,
  "lng": 127.0525465458,
  "phone": "",
  "thumb": "http://tong.visitkorea.or.kr/cms/resource/27/2855727_image3_1.jpg",
  "i18n": {
   "ko": {
    "name": "경천애인2237",
    "desc": "",
    "address": "서울특별시 강남구 테헤란로 421 (삼성동)"
   }
  }
 },
 {
  "section": "food",
  "name_ko": "경회루",
  "district": "노원구",
  "category": "한식·백반",
  "lat": 37.6199803173,
  "lng": 127.0745301956,
  "phone": "",
  "thumb": "http://tong.visitkorea.or.kr/cms/resource/38/2842438_image3_1.jpg",
  "i18n": {
   "ko": {
    "name": "경회루",
    "desc": "",
    "address": "서울특별시 노원구 동일로 1005 (공릉동)"
   }
  }
 },
 {
  "section": "food",
  "name_ko": "계림식당",
  "district": "종로구",
  "category": "한식·백반",
  "lat": 37.5701624455,
  "lng": 126.9945027934,
  "phone": "",
  "thumb": "http://tong.visitkorea.or.kr/cms/resource/71/2367771_image3_1.jpg",
  "i18n": {
   "ko": {
    "name": "계림식당",
    "desc": "",
    "address": "서울특별시 종로구 돈화문로4길 39"
   }
  }
 },
 {
  "section": "food",
  "name_ko": "계월",
  "district": "성동구",
  "category": "한식·백반",
  "lat": 37.5396169495,
  "lng": 127.0476515952,
  "phone": "",
  "thumb": "http://tong.visitkorea.or.kr/cms/resource/44/2895144_image3_1.JPG",
  "i18n": {
   "ko": {
    "name": "계월",
    "desc": "",
    "address": "서울특별시 성동구 성덕정3길 8 (성수동1가)"
   }
  }
 },
 {
  "section": "food",
  "name_ko": "계자람",
  "district": "성동구",
  "category": "한식·백반",
  "lat": 37.5378061841,
  "lng": 127.0551704068,
  "phone": "",
  "thumb": "http://tong.visitkorea.or.kr/cms/resource/51/2901351_image3_1.jpg",
  "i18n": {
   "ko": {
    "name": "계자람",
    "desc": "",
    "address": "서울특별시 성동구 성덕정17길 5 (성수동2가)"
   }
  }
 },
 {
  "section": "food",
  "name_ko": "고도식",
  "district": "송파구",
  "category": "한식·백반",
  "lat": 37.5104019962,
  "lng": 127.1086829802,
  "phone": "",
  "thumb": "http://tong.visitkorea.or.kr/cms/resource/70/2844670_image3_1.jpg",
  "i18n": {
   "ko": {
    "name": "고도식",
    "desc": "",
    "address": "서울특별시 송파구 백제고분로45길 28 (송파동)"
   }
  }
 },
 {
  "section": "food",
  "name_ko": "고두리 용산점",
  "district": "용산구",
  "category": "한식·백반",
  "lat": 37.5308748789,
  "lng": 126.9686007095,
  "phone": "",
  "thumb": "",
  "i18n": {
   "ko": {
    "name": "고두리 용산점",
    "desc": "",
    "address": "서울특별시 용산구 한강대로39길 10"
   }
  }
 },
 {
  "section": "food",
  "name_ko": "고래불",
  "district": "강남구",
  "category": "한식·백반",
  "lat": 37.4963300643,
  "lng": 127.0339707338,
  "phone": "",
  "thumb": "http://tong.visitkorea.or.kr/cms/resource/01/3584401_image3_1.jpg",
  "i18n": {
   "ko": {
    "name": "고래불",
    "desc": "",
    "address": "서울특별시 강남구 논현로79길 62 (역삼동)"
   }
  }
 },
 {
  "section": "food",
  "name_ko": "고려삼계탕",
  "district": "중구",
  "category": "한식·백반",
  "lat": 37.5630517738,
  "lng": 126.9729271831,
  "phone": "",
  "thumb": "",
  "i18n": {
   "ko": {
    "name": "고려삼계탕",
    "desc": "",
    "address": "서울특별시 중구 서소문로11길 1 (서소문동)"
   }
  }
 },
 {
  "section": "food",
  "name_ko": "고려정",
  "district": "영등포구",
  "category": "한식·백반",
  "lat": 37.521775185,
  "lng": 126.9266186801,
  "phone": "",
  "thumb": "http://tong.visitkorea.or.kr/cms/resource/51/2663451_image2_1.jpg",
  "i18n": {
   "ko": {
    "name": "고려정",
    "desc": "",
    "address": "서울특별시 영등포구 국제금융로6길 30 (여의도동)"
   }
  }
 },
 {
  "section": "food",
  "name_ko": "고른햇살",
  "district": "성북구",
  "category": "한식·백반",
  "lat": 37.5870583326,
  "lng": 127.0294741271,
  "phone": "",
  "thumb": "http://tong.visitkorea.or.kr/cms/resource/47/2839047_image3_1.jpg",
  "i18n": {
   "ko": {
    "name": "고른햇살",
    "desc": "",
    "address": "서울특별시 성북구 개운사길 14"
   }
  }
 },
 {
  "section": "food",
  "name_ko": "고미정",
  "district": "서대문구",
  "category": "한식·백반",
  "lat": 37.5727583353,
  "lng": 126.9370385134,
  "phone": "",
  "thumb": "http://tong.visitkorea.or.kr/cms/resource/06/2900306_image3_1.jpg",
  "i18n": {
   "ko": {
    "name": "고미정",
    "desc": "",
    "address": "서울특별시 서대문구 연희로26길 28 (연희동)"
   }
  }
 },
 {
  "section": "food",
  "name_ko": "고성막국수",
  "district": "강서구",
  "category": "면·국물",
  "lat": 37.5774278543,
  "lng": 126.8161299653,
  "phone": "",
  "thumb": "",
  "i18n": {
   "ko": {
    "name": "고성막국수",
    "desc": "",
    "address": "서울특별시 강서구 방화대로49길 6-7"
   }
  }
 },
 {
  "section": "food",
  "name_ko": "고센인코퍼레이티드 청담점",
  "district": "강남구",
  "category": "카페·베이커리",
  "lat": 37.525260172,
  "lng": 127.0414470115,
  "phone": "",
  "thumb": "http://tong.visitkorea.or.kr/cms/resource/86/2849286_image3_1.jpg",
  "i18n": {
   "ko": {
    "name": "고센인코퍼레이티드 청담점",
    "desc": "",
    "address": "서울특별시 강남구 선릉로158길 18"
   }
  }
 },
 {
  "section": "food",
  "name_ko": "고카페 용산아이파크몰점",
  "district": "용산구",
  "category": "카페·베이커리",
  "lat": 37.5298249324,
  "lng": 126.9647566449,
  "phone": "",
  "thumb": "http://tong.visitkorea.or.kr/cms/resource/60/3446560_image3_1.jpg",
  "i18n": {
   "ko": {
    "name": "고카페 용산아이파크몰점",
    "desc": "",
    "address": "서울특별시 용산구 한강대로23길 55 (한강로3가)"
   }
  }
 },
 {
  "section": "food",
  "name_ko": "골드피쉬 딤섬퀴진",
  "district": "강남구",
  "category": "중식",
  "lat": 37.526123883,
  "lng": 127.0371223814,
  "phone": "",
  "thumb": "http://tong.visitkorea.or.kr/cms/resource/06/2869806_image3_1.jpg",
  "i18n": {
   "ko": {
    "name": "골드피쉬 딤섬퀴진",
    "desc": "",
    "address": "서울특별시 강남구 압구정로48길 35 (신사동)"
   }
  }
 },
 {
  "section": "food",
  "name_ko": "골목떡볶이",
  "district": "송파구",
  "category": "분식·주점",
  "lat": 37.4891019577,
  "lng": 127.1234850164,
  "phone": "",
  "thumb": "http://tong.visitkorea.or.kr/cms/resource/59/2834559_image3_1.jpg",
  "i18n": {
   "ko": {
    "name": "골목떡볶이",
    "desc": "",
    "address": "서울특별시 송파구 문정로1길 33"
   }
  }
 },
 {
  "section": "food",
  "name_ko": "골목집",
  "district": "영등포구",
  "category": "한식·백반",
  "lat": 37.5133061252,
  "lng": 126.8931053057,
  "phone": "",
  "thumb": "http://tong.visitkorea.or.kr/cms/resource/74/2782574_image3_1.jpg",
  "i18n": {
   "ko": {
    "name": "골목집",
    "desc": "",
    "address": "서울특별시 영등포구 도림로125길 34 (문래동2가)"
   }
  }
 },
 {
  "section": "food",
  "name_ko": "곰바위",
  "district": "강남구",
  "category": "한식·백반",
  "lat": 37.5149422384,
  "lng": 127.0588318325,
  "phone": "",
  "thumb": "",
  "i18n": {
   "ko": {
    "name": "곰바위",
    "desc": "",
    "address": "서울특별시 강남구 영동대로115길 10 (삼성동)"
   }
  }
 },
 {
  "section": "food",
  "name_ko": "공기(Gongi)",
  "district": "용산구",
  "category": "한식·백반",
  "lat": 37.536252584,
  "lng": 126.9993644218,
  "phone": "",
  "thumb": "http://tong.visitkorea.or.kr/cms/resource/18/3572218_image3_1.jpg",
  "i18n": {
   "ko": {
    "name": "공기(Gongi)",
    "desc": "",
    "address": "서울특별시 용산구 이태원로45길 4"
   }
  }
 },
 {
  "section": "food",
  "name_ko": "공푸",
  "district": "성북구",
  "category": "중식",
  "lat": 37.5888662157,
  "lng": 127.0161225147,
  "phone": "",
  "thumb": "http://tong.visitkorea.or.kr/cms/resource/65/2839065_image3_1.jpg",
  "i18n": {
   "ko": {
    "name": "공푸",
    "desc": "",
    "address": "서울특별시 성북구 삼선교로24길 29"
   }
  }
 },
 {
  "section": "food",
  "name_ko": "광양불고기",
  "district": "송파구",
  "category": "고기·구이",
  "lat": 37.5050775567,
  "lng": 127.1054750906,
  "phone": "",
  "thumb": "http://tong.visitkorea.or.kr/cms/resource/13/2844913_image3_1.jpg",
  "i18n": {
   "ko": {
    "name": "광양불고기",
    "desc": "",
    "address": "서울특별시 송파구 백제고분로39길 6 (석촌동)"
   }
  }
 },
 {
  "section": "food",
  "name_ko": "광양불고기본가",
  "district": "강남구",
  "category": "고기·구이",
  "lat": 37.5018994384,
  "lng": 127.0660509898,
  "phone": "",
  "thumb": "http://tong.visitkorea.or.kr/cms/resource/93/3109393_image3_1.JPG",
  "i18n": {
   "ko": {
    "name": "광양불고기본가",
    "desc": "",
    "address": "서울특별시 강남구 도곡로99길 16"
   }
  }
 },
 {
  "section": "food",
  "name_ko": "광장싸롱 1961",
  "district": "종로구",
  "category": "카페·베이커리",
  "lat": 37.5703653287,
  "lng": 127.0016854663,
  "phone": "",
  "thumb": "http://tong.visitkorea.or.kr/cms/resource/89/2794889_image3_1.jpg",
  "i18n": {
   "ko": {
    "name": "광장싸롱 1961",
    "desc": "",
    "address": "서울특별시 종로구 동호로 403-3 (종로5가)"
   }
  }
 },
 {
  "section": "food",
  "name_ko": "광주똑순이아구찜",
  "district": "강서구",
  "category": "해산물·회",
  "lat": 37.55943589,
  "lng": 126.8378757098,
  "phone": "",
  "thumb": "http://tong.visitkorea.or.kr/cms/resource/53/2849653_image3_1.jpg",
  "i18n": {
   "ko": {
    "name": "광주똑순이아구찜",
    "desc": "",
    "address": "서울특별시 강서구 강서로 375-8 정호빌딩"
   }
  }
 },
 {
  "section": "food",
  "name_ko": "광화문 세종클럽",
  "district": "종로구",
  "category": "양식·세계요리",
  "lat": 37.5728256579,
  "lng": 126.9740518037,
  "phone": "",
  "thumb": "",
  "i18n": {
   "ko": {
    "name": "광화문 세종클럽",
    "desc": "",
    "address": "서울특별시 종로구 새문안로5가길 7 (내수동)"
   }
  }
 },
 {
  "section": "food",
  "name_ko": "광화문국밥",
  "district": "중구",
  "category": "면·국물",
  "lat": 37.5690039051,
  "lng": 126.9754462294,
  "phone": "",
  "thumb": "http://tong.visitkorea.or.kr/cms/resource/09/2914209_image3_1.jpg",
  "i18n": {
   "ko": {
    "name": "광화문국밥",
    "desc": "",
    "address": "서울특별시 중구 세종대로21길 53 (정동)"
   }
  }
 },
 {
  "section": "food",
  "name_ko": "괴르츠",
  "district": "마포구",
  "category": "양식·세계요리",
  "lat": 37.5449169264,
  "lng": 126.9258347656,
  "phone": "",
  "thumb": "http://tong.visitkorea.or.kr/cms/resource/06/2853906_image3_1.jpg",
  "i18n": {
   "ko": {
    "name": "괴르츠",
    "desc": "",
    "address": "서울특별시 마포구 토정로 136-13 (상수동)"
   }
  }
 },
 {
  "section": "food",
  "name_ko": "교다이야",
  "district": "마포구",
  "category": "일식",
  "lat": 37.5469081365,
  "lng": 126.9132191921,
  "phone": "",
  "thumb": "http://tong.visitkorea.or.kr/cms/resource/83/2853883_image3_1.jpg",
  "i18n": {
   "ko": {
    "name": "교다이야",
    "desc": "",
    "address": "서울특별시 마포구 성지길 39 (합정동)"
   }
  }
 },
 {
  "section": "food",
  "name_ko": "구기동오면",
  "district": "종로구",
  "category": "한식·백반",
  "lat": 37.6072324975,
  "lng": 126.9589188753,
  "phone": "",
  "thumb": "http://tong.visitkorea.or.kr/cms/resource/34/2836134_image3_1.jpg",
  "i18n": {
   "ko": {
    "name": "구기동오면",
    "desc": "",
    "address": "서울특별시 종로구 진흥로 455 (구기동)"
   }
  }
 },
 {
  "section": "food",
  "name_ko": "구수옥설렁탕",
  "district": "관악구",
  "category": "면·국물",
  "lat": 37.484410258,
  "lng": 126.9365160531,
  "phone": "",
  "thumb": "http://tong.visitkorea.or.kr/cms/resource/80/2873280_image3_1.jpg",
  "i18n": {
   "ko": {
    "name": "구수옥설렁탕",
    "desc": "",
    "address": "서울특별시 관악구 남부순환로 1674 (신림동)"
   }
  }
 },
 {
  "section": "food",
  "name_ko": "구스아일랜드 브루하우스",
  "district": "강남구",
  "category": "양식·세계요리",
  "lat": 37.4934831403,
  "lng": 127.0321959757,
  "phone": "",
  "thumb": "http://tong.visitkorea.or.kr/cms/resource/57/2796157_image3_1.jpg",
  "i18n": {
   "ko": {
    "name": "구스아일랜드 브루하우스",
    "desc": "",
    "address": "서울특별시 강남구 역삼로 118 (역삼동)"
   }
  }
 },
 {
  "section": "food",
  "name_ko": "구욱희씨",
  "district": "성동구",
  "category": "카페·베이커리",
  "lat": 37.5471631921,
  "lng": 127.0418907953,
  "phone": "",
  "thumb": "http://tong.visitkorea.or.kr/cms/resource/08/2895208_image3_1.jpg",
  "i18n": {
   "ko": {
    "name": "구욱희씨",
    "desc": "",
    "address": "서울특별시 성동구 서울숲4길 12-22"
   }
  }
 },
 {
  "section": "food",
  "name_ko": "구펠",
  "district": "성동구",
  "category": "카페·베이커리",
  "lat": 37.548413139,
  "lng": 127.0470125152,
  "phone": "",
  "thumb": "http://tong.visitkorea.or.kr/cms/resource/26/2895226_image3_1.jpg",
  "i18n": {
   "ko": {
    "name": "구펠",
    "desc": "",
    "address": "서울특별시 성동구 왕십리로14길 30-1 (성수동1가)"
   }
  }
 },
 {
  "section": "food",
  "name_ko": "국시집",
  "district": "성북구",
  "category": "한식·백반",
  "lat": 37.5884827151,
  "lng": 127.0043374886,
  "phone": "",
  "thumb": "http://tong.visitkorea.or.kr/cms/resource/93/3574793_image3_1.jpg",
  "i18n": {
   "ko": {
    "name": "국시집",
    "desc": "",
    "address": "서울특별시 성북구 창경궁로43길 9"
   }
  }
 },
 {
  "section": "food",
  "name_ko": "국화정원",
  "district": "성북구",
  "category": "한식·백반",
  "lat": 37.5946179043,
  "lng": 126.9927189286,
  "phone": "",
  "thumb": "http://tong.visitkorea.or.kr/cms/resource/23/3578623_image3_1.jpg",
  "i18n": {
   "ko": {
    "name": "국화정원",
    "desc": "",
    "address": "서울특별시 성북구 성북로 154 (성북동)"
   }
  }
 },
 {
  "section": "food",
  "name_ko": "군산오징어 본점",
  "district": "송파구",
  "category": "한식·백반",
  "lat": 37.5063411468,
  "lng": 127.0970258234,
  "phone": "",
  "thumb": "http://tong.visitkorea.or.kr/cms/resource/94/3578694_image3_1.jpg",
  "i18n": {
   "ko": {
    "name": "군산오징어 본점",
    "desc": "",
    "address": "서울특별시 송파구 삼학사로 101"
   }
  }
 },
 {
  "section": "food",
  "name_ko": "군산찜",
  "district": "마포구",
  "category": "한식·백반",
  "lat": 37.5650253711,
  "lng": 126.9074108771,
  "phone": "",
  "thumb": "http://tong.visitkorea.or.kr/cms/resource/22/2914722_image3_1.jpg",
  "i18n": {
   "ko": {
    "name": "군산찜",
    "desc": "",
    "address": "서울특별시 마포구 새터산길 2 (성산동)"
   }
  }
 },
 {
  "section": "food",
  "name_ko": "궁나라냉면묵밥",
  "district": "종로구",
  "category": "면·국물",
  "lat": 37.5769092675,
  "lng": 127.0158673219,
  "phone": "",
  "thumb": "",
  "i18n": {
   "ko": {
    "name": "궁나라냉면묵밥",
    "desc": "",
    "address": "서울특별시 종로구 지봉로12길 6"
   }
  }
 },
 {
  "section": "food",
  "name_ko": "권숙수",
  "district": "강남구",
  "category": "한식·백반",
  "lat": 37.5244297515,
  "lng": 127.0435940627,
  "phone": "",
  "thumb": "http://tong.visitkorea.or.kr/cms/resource/10/2870410_image3_1.jpg",
  "i18n": {
   "ko": {
    "name": "권숙수",
    "desc": "",
    "address": "서울특별시 강남구 압구정로80길 37 (청담동)"
   }
  }
 },
 {
  "section": "food",
  "name_ko": "그라데이션커피",
  "district": "성동구",
  "category": "카페·베이커리",
  "lat": 37.5505990552,
  "lng": 127.0503093754,
  "phone": "",
  "thumb": "http://tong.visitkorea.or.kr/cms/resource/82/2898982_image3_1.jpg",
  "i18n": {
   "ko": {
    "name": "그라데이션커피",
    "desc": "",
    "address": "서울특별시 성동구 상원12길 24-1 (성수동1가)"
   }
  }
 },
 {
  "section": "food",
  "name_ko": "그라운드62(GROUND62)",
  "district": "종로구",
  "category": "카페·베이커리",
  "lat": 37.6083768858,
  "lng": 126.9632267839,
  "phone": "",
  "thumb": "http://tong.visitkorea.or.kr/cms/resource/40/2864240_image3_1.jpg",
  "i18n": {
   "ko": {
    "name": "그라운드62(GROUND62)",
    "desc": "",
    "address": "서울특별시 종로구 평창길 62 (평창동)"
   }
  }
 },
 {
  "section": "food",
  "name_ko": "그란구스또",
  "district": "강남구",
  "category": "양식·세계요리",
  "lat": 37.5019687584,
  "lng": 127.0595765768,
  "phone": "",
  "thumb": "http://tong.visitkorea.or.kr/cms/resource/95/1514395_image3_1.jpg",
  "i18n": {
   "ko": {
    "name": "그란구스또",
    "desc": "",
    "address": "서울특별시 강남구 삼성로 340"
   }
  }
 },
 {
  "section": "food",
  "name_ko": "그랑씨엘",
  "district": "강남구",
  "category": "양식·세계요리",
  "lat": 37.523443616,
  "lng": 127.035853128,
  "phone": "",
  "thumb": "http://tong.visitkorea.or.kr/cms/resource/61/2870461_image3_1.jpg",
  "i18n": {
   "ko": {
    "name": "그랑씨엘",
    "desc": "",
    "address": "서울특별시 강남구 도산대로45길 16-6"
   }
  }
 },
 {
  "section": "food",
  "name_ko": "그레도제빵사",
  "district": "성북구",
  "category": "카페·베이커리",
  "lat": 37.6134364113,
  "lng": 127.0622259471,
  "phone": "",
  "thumb": "http://tong.visitkorea.or.kr/cms/resource/15/2839315_image3_1.jpg",
  "i18n": {
   "ko": {
    "name": "그레도제빵사",
    "desc": "",
    "address": "서울특별시 성북구 화랑로 304 진성38 빌딩"
   }
  }
 },
 {
  "section": "food",
  "name_ko": "그릭조이",
  "district": "마포구",
  "category": "양식·세계요리",
  "lat": 37.5482552117,
  "lng": 126.913774659,
  "phone": "",
  "thumb": "",
  "i18n": {
   "ko": {
    "name": "그릭조이",
    "desc": "",
    "address": "서울특별시 마포구 성지1길 6"
   }
  }
 },
 {
  "section": "food",
  "name_ko": "그린랩",
  "district": "성동구",
  "category": "카페·베이커리",
  "lat": 37.5469020873,
  "lng": 127.040593698,
  "phone": "",
  "thumb": "http://tong.visitkorea.or.kr/cms/resource/64/2894864_image3_1.JPG",
  "i18n": {
   "ko": {
    "name": "그린랩",
    "desc": "",
    "address": "서울특별시 성동구 서울숲2길 18-11"
   }
  }
 },
 {
  "section": "food",
  "name_ko": "금강산감자탕 방이점",
  "district": "송파구",
  "category": "면·국물",
  "lat": 37.5158459413,
  "lng": 127.1160377125,
  "phone": "",
  "thumb": "http://tong.visitkorea.or.kr/cms/resource/68/2846968_image3_1.jpg",
  "i18n": {
   "ko": {
    "name": "금강산감자탕 방이점",
    "desc": "",
    "address": "서울특별시 송파구 위례성대로 34 (방이동)"
   }
  }
 },
 {
  "section": "food",
  "name_ko": "금강수림",
  "district": "강남구",
  "category": "한식·백반",
  "lat": 37.4852202516,
  "lng": 127.0344460047,
  "phone": "",
  "thumb": "",
  "i18n": {
   "ko": {
    "name": "금강수림",
    "desc": "",
    "address": "서울특별시 강남구 강남대로 240"
   }
  }
 },
 {
  "section": "food",
  "name_ko": "금동화로숯불구이",
  "district": "중구",
  "category": "고기·구이",
  "lat": 37.5633354777,
  "lng": 126.9954084594,
  "phone": "",
  "thumb": "http://tong.visitkorea.or.kr/cms/resource/58/2654758_image2_1.jpg",
  "i18n": {
   "ko": {
    "name": "금동화로숯불구이",
    "desc": "",
    "address": "서울특별시 중구 퇴계로41길 35 (인현동2가)"
   }
  }
 },
 {
  "section": "food",
  "name_ko": "금돼지식당",
  "district": "중구",
  "category": "고기·구이",
  "lat": 37.5571475999,
  "lng": 127.0116932624,
  "phone": "",
  "thumb": "http://tong.visitkorea.or.kr/cms/resource/68/3591068_image3_1.jpg",
  "i18n": {
   "ko": {
    "name": "금돼지식당",
    "desc": "",
    "address": "서울특별시 중구 다산로 149 (신당동)"
   }
  }
 },
 {
  "section": "food",
  "name_ko": "금룡",
  "district": "영등포구",
  "category": "중식",
  "lat": 37.5292714336,
  "lng": 126.9208523275,
  "phone": "",
  "thumb": "http://tong.visitkorea.or.kr/cms/resource/07/2671207_image2_1.jpg",
  "i18n": {
   "ko": {
    "name": "금룡",
    "desc": "",
    "address": "서울특별시 영등포구 국회대로70길 19 (여의도동)"
   }
  }
 },
 {
  "section": "food",
  "name_ko": "금문",
  "district": "종로구",
  "category": "중식",
  "lat": 37.585466333,
  "lng": 127.0006406888,
  "phone": "",
  "thumb": "http://tong.visitkorea.or.kr/cms/resource/04/2789804_image3_1.jpg",
  "i18n": {
   "ko": {
    "name": "금문",
    "desc": "",
    "address": "서울특별시 종로구 창경궁로 269-1 (혜화동)"
   }
  }
 },
 {
  "section": "food",
  "name_ko": "금성관나주곰탕",
  "district": "중구",
  "category": "면·국물",
  "lat": 37.5614826177,
  "lng": 126.9788572423,
  "phone": "",
  "thumb": "http://tong.visitkorea.or.kr/cms/resource/48/2661548_image2_1.jpg",
  "i18n": {
   "ko": {
    "name": "금성관나주곰탕",
    "desc": "",
    "address": "서울특별시 중구 남대문로 29"
   }
  }
 },
 {
  "section": "food",
  "name_ko": "금용문",
  "district": "종로구",
  "category": "중식",
  "lat": 37.5728256579,
  "lng": 126.9740518037,
  "phone": "",
  "thumb": "http://tong.visitkorea.or.kr/cms/resource/54/2544554_image3_1.bmp",
  "i18n": {
   "ko": {
    "name": "금용문",
    "desc": "",
    "address": "서울특별시 종로구 새문안로5가길 7 (내수동)"
   }
  }
 },
 {
  "section": "food",
  "name_ko": "기미사 성수",
  "district": "성동구",
  "category": "카페·베이커리",
  "lat": 37.5451860192,
  "lng": 127.0627889477,
  "phone": "",
  "thumb": "http://tong.visitkorea.or.kr/cms/resource/33/2901533_image3_1.jpg",
  "i18n": {
   "ko": {
    "name": "기미사 성수",
    "desc": "",
    "address": "서울특별시 성동구 성수이로26길 47 (성수동2가)"
   }
  }
 },
 {
  "section": "food",
  "name_ko": "기와",
  "district": "용산구",
  "category": "한식·백반",
  "lat": 37.5277557163,
  "lng": 126.9640706549,
  "phone": "",
  "thumb": "",
  "i18n": {
   "ko": {
    "name": "기와",
    "desc": "",
    "address": "서울특별시 용산구 한강대로21나길 40 (한강로3가)"
   }
  }
 },
 {
  "section": "food",
  "name_ko": "기절초풍왕순대",
  "district": "관악구",
  "category": "한식·백반",
  "lat": 37.4781641526,
  "lng": 126.9584336783,
  "phone": "",
  "thumb": "http://tong.visitkorea.or.kr/cms/resource/04/2850304_image3_1.jpg",
  "i18n": {
   "ko": {
    "name": "기절초풍왕순대",
    "desc": "",
    "address": "서울특별시 관악구 봉천로62길 2 (봉천동)"
   }
  }
 },
 {
  "section": "food",
  "name_ko": "기후",
  "district": "성동구",
  "category": "일식",
  "lat": 37.5406725356,
  "lng": 127.0561480144,
  "phone": "",
  "thumb": "http://tong.visitkorea.or.kr/cms/resource/59/2901559_image3_1.jpg",
  "i18n": {
   "ko": {
    "name": "기후",
    "desc": "",
    "address": "서울특별시 성동구 성수이로 66 서울숲 드림타워"
   }
  }
 },
 {
  "section": "food",
  "name_ko": "긴꼬리초밥",
  "district": "강서구",
  "category": "일식",
  "lat": 37.5596636302,
  "lng": 126.8372563156,
  "phone": "",
  "thumb": "http://tong.visitkorea.or.kr/cms/resource/78/2849678_image3_1.jpg",
  "i18n": {
   "ko": {
    "name": "긴꼬리초밥",
    "desc": "",
    "address": "서울특별시 강서구 공항대로 269-15 (마곡동)"
   }
  }
 },
 {
  "section": "food",
  "name_ko": "길목",
  "district": "강남구",
  "category": "한식·백반",
  "lat": 37.5190778257,
  "lng": 127.0564180465,
  "phone": "",
  "thumb": "http://tong.visitkorea.or.kr/cms/resource/75/2870475_image3_1.jpg",
  "i18n": {
   "ko": {
    "name": "길목",
    "desc": "",
    "address": "서울특별시 강남구 영동대로129길 10 (삼성동)"
   }
  }
 },
 {
  "section": "food",
  "name_ko": "김북순큰남비집 신사본점",
  "district": "강남구",
  "category": "한식·백반",
  "lat": 37.5207714188,
  "lng": 127.0199713168,
  "phone": "",
  "thumb": "http://tong.visitkorea.or.kr/cms/resource/92/2869092_image3_1.JPG",
  "i18n": {
   "ko": {
    "name": "김북순큰남비집 신사본점",
    "desc": "",
    "address": "서울특별시 강남구 압구정로2길 15 (신사동, 신사아이빌)"
   }
  }
 },
 {
  "section": "food",
  "name_ko": "김수사",
  "district": "강남구",
  "category": "일식",
  "lat": 37.5172691162,
  "lng": 127.0237710695,
  "phone": "",
  "thumb": "http://tong.visitkorea.or.kr/cms/resource/82/2871482_image3_1.jpg",
  "i18n": {
   "ko": {
    "name": "김수사",
    "desc": "",
    "address": "서울특별시 강남구 도산대로12길 7 (논현동)"
   }
  }
 },
 {
  "section": "food",
  "name_ko": "김영섭초밥",
  "district": "마포구",
  "category": "일식",
  "lat": 37.5777125327,
  "lng": 126.8933312477,
  "phone": "",
  "thumb": "http://tong.visitkorea.or.kr/cms/resource/84/2853984_image3_1.jpg",
  "i18n": {
   "ko": {
    "name": "김영섭초밥",
    "desc": "",
    "address": "서울특별시 마포구 월드컵북로 352-18 (상암동)"
   }
  }
 },
 {
  "section": "food",
  "name_ko": "까델루뽀",
  "district": "종로구",
  "category": "양식·세계요리",
  "lat": 37.5817995664,
  "lng": 126.9713490183,
  "phone": "",
  "thumb": "",
  "i18n": {
   "ko": {
    "name": "까델루뽀",
    "desc": "",
    "address": "서울특별시 종로구 자하문로16길 5-5"
   }
  }
 },
 {
  "section": "food",
  "name_ko": "까폼",
  "district": "강남구",
  "category": "양식·세계요리",
  "lat": 37.524935148,
  "lng": 127.0380140003,
  "phone": "",
  "thumb": "http://tong.visitkorea.or.kr/cms/resource/70/2870270_image3_1.jpg",
  "i18n": {
   "ko": {
    "name": "까폼",
    "desc": "",
    "address": "서울특별시 강남구 선릉로153길 18"
   }
  }
 },
 {
  "section": "food",
  "name_ko": "깔리",
  "district": "종로구",
  "category": "양식·세계요리",
  "lat": 37.5825166505,
  "lng": 126.999271453,
  "phone": "",
  "thumb": "http://tong.visitkorea.or.kr/cms/resource/29/2792529_image2_1.jpg",
  "i18n": {
   "ko": {
    "name": "깔리",
    "desc": "",
    "address": "서울특별시 종로구 대학로11길 43"
   }
  }
 },
 {
  "section": "food",
  "name_ko": "꺼거",
  "district": "용산구",
  "category": "중식",
  "lat": 37.5316053954,
  "lng": 126.9711421239,
  "phone": "",
  "thumb": "http://tong.visitkorea.or.kr/cms/resource/09/3587009_image3_1.jpg",
  "i18n": {
   "ko": {
    "name": "꺼거",
    "desc": "",
    "address": "서울특별시 용산구 한강대로48길 10"
   }
  }
 },
 {
  "section": "food",
  "name_ko": "꼬숑돈까스",
  "district": "서대문구",
  "category": "일식",
  "lat": 37.5577739722,
  "lng": 126.9373722395,
  "phone": "",
  "thumb": "",
  "i18n": {
   "ko": {
    "name": "꼬숑돈까스",
    "desc": "",
    "address": "서울특별시 서대문구 명물1길 2"
   }
  }
 },
 {
  "section": "food",
  "name_ko": "꼼떼 바베큐 둔촌본점",
  "district": "강동구",
  "category": "양식·세계요리",
  "lat": 37.5331334298,
  "lng": 127.1496369415,
  "phone": "",
  "thumb": "http://tong.visitkorea.or.kr/cms/resource/97/2838997_image3_1.jpg",
  "i18n": {
   "ko": {
    "name": "꼼떼 바베큐 둔촌본점",
    "desc": "",
    "address": "서울특별시 강동구 동남로51길 9"
   }
  }
 },
 {
  "section": "food",
  "name_ko": "꽁티드툴레아",
  "district": "강남구",
  "category": "한식·백반",
  "lat": 37.5256156049,
  "lng": 127.0369085263,
  "phone": "",
  "thumb": "http://tong.visitkorea.or.kr/cms/resource/51/2847851_image3_1.jpg",
  "i18n": {
   "ko": {
    "name": "꽁티드툴레아",
    "desc": "",
    "address": "서울특별시 강남구 도산대로49길 39"
   }
  }
 },
 {
  "section": "food",
  "name_ko": "꽃,밥에피다",
  "district": "종로구",
  "category": "한식·백반",
  "lat": 37.5753422114,
  "lng": 126.9840397113,
  "phone": "",
  "thumb": "http://tong.visitkorea.or.kr/cms/resource/05/2705105_image3_1.jpg",
  "i18n": {
   "ko": {
    "name": "꽃,밥에피다",
    "desc": "",
    "address": "서울특별시 종로구 인사동16길 3-6"
   }
  }
 },
 {
  "section": "food",
  "name_ko": "꾸띠자르당",
  "district": "용산구",
  "category": "양식·세계요리",
  "lat": 37.5335000407,
  "lng": 126.9946177098,
  "phone": "",
  "thumb": "http://tong.visitkorea.or.kr/cms/resource/03/2859903_image3_1.jpg",
  "i18n": {
   "ko": {
    "name": "꾸띠자르당",
    "desc": "",
    "address": "서울특별시 용산구 보광로 120 (이태원동)"
   }
  }
 },
 {
  "section": "food",
  "name_ko": "꾸아 성수점",
  "district": "성동구",
  "category": "양식·세계요리",
  "lat": 37.5461744723,
  "lng": 127.0449294351,
  "phone": "",
  "thumb": "http://tong.visitkorea.or.kr/cms/resource/17/2894817_image3_1.jpg",
  "i18n": {
   "ko": {
    "name": "꾸아 성수점",
    "desc": "",
    "address": "서울특별시 성동구 왕십리로 94-2 (성수동1가)"
   }
  }
 },
 {
  "section": "food",
  "name_ko": "꾸에바마테라",
  "district": "용산구",
  "category": "카페·베이커리",
  "lat": 37.5453318316,
  "lng": 126.9852293414,
  "phone": "",
  "thumb": "",
  "i18n": {
   "ko": {
    "name": "꾸에바마테라",
    "desc": "",
    "address": "서울특별시 용산구 소월로20길 28-1"
   }
  }
 },
 {
  "section": "food",
  "name_ko": "꿀꿀진순대 강동본점",
  "district": "강동구",
  "category": "한식·백반",
  "lat": 37.5340358242,
  "lng": 127.1342077641,
  "phone": "",
  "thumb": "http://tong.visitkorea.or.kr/cms/resource/17/2839517_image3_1.jpg",
  "i18n": {
   "ko": {
    "name": "꿀꿀진순대 강동본점",
    "desc": "",
    "address": "서울특별시 강동구 양재대로103길 70 강동아너스빌"
   }
  }
 },
 {
  "section": "food",
  "name_ko": "꿈콩카페",
  "district": "은평구",
  "category": "카페·베이커리",
  "lat": 37.6403865997,
  "lng": 126.9380226193,
  "phone": "",
  "thumb": "http://tong.visitkorea.or.kr/cms/resource/47/3443247_image3_1.JPG",
  "i18n": {
   "ko": {
    "name": "꿈콩카페",
    "desc": "",
    "address": "서울특별시 은평구 연서로50길 8 (진관동)"
   }
  }
 },
 {
  "section": "food",
  "name_ko": "나누미떡볶이",
  "district": "종로구",
  "category": "분식·주점",
  "lat": 37.5838331404,
  "lng": 126.9979270937,
  "phone": "",
  "thumb": "http://tong.visitkorea.or.kr/cms/resource/12/3094112_image3_1.jpg",
  "i18n": {
   "ko": {
    "name": "나누미떡볶이",
    "desc": "",
    "address": "서울특별시 종로구 성균관로 9-1 (명륜2가)"
   }
  }
 },
 {
  "section": "food",
  "name_ko": "나리의 집",
  "district": "용산구",
  "category": "한식·백반",
  "lat": 37.5368775275,
  "lng": 127.0002559896,
  "phone": "",
  "thumb": "http://tong.visitkorea.or.kr/cms/resource/58/3568658_image3_1.jpg",
  "i18n": {
   "ko": {
    "name": "나리의 집",
    "desc": "",
    "address": "서울특별시 용산구 이태원로 245"
   }
  }
 },
 {
  "section": "food",
  "name_ko": "낙동강",
  "district": "중구",
  "category": "한식·백반",
  "lat": 37.5676846934,
  "lng": 126.9798764188,
  "phone": "",
  "thumb": "http://tong.visitkorea.or.kr/cms/resource/20/2789520_image2_1.jpg",
  "i18n": {
   "ko": {
    "name": "낙동강",
    "desc": "",
    "address": "서울특별시 중구 을지로1길 34 (다동)"
   }
  }
 },
 {
  "section": "food",
  "name_ko": "낙산냉면",
  "district": "종로구",
  "category": "면·국물",
  "lat": 37.5745400875,
  "lng": 127.0152757763,
  "phone": "",
  "thumb": "http://tong.visitkorea.or.kr/cms/resource/90/2847190_image3_1.jpg",
  "i18n": {
   "ko": {
    "name": "낙산냉면",
    "desc": "",
    "address": "서울특별시 종로구 지봉로5길 8 (창신동)"
   }
  }
 },
 {
  "section": "food",
  "name_ko": "난포",
  "district": "성동구",
  "category": "한식·백반",
  "lat": 37.5471076572,
  "lng": 127.0426907243,
  "phone": "",
  "thumb": "http://tong.visitkorea.or.kr/cms/resource/15/2843515_image3_1.jpg",
  "i18n": {
   "ko": {
    "name": "난포",
    "desc": "",
    "address": "서울특별시 성동구 서울숲4길 18-8 (성수동1가)"
   }
  }
 },
 {
  "section": "food",
  "name_ko": "남문토방",
  "district": "중구",
  "category": "한식·백반",
  "lat": 37.560599379,
  "lng": 126.9783906441,
  "phone": "",
  "thumb": "http://tong.visitkorea.or.kr/cms/resource/28/3474928_image3_1.jpg",
  "i18n": {
   "ko": {
    "name": "남문토방",
    "desc": "",
    "address": "서울특별시 중구 남대문시장길 45-3"
   }
  }
 },
 {
  "section": "food",
  "name_ko": "남산도서관 구내식당",
  "district": "용산구",
  "category": "한식·백반",
  "lat": 37.5524531569,
  "lng": 126.9813656031,
  "phone": "",
  "thumb": "http://tong.visitkorea.or.kr/cms/resource/49/3444449_image3_1.png",
  "i18n": {
   "ko": {
    "name": "남산도서관 구내식당",
    "desc": "",
    "address": "서울특별시 용산구 소월로 109 (후암동)"
   }
  }
 },
 {
  "section": "food",
  "name_ko": "남서울민물장어",
  "district": "강남구",
  "category": "해산물·회",
  "lat": 37.5063343783,
  "lng": 127.0295402983,
  "phone": "",
  "thumb": "http://tong.visitkorea.or.kr/cms/resource/34/2871534_image3_1.jpg",
  "i18n": {
   "ko": {
    "name": "남서울민물장어",
    "desc": "",
    "address": "서울특별시 강남구 봉은사로 137 (논현동)"
   }
  }
 },
 {
  "section": "food",
  "name_ko": "남영돈",
  "district": "용산구",
  "category": "한식·백반",
  "lat": 37.5428013647,
  "lng": 126.9737915663,
  "phone": "",
  "thumb": "http://tong.visitkorea.or.kr/cms/resource/53/2836053_image3_1.jpg",
  "i18n": {
   "ko": {
    "name": "남영돈",
    "desc": "",
    "address": "서울특별시 용산구 한강대로80길 17"
   }
  }
 },
 {
  "section": "food",
  "name_ko": "남한강민물매운탕",
  "district": "광진구",
  "category": "한식·백반",
  "lat": 37.5456776907,
  "lng": 127.0662247324,
  "phone": "",
  "thumb": "http://tong.visitkorea.or.kr/cms/resource/07/2840207_image3_1.jpg",
  "i18n": {
   "ko": {
    "name": "남한강민물매운탕",
    "desc": "",
    "address": "서울특별시 광진구 동일로 150 (화양동)"
   }
  }
 },
 {
  "section": "food",
  "name_ko": "남해바다",
  "district": "마포구",
  "category": "일식",
  "lat": 37.5423120561,
  "lng": 126.9471967812,
  "phone": "",
  "thumb": "http://tong.visitkorea.or.kr/cms/resource/27/2853827_image3_1.jpg",
  "i18n": {
   "ko": {
    "name": "남해바다",
    "desc": "",
    "address": "서울특별시 마포구 토정로37길 46 (도화동, 정우맨션)"
   }
  }
 },
 {
  "section": "food",
  "name_ko": "내가국수다",
  "district": "강남구",
  "category": "면·국물",
  "lat": 37.4736673673,
  "lng": 127.1084673756,
  "phone": "",
  "thumb": "http://tong.visitkorea.or.kr/cms/resource/60/2870260_image3_1.jpg",
  "i18n": {
   "ko": {
    "name": "내가국수다",
    "desc": "",
    "address": "서울특별시 강남구 밤고개로23길 20 (율현동)"
   }
  }
 },
 {
  "section": "food",
  "name_ko": "내꾸미쭈꾸미",
  "district": "송파구",
  "category": "해산물·회",
  "lat": 37.4997954604,
  "lng": 127.1401026463,
  "phone": "",
  "thumb": "http://tong.visitkorea.or.kr/cms/resource/92/2846592_image3_1.jpg",
  "i18n": {
   "ko": {
    "name": "내꾸미쭈꾸미",
    "desc": "",
    "address": "서울특별시 송파구 성내천로 106 (오금동)"
   }
  }
 },
 {
  "section": "food",
  "name_ko": "내자상회",
  "district": "종로구",
  "category": "카페·베이커리",
  "lat": 37.5758502431,
  "lng": 126.9705214845,
  "phone": "",
  "thumb": "http://tong.visitkorea.or.kr/cms/resource/97/2716897_image3_1.jpg",
  "i18n": {
   "ko": {
    "name": "내자상회",
    "desc": "",
    "address": "서울특별시 종로구 사직로10길 3"
   }
  }
 },
 {
  "section": "food",
  "name_ko": "널담은공간",
  "district": "종로구",
  "category": "카페·베이커리",
  "lat": 37.578102926,
  "lng": 126.9798483489,
  "phone": "",
  "thumb": "http://tong.visitkorea.or.kr/cms/resource/96/2991896_image3_1.jpeg",
  "i18n": {
   "ko": {
    "name": "널담은공간",
    "desc": "",
    "address": "서울특별시 종로구 삼청로 24"
   }
  }
 },
 {
  "section": "food",
  "name_ko": "네기다이닝라운지",
  "district": "강남구",
  "category": "일식",
  "lat": 37.5195355246,
  "lng": 127.024054313,
  "phone": "",
  "thumb": "http://tong.visitkorea.or.kr/cms/resource/46/2870246_image3_1.jpg",
  "i18n": {
   "ko": {
    "name": "네기다이닝라운지",
    "desc": "",
    "address": "서울특별시 강남구 도산대로15길 18 (신사동)"
   }
  }
 },
 {
  "section": "food",
  "name_ko": "네모집 청담점",
  "district": "강남구",
  "category": "한식·백반",
  "lat": 37.5226577043,
  "lng": 127.0418664921,
  "phone": "",
  "thumb": "http://tong.visitkorea.or.kr/cms/resource/14/2870214_image3_1.jpg",
  "i18n": {
   "ko": {
    "name": "네모집 청담점",
    "desc": "",
    "address": "서울특별시 강남구 선릉로148길 28 (청담동)"
   }
  }
 },
 {
  "section": "food",
  "name_ko": "노들강본채",
  "district": "강남구",
  "category": "한식·백반",
  "lat": 37.5062843205,
  "lng": 127.025987845,
  "phone": "",
  "thumb": "http://tong.visitkorea.or.kr/cms/resource/50/2871550_image3_1.jpg",
  "i18n": {
   "ko": {
    "name": "노들강본채",
    "desc": "",
    "address": "서울특별시 강남구 강남대로114길 21 (논현동)"
   }
  }
 },
 {
  "section": "food",
  "name_ko": "노란상 소갈비",
  "district": "강남구",
  "category": "고기·구이",
  "lat": 37.5175721359,
  "lng": 127.0391946569,
  "phone": "",
  "thumb": "http://tong.visitkorea.or.kr/cms/resource/78/2870178_image3_1.JPG",
  "i18n": {
   "ko": {
    "name": "노란상 소갈비",
    "desc": "",
    "address": "서울특별시 강남구 선릉로131길 22 (논현동)"
   }
  }
 },
 {
  "section": "food",
  "name_ko": "노랑저고리",
  "district": "서초구",
  "category": "한식·백반",
  "lat": 37.4983602268,
  "lng": 127.0252436924,
  "phone": "",
  "thumb": "",
  "i18n": {
   "ko": {
    "name": "노랑저고리",
    "desc": "",
    "address": "서울특별시 서초구 서초대로73길 9 (서초동)"
   }
  }
 },
 {
  "section": "food",
  "name_ko": "노조미일식",
  "district": "영등포구",
  "category": "일식",
  "lat": 37.5275632774,
  "lng": 126.9196802604,
  "phone": "",
  "thumb": "http://tong.visitkorea.or.kr/cms/resource/09/2855109_image3_1.jpg",
  "i18n": {
   "ko": {
    "name": "노조미일식",
    "desc": "",
    "address": "서울특별시 영등포구 은행로 3 (여의도동)"
   }
  }
 },
 {
  "section": "food",
  "name_ko": "노천파전",
  "district": "동대문구",
  "category": "한식·백반",
  "lat": 37.5897557225,
  "lng": 127.056204948,
  "phone": "",
  "thumb": "http://tong.visitkorea.or.kr/cms/resource/01/3474701_image3_1.jpg",
  "i18n": {
   "ko": {
    "name": "노천파전",
    "desc": "",
    "address": "서울특별시 동대문구 회기로28길 3"
   }
  }
 },
 {
  "section": "food",
  "name_ko": "논밭골 봉천점",
  "district": "관악구",
  "category": "한식·백반",
  "lat": 37.4805414311,
  "lng": 126.9459347493,
  "phone": "",
  "thumb": "http://tong.visitkorea.or.kr/cms/resource/90/2850290_image3_1.jpg",
  "i18n": {
   "ko": {
    "name": "논밭골 봉천점",
    "desc": "",
    "address": "서울특별시 관악구 청룡길 30"
   }
  }
 },
 {
  "section": "food",
  "name_ko": "농민백암순대 본점",
  "district": "강남구",
  "category": "한식·백반",
  "lat": 37.5037600996,
  "lng": 127.0530437877,
  "phone": "",
  "thumb": "",
  "i18n": {
   "ko": {
    "name": "농민백암순대 본점",
    "desc": "",
    "address": "서울특별시 강남구 선릉로86길 40-4"
   }
  }
 },
 {
  "section": "food",
  "name_ko": "농부보쌈",
  "district": "중랑구",
  "category": "한식·백반",
  "lat": 37.5865345731,
  "lng": 127.0949570645,
  "phone": "",
  "thumb": "http://tong.visitkorea.or.kr/cms/resource/72/2847972_image3_1.jpg",
  "i18n": {
   "ko": {
    "name": "농부보쌈",
    "desc": "",
    "address": "서울특별시 중랑구 용마산로 389 (면목동)"
   }
  }
 },
 {
  "section": "food",
  "name_ko": "뇨끼바",
  "district": "용산구",
  "category": "양식·세계요리",
  "lat": 37.5350667926,
  "lng": 127.0095190865,
  "phone": "",
  "thumb": "http://tong.visitkorea.or.kr/cms/resource/54/2851954_image3_1.jpg",
  "i18n": {
   "ko": {
    "name": "뇨끼바",
    "desc": "",
    "address": "서울특별시 용산구 한남대로20길 41-4"
   }
  }
 },
 {
  "section": "food",
  "name_ko": "누메로도스",
  "district": "성동구",
  "category": "양식·세계요리",
  "lat": 37.5464189322,
  "lng": 127.0473514302,
  "phone": "",
  "thumb": "http://tong.visitkorea.or.kr/cms/resource/99/2894799_image3_1.jpg",
  "i18n": {
   "ko": {
    "name": "누메로도스",
    "desc": "",
    "address": "서울특별시 성동구 상원1길 35-9 (성수동1가)"
   }
  }
 },
 {
  "section": "food",
  "name_ko": "누메로뜨레쓰",
  "district": "성동구",
  "category": "양식·세계요리",
  "lat": 37.5425888455,
  "lng": 127.0486930831,
  "phone": "",
  "thumb": "http://tong.visitkorea.or.kr/cms/resource/76/2894776_image3_1.jpg",
  "i18n": {
   "ko": {
    "name": "누메로뜨레쓰",
    "desc": "",
    "address": "서울특별시 성동구 성수일로 21 (성수동1가)"
   }
  }
 },
 {
  "section": "food",
  "name_ko": "뉘조",
  "district": "종로구",
  "category": "한식·백반",
  "lat": 37.5751644745,
  "lng": 126.985186834,
  "phone": "",
  "thumb": "",
  "i18n": {
   "ko": {
    "name": "뉘조",
    "desc": "",
    "address": "서울특별시 종로구 인사동14길 27"
   }
  }
 },
 {
  "section": "food",
  "name_ko": "뉴델리",
  "district": "동대문구",
  "category": "양식·세계요리",
  "lat": 37.5933719136,
  "lng": 127.0531301254,
  "phone": "",
  "thumb": "http://tong.visitkorea.or.kr/cms/resource/58/3577458_image3_1.jpg",
  "i18n": {
   "ko": {
    "name": "뉴델리",
    "desc": "",
    "address": "서울특별시 동대문구 경희대로6길 5"
   }
  }
 },
 {
  "section": "food",
  "name_ko": "뉴웨이브서울",
  "district": "광진구",
  "category": "양식·세계요리",
  "lat": 37.5417615617,
  "lng": 127.0707994273,
  "phone": "",
  "thumb": "",
  "i18n": {
   "ko": {
    "name": "뉴웨이브서울",
    "desc": "",
    "address": "서울특별시 광진구 아차산로33길 28-10"
   }
  }
 },
 {
  "section": "food",
  "name_ko": "늘복집",
  "district": "강남구",
  "category": "한식·백반",
  "lat": 37.479524919,
  "lng": 127.1028205009,
  "phone": "",
  "thumb": "http://tong.visitkorea.or.kr/cms/resource/99/2870399_image3_1.jpg",
  "i18n": {
   "ko": {
    "name": "늘복집",
    "desc": "",
    "address": "서울특별시 강남구 밤고개로14길 13-48 (자곡동)"
   }
  }
 },
 {
  "section": "food",
  "name_ko": "늘봄해물찜&손칼국수 답십리본점",
  "district": "동대문구",
  "category": "해산물·회",
  "lat": 37.5686137463,
  "lng": 127.0568221592,
  "phone": "",
  "thumb": "http://tong.visitkorea.or.kr/cms/resource/09/2842709_image3_1.jpg",
  "i18n": {
   "ko": {
    "name": "늘봄해물찜&손칼국수 답십리본점",
    "desc": "",
    "address": "서울특별시 동대문구 전농로 39 (답십리동)"
   }
  }
 },
 {
  "section": "food",
  "name_ko": "늘푸른목장 잠실본점",
  "district": "송파구",
  "category": "한식·백반",
  "lat": 37.5096321728,
  "lng": 127.0826548153,
  "phone": "",
  "thumb": "http://tong.visitkorea.or.kr/cms/resource/36/2839936_image3_1.jpg",
  "i18n": {
   "ko": {
    "name": "늘푸른목장 잠실본점",
    "desc": "",
    "address": "서울특별시 송파구 백제고분로9길 34"
   }
  }
 },
 {
  "section": "food",
  "name_ko": "능이버섯백숙",
  "district": "영등포구",
  "category": "한식·백반",
  "lat": 37.5168111987,
  "lng": 126.8888722596,
  "phone": "",
  "thumb": "http://tong.visitkorea.or.kr/cms/resource/95/2851595_image3_1.jpg",
  "i18n": {
   "ko": {
    "name": "능이버섯백숙",
    "desc": "",
    "address": "서울특별시 영등포구 선유로 32"
   }
  }
 },
 {
  "section": "food",
  "name_ko": "니드스윗",
  "district": "성동구",
  "category": "카페·베이커리",
  "lat": 37.549043597,
  "lng": 127.0457098386,
  "phone": "",
  "thumb": "http://tong.visitkorea.or.kr/cms/resource/55/2894755_image3_1.jpg",
  "i18n": {
   "ko": {
    "name": "니드스윗",
    "desc": "",
    "address": "서울특별시 성동구 아차산로1길 9"
   }
  }
 },
 {
  "section": "food",
  "name_ko": "다 피타(Da Pitta)",
  "district": "서초구",
  "category": "양식·세계요리",
  "lat": 37.4828922412,
  "lng": 127.006434731,
  "phone": "",
  "thumb": "http://tong.visitkorea.or.kr/cms/resource/60/2856560_image3_1.jpg",
  "i18n": {
   "ko": {
    "name": "다 피타(Da Pitta)",
    "desc": "",
    "address": "서울특별시 서초구 효령로 202 (서초동)"
   }
  }
 },
 {
  "section": "food",
  "name_ko": "다과상사",
  "district": "용산구",
  "category": "카페·베이커리",
  "lat": 37.53942654,
  "lng": 126.9617010969,
  "phone": "",
  "thumb": "http://tong.visitkorea.or.kr/cms/resource/76/3580476_image3_1.jpg",
  "i18n": {
   "ko": {
    "name": "다과상사",
    "desc": "",
    "address": "서울특별시 용산구 백범로 291"
   }
  }
 },
 {
  "section": "food",
  "name_ko": "다동 황소막창",
  "district": "중구",
  "category": "고기·구이",
  "lat": 37.5627130907,
  "lng": 126.9822235678,
  "phone": "",
  "thumb": "",
  "i18n": {
   "ko": {
    "name": "다동 황소막창",
    "desc": "",
    "address": "서울특별시 중구 남대문로 60-5 (명동2가)"
   }
  }
 },
 {
  "section": "food",
  "name_ko": "다락정",
  "district": "종로구",
  "category": "한식·백반",
  "lat": 37.5873018875,
  "lng": 126.9815507103,
  "phone": "",
  "thumb": "",
  "i18n": {
   "ko": {
    "name": "다락정",
    "desc": "",
    "address": "서울특별시 종로구 삼청로 131-1 (삼청동)"
   }
  }
 },
 {
  "section": "food",
  "name_ko": "다래함박스텍",
  "district": "강북구",
  "category": "양식·세계요리",
  "lat": 37.6328278234,
  "lng": 127.0190571087,
  "phone": "",
  "thumb": "",
  "i18n": {
   "ko": {
    "name": "다래함박스텍",
    "desc": "",
    "address": "서울특별시 강북구 수유로 20-2"
   }
  }
 },
 {
  "section": "food",
  "name_ko": "다온바이뱀부",
  "district": "강남구",
  "category": "한식·백반",
  "lat": 37.5161276537,
  "lng": 127.02776796,
  "phone": "",
  "thumb": "http://tong.visitkorea.or.kr/cms/resource/63/2870163_image3_1.jpg",
  "i18n": {
   "ko": {
    "name": "다온바이뱀부",
    "desc": "",
    "address": "서울특별시 강남구 학동로25길 39 (논현동)"
   }
  }
 },
 {
  "section": "food",
  "name_ko": "단미그린비",
  "district": "강남구",
  "category": "한식·백반",
  "lat": 37.4793693798,
  "lng": 127.1026871842,
  "phone": "",
  "thumb": "",
  "i18n": {
   "ko": {
    "name": "단미그린비",
    "desc": "",
    "address": "서울특별시 강남구 밤고개로14길 13-50"
   }
  }
 },
 {
  "section": "food",
  "name_ko": "단박왕돈까스",
  "district": "용산구",
  "category": "양식·세계요리",
  "lat": 37.5372602669,
  "lng": 126.9696226583,
  "phone": "",
  "thumb": "http://tong.visitkorea.or.kr/cms/resource/77/2851977_image3_1.jpg",
  "i18n": {
   "ko": {
    "name": "단박왕돈까스",
    "desc": "",
    "address": "서울특별시 용산구 백범로90길 74 (문배동, 이안용산)"
   }
  }
 },
 {
  "section": "food",
  "name_ko": "단비",
  "district": "용산구",
  "category": "한식·백반",
  "lat": 37.5352723121,
  "lng": 127.0088135891,
  "phone": "",
  "thumb": "http://tong.visitkorea.or.kr/cms/resource/96/2851996_image3_1.jpg",
  "i18n": {
   "ko": {
    "name": "단비",
    "desc": "",
    "address": "서울특별시 용산구 한남대로20길 21-12 (한남동)"
   }
  }
 },
 {
  "section": "food",
  "name_ko": "단스시",
  "district": "강남구",
  "category": "일식",
  "lat": 37.5151862409,
  "lng": 127.0358005892,
  "phone": "",
  "thumb": "http://tong.visitkorea.or.kr/cms/resource/44/2870144_image3_1.jpg",
  "i18n": {
   "ko": {
    "name": "단스시",
    "desc": "",
    "address": "서울특별시 강남구 언주로 652 (논현동)"
   }
  }
 },
 {
  "section": "food",
  "name_ko": "단아",
  "district": "영등포구",
  "category": "한식·백반",
  "lat": 37.5206059278,
  "lng": 126.9294934507,
  "phone": "",
  "thumb": "http://tong.visitkorea.or.kr/cms/resource/69/2854369_image3_1.jpg",
  "i18n": {
   "ko": {
    "name": "단아",
    "desc": "",
    "address": "서울특별시 영등포구 여의대방로67길 21 정곡빌딩"
   }
  }
 },
 {
  "section": "food",
  "name_ko": "단일서울",
  "district": "성동구",
  "category": "카페·베이커리",
  "lat": 37.5430859525,
  "lng": 127.0455155806,
  "phone": "",
  "thumb": "http://tong.visitkorea.or.kr/cms/resource/34/2894734_image3_1.jpg",
  "i18n": {
   "ko": {
    "name": "단일서울",
    "desc": "",
    "address": "서울특별시 성동구 왕십리로 66-33 (성수동1가)"
   }
  }
 },
 {
  "section": "food",
  "name_ko": "달마시안",
  "district": "강남구",
  "category": "양식·세계요리",
  "lat": 37.5263238132,
  "lng": 127.0345420549,
  "phone": "",
  "thumb": "http://tong.visitkorea.or.kr/cms/resource/77/2849277_image3_1.jpg",
  "i18n": {
   "ko": {
    "name": "달마시안",
    "desc": "",
    "address": "서울특별시 강남구 압구정로42길 42"
   }
  }
 },
 {
  "section": "food",
  "name_ko": "닭내장집",
  "district": "서대문구",
  "category": "한식·백반",
  "lat": 37.5695111074,
  "lng": 126.9156322234,
  "phone": "",
  "thumb": "http://tong.visitkorea.or.kr/cms/resource/33/3576333_image3_1.jpg",
  "i18n": {
   "ko": {
    "name": "닭내장집",
    "desc": "",
    "address": "서울특별시 서대문구 수색로 28-5"
   }
  }
 },
 {
  "section": "food",
  "name_ko": "닭으로가 압구정본점",
  "district": "강남구",
  "category": "한식·백반",
  "lat": 37.5270376893,
  "lng": 127.0384194597,
  "phone": "",
  "thumb": "http://tong.visitkorea.or.kr/cms/resource/24/2870124_image3_1.jpg",
  "i18n": {
   "ko": {
    "name": "닭으로가 압구정본점",
    "desc": "",
    "address": "서울특별시 강남구 언주로172길 55"
   }
  }
 },
 {
  "section": "food",
  "name_ko": "닭한마리 공릉본점",
  "district": "노원구",
  "category": "한식·백반",
  "lat": 37.6212551745,
  "lng": 127.0748301314,
  "phone": "",
  "thumb": "http://tong.visitkorea.or.kr/cms/resource/08/2833408_image3_1.jpg",
  "i18n": {
   "ko": {
    "name": "닭한마리 공릉본점",
    "desc": "",
    "address": "서울특별시 노원구 동일로 1020 공릉본점닭한마리"
   }
  }
 },
 {
  "section": "food",
  "name_ko": "닭한마리돼지한근",
  "district": "중구",
  "category": "고기·구이",
  "lat": 37.5608026145,
  "lng": 127.0052131937,
  "phone": "",
  "thumb": "http://tong.visitkorea.or.kr/cms/resource/36/2655236_image2_1.jpg",
  "i18n": {
   "ko": {
    "name": "닭한마리돼지한근",
    "desc": "",
    "address": "서울특별시 중구 동호로24길 33"
   }
  }
 },
 {
  "section": "food",
  "name_ko": "담은갈비",
  "district": "송파구",
  "category": "고기·구이",
  "lat": 37.5069020593,
  "lng": 127.0896209258,
  "phone": "",
  "thumb": "http://tong.visitkorea.or.kr/cms/resource/28/2843028_image3_1.jpg",
  "i18n": {
   "ko": {
    "name": "담은갈비",
    "desc": "",
    "address": "서울특별시 송파구 삼전로 93 (잠실동, 태정빌딩(잠실동 다세대주택))"
   }
  }
 },
 {
  "section": "food",
  "name_ko": "당산오돌 본점",
  "district": "영등포구",
  "category": "한식·백반",
  "lat": 37.5276156945,
  "lng": 126.8998320674,
  "phone": "",
  "thumb": "http://tong.visitkorea.or.kr/cms/resource/93/2854393_image3_1.jpg",
  "i18n": {
   "ko": {
    "name": "당산오돌 본점",
    "desc": "",
    "address": "서울특별시 영등포구 국회대로37길 6 (당산동4가)"
   }
  }
 },
 {
  "section": "food",
  "name_ko": "대가방 본점",
  "district": "강남구",
  "category": "중식",
  "lat": 37.5105785734,
  "lng": 127.0430806123,
  "phone": "",
  "thumb": "http://tong.visitkorea.or.kr/cms/resource/16/2870116_image3_1.jpg",
  "i18n": {
   "ko": {
    "name": "대가방 본점",
    "desc": "",
    "address": "서울특별시 강남구 봉은사로 333 (논현동, 선정릉역 모아엘가 퍼스트 홈)"
   }
  }
 },
 {
  "section": "food",
  "name_ko": "대가식당",
  "district": "광진구",
  "category": "한식·백반",
  "lat": 37.5420841713,
  "lng": 127.0943861597,
  "phone": "",
  "thumb": "http://tong.visitkorea.or.kr/cms/resource/16/2840216_image3_1.jpg",
  "i18n": {
   "ko": {
    "name": "대가식당",
    "desc": "",
    "address": "서울특별시 광진구 광나루로 596 (구의동)"
   }
  }
 },
 {
  "section": "food",
  "name_ko": "대가원 본점",
  "district": "강남구",
  "category": "한식·백반",
  "lat": 37.5147696287,
  "lng": 127.0361394589,
  "phone": "",
  "thumb": "http://tong.visitkorea.or.kr/cms/resource/74/2870074_image3_1.JPG",
  "i18n": {
   "ko": {
    "name": "대가원 본점",
    "desc": "",
    "address": "서울특별시 강남구 언주로130길 8 (논현동)"
   }
  }
 },
 {
  "section": "food",
  "name_ko": "대돈집",
  "district": "성동구",
  "category": "한식·백반",
  "lat": 37.5486714162,
  "lng": 127.0456154132,
  "phone": "",
  "thumb": "http://tong.visitkorea.or.kr/cms/resource/33/2894833_image3_1.jpg",
  "i18n": {
   "ko": {
    "name": "대돈집",
    "desc": "",
    "address": "서울특별시 성동구 왕십리로14길 18 뚝섬영재어린이집"
   }
  }
 },
 {
  "section": "food",
  "name_ko": "대문점",
  "district": "영등포구",
  "category": "중식",
  "lat": 37.5185918989,
  "lng": 126.908556527,
  "phone": "",
  "thumb": "",
  "i18n": {
   "ko": {
    "name": "대문점",
    "desc": "",
    "address": "서울특별시 영등포구 영중로10길 30"
   }
  }
 },
 {
  "section": "food",
  "name_ko": "대문한정식",
  "district": "도봉구",
  "category": "한식·백반",
  "lat": 37.6636966089,
  "lng": 127.0275415665,
  "phone": "",
  "thumb": "",
  "i18n": {
   "ko": {
    "name": "대문한정식",
    "desc": "",
    "address": "서울특별시 도봉구 시루봉로 139-6"
   }
  }
 },
 {
  "section": "food",
  "name_ko": "대보명가",
  "district": "강북구",
  "category": "한식·백반",
  "lat": 37.6457344413,
  "lng": 127.0071328288,
  "phone": "",
  "thumb": "http://tong.visitkorea.or.kr/cms/resource/09/2834709_image3_1.jpg",
  "i18n": {
   "ko": {
    "name": "대보명가",
    "desc": "",
    "address": "서울특별시 강북구 4.19로 69"
   }
  }
 },
 {
  "section": "food",
  "name_ko": "대성갈비",
  "district": "성동구",
  "category": "고기·구이",
  "lat": 37.546246749,
  "lng": 127.0484485572,
  "phone": "",
  "thumb": "",
  "i18n": {
   "ko": {
    "name": "대성갈비",
    "desc": "",
    "address": "서울특별시 성동구 상원1길 26 (성수동1가)"
   }
  }
 },
 {
  "section": "food",
  "name_ko": "대장금",
  "district": "송파구",
  "category": "한식·백반",
  "lat": 37.5141653654,
  "lng": 127.1040749597,
  "phone": "",
  "thumb": "",
  "i18n": {
   "ko": {
    "name": "대장금",
    "desc": "",
    "address": "서울특별시 송파구 올림픽로 300 (신천동)"
   }
  }
 },
 {
  "section": "food",
  "name_ko": "대한옥",
  "district": "영등포구",
  "category": "한식·백반",
  "lat": 37.5194140671,
  "lng": 126.9108951791,
  "phone": "",
  "thumb": "http://tong.visitkorea.or.kr/cms/resource/70/2850170_image3_1.jpg",
  "i18n": {
   "ko": {
    "name": "대한옥",
    "desc": "",
    "address": "서울특별시 영등포구 영등포로51길 6 (영등포동2가)"
   }
  }
 },
 {
  "section": "food",
  "name_ko": "대한제빵소",
  "district": "마포구",
  "category": "카페·베이커리",
  "lat": 37.5801982781,
  "lng": 126.8890565676,
  "phone": "",
  "thumb": "http://tong.visitkorea.or.kr/cms/resource/18/3453518_image3_1.JPG",
  "i18n": {
   "ko": {
    "name": "대한제빵소",
    "desc": "",
    "address": "서울특별시 마포구 월드컵북로 402 (상암동)"
   }
  }
 },
 {
  "section": "food",
  "name_ko": "대흥정육식당",
  "district": "성동구",
  "category": "고기·구이",
  "lat": 37.539100277,
  "lng": 127.0439852779,
  "phone": "",
  "thumb": "http://tong.visitkorea.or.kr/cms/resource/97/2898997_image3_1.jpg",
  "i18n": {
   "ko": {
    "name": "대흥정육식당",
    "desc": "",
    "address": "서울특별시 성동구 왕십리로 16 (성수동1가, 트리마제)"
   }
  }
 },
 {
  "section": "food",
  "name_ko": "댓잎갈비 본점",
  "district": "용산구",
  "category": "고기·구이",
  "lat": 37.5247984033,
  "lng": 127.001842298,
  "phone": "",
  "thumb": "http://tong.visitkorea.or.kr/cms/resource/02/3577002_image3_1.jpg",
  "i18n": {
   "ko": {
    "name": "댓잎갈비 본점",
    "desc": "",
    "address": "서울특별시 용산구 서빙고로91길 2 댓잎갈비"
   }
  }
 },
 {
  "section": "food",
  "name_ko": "더 스팟 패뷸러스",
  "district": "중구",
  "category": "카페·베이커리",
  "lat": 37.5623853579,
  "lng": 126.982615208,
  "phone": "",
  "thumb": "http://tong.visitkorea.or.kr/cms/resource/38/2792538_image2_1.jpg",
  "i18n": {
   "ko": {
    "name": "더 스팟 패뷸러스",
    "desc": "",
    "address": "서울특별시 중구 명동2길 22 (명동2가)"
   }
  }
 },
 {
  "section": "food",
  "name_ko": "더라운지 JW메리어트동대문스퀘어서울",
  "district": "종로구",
  "category": "양식·세계요리",
  "lat": 37.5703710113,
  "lng": 127.0087987073,
  "phone": "",
  "thumb": "http://tong.visitkorea.or.kr/cms/resource/96/2655196_image2_1.jpg",
  "i18n": {
   "ko": {
    "name": "더라운지 JW메리어트동대문스퀘어서울",
    "desc": "",
    "address": "서울특별시 종로구 청계천로 279, JW메리어트동대문스퀘어서울 1층"
   }
  }
 },
 {
  "section": "food",
  "name_ko": "더아너스",
  "district": "중랑구",
  "category": "한식·백반",
  "lat": 37.5981387149,
  "lng": 127.0913376195,
  "phone": "",
  "thumb": "http://tong.visitkorea.or.kr/cms/resource/13/2835813_image3_1.jpg",
  "i18n": {
   "ko": {
    "name": "더아너스",
    "desc": "",
    "address": "서울특별시 중랑구 망우로 353 상봉 프레미어스 엠코"
   }
  }
 },
 {
  "section": "food",
  "name_ko": "더웍",
  "district": "성북구",
  "category": "중식",
  "lat": 37.6038534948,
  "lng": 127.0234880845,
  "phone": "",
  "thumb": "",
  "i18n": {
   "ko": {
    "name": "더웍",
    "desc": "",
    "address": "서울특별시 성북구 길음로 11 (길음동, 길음역롯데캐슬트윈골드아파트)"
   }
  }
 },
 {
  "section": "food",
  "name_ko": "더원 레스토랑",
  "district": "강남구",
  "category": "중식",
  "lat": 37.5200388484,
  "lng": 127.0576901262,
  "phone": "",
  "thumb": "http://tong.visitkorea.or.kr/cms/resource/07/2870007_image3_1.JPG",
  "i18n": {
   "ko": {
    "name": "더원 레스토랑",
    "desc": "",
    "address": "서울특별시 강남구 영동대로 648 (삼성동)"
   }
  }
 },
 {
  "section": "food",
  "name_ko": "더코너키친",
  "district": "종로구",
  "category": "양식·세계요리",
  "lat": 37.6071410749,
  "lng": 126.9719426906,
  "phone": "",
  "thumb": "http://tong.visitkorea.or.kr/cms/resource/71/2848071_image3_1.jpg",
  "i18n": {
   "ko": {
    "name": "더코너키친",
    "desc": "",
    "address": "서울특별시 종로구 평창문화로 98 (평창동)"
   }
  }
 },
 {
  "section": "food",
  "name_ko": "더클래스 청담",
  "district": "강남구",
  "category": "양식·세계요리",
  "lat": 37.5261878572,
  "lng": 127.0422913531,
  "phone": "",
  "thumb": "http://tong.visitkorea.or.kr/cms/resource/98/2779098_image2_1.png",
  "i18n": {
   "ko": {
    "name": "더클래스 청담",
    "desc": "",
    "address": "서울특별시 강남구 압구정로60길 17-5"
   }
  }
 },
 {
  "section": "food",
  "name_ko": "더플레이스다이닝",
  "district": "용산구",
  "category": "양식·세계요리",
  "lat": 37.5511089858,
  "lng": 126.9878983791,
  "phone": "",
  "thumb": "",
  "i18n": {
   "ko": {
    "name": "더플레이스다이닝",
    "desc": "",
    "address": "서울특별시 용산구 남산공원길 105"
   }
  }
 },
 {
  "section": "food",
  "name_ko": "더한강",
  "district": "동작구",
  "category": "카페·베이커리",
  "lat": 37.5123684883,
  "lng": 126.9569939562,
  "phone": "",
  "thumb": "http://tong.visitkorea.or.kr/cms/resource/33/2834933_image3_1.jpg",
  "i18n": {
   "ko": {
    "name": "더한강",
    "desc": "",
    "address": "서울특별시 동작구 노량진로32길 29-6"
   }
  }
 },
 {
  "section": "food",
  "name_ko": "덕승재 상암본점",
  "district": "마포구",
  "category": "한식·백반",
  "lat": 37.5771597852,
  "lng": 126.8914258814,
  "phone": "",
  "thumb": "http://tong.visitkorea.or.kr/cms/resource/27/2847827_image3_1.jpg",
  "i18n": {
   "ko": {
    "name": "덕승재 상암본점",
    "desc": "",
    "address": "서울특별시 마포구 월드컵북로 361 (상암동)"
   }
  }
 },
 {
  "section": "food",
  "name_ko": "덕후선생",
  "district": "강남구",
  "category": "중식",
  "lat": 37.5253101437,
  "lng": 127.0401887917,
  "phone": "",
  "thumb": "http://tong.visitkorea.or.kr/cms/resource/54/2854354_image3_1.jpg",
  "i18n": {
   "ko": {
    "name": "덕후선생",
    "desc": "",
    "address": "서울특별시 강남구 선릉로 822 (청담동)"
   }
  }
 },
 {
  "section": "food",
  "name_ko": "도락",
  "district": "마포구",
  "category": "한식·백반",
  "lat": 37.5813786875,
  "lng": 126.8885621347,
  "phone": "",
  "thumb": "http://tong.visitkorea.or.kr/cms/resource/61/3442861_image3_1.JPG",
  "i18n": {
   "ko": {
    "name": "도락",
    "desc": "",
    "address": "서울특별시 마포구 월드컵북로54길 17 (상암동)"
   }
  }
 },
 {
  "section": "food",
  "name_ko": "도봉산양고기",
  "district": "도봉구",
  "category": "고기·구이",
  "lat": 37.6899771406,
  "lng": 127.0417561863,
  "phone": "",
  "thumb": "http://tong.visitkorea.or.kr/cms/resource/86/2832786_image3_1.jpg",
  "i18n": {
   "ko": {
    "name": "도봉산양고기",
    "desc": "",
    "address": "서울특별시 도봉구 도봉로191길 99-6 (도봉동)"
   }
  }
 },
 {
  "section": "food",
  "name_ko": "도원마산아구찜",
  "district": "종로구",
  "category": "해산물·회",
  "lat": 37.573845233,
  "lng": 126.9879366209,
  "phone": "",
  "thumb": "http://tong.visitkorea.or.kr/cms/resource/85/2668185_image3_1.jpg",
  "i18n": {
   "ko": {
    "name": "도원마산아구찜",
    "desc": "",
    "address": "서울특별시 종로구 삼일대로 438"
   }
  }
 },
 {
  "section": "food",
  "name_ko": "도원스타일",
  "district": "강남구",
  "category": "중식",
  "lat": 37.5274180039,
  "lng": 127.0274843337,
  "phone": "",
  "thumb": "",
  "i18n": {
   "ko": {
    "name": "도원스타일",
    "desc": "",
    "address": "서울특별시 강남구 압구정로 165"
   }
  }
 },
 {
  "section": "food",
  "name_ko": "도원한우",
  "district": "강동구",
  "category": "고기·구이",
  "lat": 37.5264091268,
  "lng": 127.1450153311,
  "phone": "",
  "thumb": "http://tong.visitkorea.or.kr/cms/resource/70/2834370_image3_1.jpg",
  "i18n": {
   "ko": {
    "name": "도원한우",
    "desc": "",
    "address": "서울특별시 강동구 진황도로 227 하선빌딩"
   }
  }
 },
 {
  "section": "food",
  "name_ko": "도읍지",
  "district": "동대문구",
  "category": "한식·백반",
  "lat": 37.5930552828,
  "lng": 127.0530968038,
  "phone": "",
  "thumb": "http://tong.visitkorea.or.kr/cms/resource/11/3474711_image3_1.jpg",
  "i18n": {
   "ko": {
    "name": "도읍지",
    "desc": "",
    "address": "서울특별시 동대문구 회기로21길 38-1"
   }
  }
 },
 {
  "section": "food",
  "name_ko": "도일처",
  "district": "강서구",
  "category": "중식",
  "lat": 37.5620544928,
  "lng": 126.8077561621,
  "phone": "",
  "thumb": "http://tong.visitkorea.or.kr/cms/resource/37/2685037_image2_1.jpg",
  "i18n": {
   "ko": {
    "name": "도일처",
    "desc": "",
    "address": "서울특별시 강서구 개화동로 567"
   }
  }
 },
 {
  "section": "food",
  "name_ko": "돈까스의집",
  "district": "송파구",
  "category": "양식·세계요리",
  "lat": 37.5070159544,
  "lng": 127.0906986015,
  "phone": "",
  "thumb": "http://tong.visitkorea.or.kr/cms/resource/62/2843062_image3_1.jpg",
  "i18n": {
   "ko": {
    "name": "돈까스의집",
    "desc": "",
    "address": "서울특별시 송파구 삼전로 100 (삼전동)"
   }
  }
 },
 {
  "section": "food",
  "name_ko": "돈까스잔치 동빙고점",
  "district": "용산구",
  "category": "한식·백반",
  "lat": 37.5213070453,
  "lng": 126.9964290009,
  "phone": "",
  "thumb": "http://tong.visitkorea.or.kr/cms/resource/00/2837900_image3_1.jpg",
  "i18n": {
   "ko": {
    "name": "돈까스잔치 동빙고점",
    "desc": "",
    "address": "서울특별시 용산구 서빙고로 297"
   }
  }
 },
 {
  "section": "food",
  "name_ko": "돈족골",
  "district": "송파구",
  "category": "한식·백반",
  "lat": 37.5031415259,
  "lng": 127.0974536533,
  "phone": "",
  "thumb": "http://tong.visitkorea.or.kr/cms/resource/51/2844951_image3_1.jpg",
  "i18n": {
   "ko": {
    "name": "돈족골",
    "desc": "",
    "address": "서울특별시 송파구 삼학사로 66 (석촌동)"
   }
  }
 },
 {
  "section": "food",
  "name_ko": "동경우동",
  "district": "종로구",
  "category": "면·국물",
  "lat": 37.5714341825,
  "lng": 126.9757044705,
  "phone": "",
  "thumb": "http://tong.visitkorea.or.kr/cms/resource/14/2789814_image3_1.jpg",
  "i18n": {
   "ko": {
    "name": "동경우동",
    "desc": "",
    "address": "서울특별시 종로구 새문안로9길 28 (도렴동)"
   }
  }
 },
 {
  "section": "food",
  "name_ko": "동달식당 강남본점",
  "district": "서초구",
  "category": "한식·백반",
  "lat": 37.4954272255,
  "lng": 127.0247327106,
  "phone": "",
  "thumb": "http://tong.visitkorea.or.kr/cms/resource/93/2856593_image3_1.jpg",
  "i18n": {
   "ko": {
    "name": "동달식당 강남본점",
    "desc": "",
    "address": "서울특별시 서초구 서운로 133 (서초동)"
   }
  }
 },
 {
  "section": "food",
  "name_ko": "동빙고 본점",
  "district": "용산구",
  "category": "카페·베이커리",
  "lat": 37.5180155081,
  "lng": 126.9823414879,
  "phone": "",
  "thumb": "http://tong.visitkorea.or.kr/cms/resource/95/2849395_image3_1.jpg",
  "i18n": {
   "ko": {
    "name": "동빙고 본점",
    "desc": "",
    "address": "서울특별시 용산구 이촌로 319 현대아파트"
   }
  }
 },
 {
  "section": "food",
  "name_ko": "동우설렁탕 본점",
  "district": "성북구",
  "category": "면·국물",
  "lat": 37.5884526077,
  "lng": 127.0290796795,
  "phone": "",
  "thumb": "http://tong.visitkorea.or.kr/cms/resource/99/2839099_image3_1.jpg",
  "i18n": {
   "ko": {
    "name": "동우설렁탕 본점",
    "desc": "",
    "address": "서울특별시 성북구 개운사길 45"
   }
  }
 },
 {
  "section": "food",
  "name_ko": "동원집",
  "district": "중구",
  "category": "한식·백반",
  "lat": 37.5633937314,
  "lng": 126.9913616044,
  "phone": "",
  "thumb": "http://tong.visitkorea.or.kr/cms/resource/97/3094597_image3_1.JPG",
  "i18n": {
   "ko": {
    "name": "동원집",
    "desc": "",
    "address": "서울특별시 중구 퇴계로27길 48 (초동)"
   }
  }
 },
 {
  "section": "food",
  "name_ko": "동작구름카페",
  "district": "서초구",
  "category": "카페·베이커리",
  "lat": 37.5058141254,
  "lng": 126.9811002794,
  "phone": "",
  "thumb": "http://tong.visitkorea.or.kr/cms/resource/99/2784699_image2_1.png",
  "i18n": {
   "ko": {
    "name": "동작구름카페",
    "desc": "",
    "address": "서울특별시 서초구 동작대로 350"
   }
  }
 },
 {
  "section": "food",
  "name_ko": "동작노을카페",
  "district": "동작구",
  "category": "카페·베이커리",
  "lat": 37.5060890748,
  "lng": 126.9800614768,
  "phone": "",
  "thumb": "",
  "i18n": {
   "ko": {
    "name": "동작노을카페",
    "desc": "",
    "address": "서울특별시 동작구 동작대로 335 (동작동)"
   }
  }
 },
 {
  "section": "food",
  "name_ko": "동적깡통구이 쌍문본점",
  "district": "도봉구",
  "category": "한식·백반",
  "lat": 37.647109724,
  "lng": 127.031702771,
  "phone": "",
  "thumb": "http://tong.visitkorea.or.kr/cms/resource/25/2842625_image3_1.jpg",
  "i18n": {
   "ko": {
    "name": "동적깡통구이 쌍문본점",
    "desc": "",
    "address": "서울특별시 도봉구 도봉로109길 30 (쌍문동)"
   }
  }
 },
 {
  "section": "food",
  "name_ko": "동촌 보리밥과 돈까스",
  "district": "송파구",
  "category": "한식·백반",
  "lat": 37.4950544417,
  "lng": 127.145516177,
  "phone": "",
  "thumb": "http://tong.visitkorea.or.kr/cms/resource/08/2848608_image3_1.jpg",
  "i18n": {
   "ko": {
    "name": "동촌 보리밥과 돈까스",
    "desc": "",
    "address": "서울특별시 송파구 거마로 22"
   }
  }
 },
 {
  "section": "food",
  "name_ko": "동해도 광화문",
  "district": "중구",
  "category": "일식",
  "lat": 37.5685207019,
  "lng": 126.9795986426,
  "phone": "",
  "thumb": "http://tong.visitkorea.or.kr/cms/resource/32/2789532_image3_1.jpg",
  "i18n": {
   "ko": {
    "name": "동해도 광화문",
    "desc": "",
    "address": "서울특별시 중구 무교로 28 (무교동)"
   }
  }
 },
 {
  "section": "food",
  "name_ko": "동해도 본점",
  "district": "영등포구",
  "category": "일식",
  "lat": 37.5287492815,
  "lng": 126.9213967368,
  "phone": "",
  "thumb": "http://tong.visitkorea.or.kr/cms/resource/33/2850133_image3_1.jpg",
  "i18n": {
   "ko": {
    "name": "동해도 본점",
    "desc": "",
    "address": "서울특별시 영등포구 은행로 25 (여의도동)"
   }
  }
 },
 {
  "section": "food",
  "name_ko": "동흥관",
  "district": "금천구",
  "category": "중식",
  "lat": 37.4580181632,
  "lng": 126.8964843292,
  "phone": "",
  "thumb": "",
  "i18n": {
   "ko": {
    "name": "동흥관",
    "desc": "",
    "address": "서울특별시 금천구 시흥대로63길 20"
   }
  }
 },
 {
  "section": "food",
  "name_ko": "돝고기506",
  "district": "강남구",
  "category": "고기·구이",
  "lat": 37.5007629048,
  "lng": 127.0352010518,
  "phone": "",
  "thumb": "http://tong.visitkorea.or.kr/cms/resource/98/3531198_image3_1.jpg",
  "i18n": {
   "ko": {
    "name": "돝고기506",
    "desc": "",
    "address": "서울특별시 강남구 테헤란로 145 (역삼동)"
   }
  }
 },
 {
  "section": "food",
  "name_ko": "된장예술과술",
  "district": "종로구",
  "category": "한식·백반",
  "lat": 37.5689735496,
  "lng": 126.9864091204,
  "phone": "",
  "thumb": "http://tong.visitkorea.or.kr/cms/resource/21/2789821_image2_1.jpg",
  "i18n": {
   "ko": {
    "name": "된장예술과술",
    "desc": "",
    "address": "서울특별시 종로구 삼일대로15길 20"
   }
  }
 },
 {
  "section": "food",
  "name_ko": "두가헌 레스토랑",
  "district": "종로구",
  "category": "양식·세계요리",
  "lat": 37.5773002409,
  "lng": 126.9798039302,
  "phone": "",
  "thumb": "",
  "i18n": {
   "ko": {
    "name": "두가헌 레스토랑",
    "desc": "",
    "address": "서울특별시 종로구 삼청로 14"
   }
  }
 },
 {
  "section": "food",
  "name_ko": "두레유",
  "district": "종로구",
  "category": "한식·백반",
  "lat": 37.6066216653,
  "lng": 126.970517835,
  "phone": "",
  "thumb": "http://tong.visitkorea.or.kr/cms/resource/59/3579259_image3_1.jpg",
  "i18n": {
   "ko": {
    "name": "두레유",
    "desc": "",
    "address": "서울특별시 종로구 평창문화로 84 (평창동)"
   }
  }
 },
 {
  "section": "food",
  "name_ko": "두에꼬제",
  "district": "용산구",
  "category": "양식·세계요리",
  "lat": 37.5345362705,
  "lng": 127.0079497995,
  "phone": "",
  "thumb": "http://tong.visitkorea.or.kr/cms/resource/78/3575178_image3_1.jpg",
  "i18n": {
   "ko": {
    "name": "두에꼬제",
    "desc": "",
    "address": "서울특별시 용산구 한남대로 60 (한남동, 금호리첸시아)"
   }
  }
 },
 {
  "section": "food",
  "name_ko": "뒤뜰",
  "district": "구로구",
  "category": "한식·백반",
  "lat": 37.5051288955,
  "lng": 126.8705548127,
  "phone": "",
  "thumb": "http://tong.visitkorea.or.kr/cms/resource/70/2779670_image3_1.jpg",
  "i18n": {
   "ko": {
    "name": "뒤뜰",
    "desc": "",
    "address": "서울특별시 구로구 안양천로539길 6 (고척동)"
   }
  }
 },
 {
  "section": "food",
  "name_ko": "드럼통 참숯석쇠구이",
  "district": "송파구",
  "category": "한식·백반",
  "lat": 37.5057550957,
  "lng": 127.0965869906,
  "phone": "",
  "thumb": "http://tong.visitkorea.or.kr/cms/resource/39/3569439_image3_1.jpg",
  "i18n": {
   "ko": {
    "name": "드럼통 참숯석쇠구이",
    "desc": "",
    "address": "서울특별시 송파구 삼학사로19길 3 (삼전동)"
   }
  }
 },
 {
  "section": "food",
  "name_ko": "등나무집",
  "district": "동작구",
  "category": "한식·백반",
  "lat": 37.4882204166,
  "lng": 126.9079852112,
  "phone": "",
  "thumb": "",
  "i18n": {
   "ko": {
    "name": "등나무집",
    "desc": "",
    "address": "서울특별시 동작구 대림로 52"
   }
  }
 },
 {
  "section": "food",
  "name_ko": "디라이프스타일키친 광화문점",
  "district": "중구",
  "category": "양식·세계요리",
  "lat": 37.5685067916,
  "lng": 126.9782987614,
  "phone": "",
  "thumb": "http://tong.visitkorea.or.kr/cms/resource/04/2853904_image3_1.jpg",
  "i18n": {
   "ko": {
    "name": "디라이프스타일키친 광화문점",
    "desc": "",
    "address": "서울특별시 중구 세종대로 136 파이낸스빌딩"
   }
  }
 },
 {
  "section": "food",
  "name_ko": "디자이너리 카페",
  "district": "관악구",
  "category": "카페·베이커리",
  "lat": 37.4851155095,
  "lng": 126.9241282724,
  "phone": "",
  "thumb": "http://tong.visitkorea.or.kr/cms/resource/63/2850263_image3_1.jpg",
  "i18n": {
   "ko": {
    "name": "디자이너리 카페",
    "desc": "",
    "address": "서울특별시 관악구 관천로 71-1 (신림동)"
   }
  }
 },
 {
  "section": "food",
  "name_ko": "디자인카페허브",
  "district": "강동구",
  "category": "카페·베이커리",
  "lat": 37.5360553267,
  "lng": 127.1504006777,
  "phone": "",
  "thumb": "http://tong.visitkorea.or.kr/cms/resource/34/2839534_image3_1.jpg",
  "i18n": {
   "ko": {
    "name": "디자인카페허브",
    "desc": "",
    "address": "서울특별시 강동구 천호대로200길 15-16"
   }
  }
 },
 {
  "section": "food",
  "name_ko": "디토",
  "district": "서초구",
  "category": "양식·세계요리",
  "lat": 37.4857363185,
  "lng": 127.0043487294,
  "phone": "",
  "thumb": "http://tong.visitkorea.or.kr/cms/resource/30/2856630_image3_1.jpg",
  "i18n": {
   "ko": {
    "name": "디토",
    "desc": "",
    "address": "서울특별시 서초구 명달로 94 (서초동)"
   }
  }
 },
 {
  "section": "food",
  "name_ko": "딥커피",
  "district": "마포구",
  "category": "카페·베이커리",
  "lat": 37.5587736048,
  "lng": 126.9233596001,
  "phone": "",
  "thumb": "http://tong.visitkorea.or.kr/cms/resource/47/2907147_image3_1.jpg",
  "i18n": {
   "ko": {
    "name": "딥커피",
    "desc": "",
    "address": "서울특별시 마포구 동교로 209 (동교동)"
   }
  }
 },
 {
  "section": "food",
  "name_ko": "땅코참숯구이 본점",
  "district": "성동구",
  "category": "한식·백반",
  "lat": 37.5607364558,
  "lng": 127.0330439935,
  "phone": "",
  "thumb": "http://tong.visitkorea.or.kr/cms/resource/23/2845023_image3_1.jpg",
  "i18n": {
   "ko": {
    "name": "땅코참숯구이 본점",
    "desc": "",
    "address": "서울특별시 성동구 행당로17길 26 (행당동)"
   }
  }
 },
 {
  "section": "food",
  "name_ko": "또순이네집",
  "district": "영등포구",
  "category": "한식·백반",
  "lat": 37.5359285378,
  "lng": 126.8954016819,
  "phone": "",
  "thumb": "http://tong.visitkorea.or.kr/cms/resource/17/2836217_image3_1.jpg",
  "i18n": {
   "ko": {
    "name": "또순이네집",
    "desc": "",
    "address": "서울특별시 영등포구 선유로47길 16 (양평동4가)"
   }
  }
 },
 {
  "section": "food",
  "name_ko": "또순이원조순대",
  "district": "관악구",
  "category": "한식·백반",
  "lat": 37.4833519091,
  "lng": 126.9287890094,
  "phone": "",
  "thumb": "",
  "i18n": {
   "ko": {
    "name": "또순이원조순대",
    "desc": "",
    "address": "서울특별시 관악구 신림로59길 14"
   }
  }
 },
 {
  "section": "food",
  "name_ko": "뚝도지기",
  "district": "성동구",
  "category": "한식·백반",
  "lat": 37.5379061629,
  "lng": 127.0546426744,
  "phone": "",
  "thumb": "http://tong.visitkorea.or.kr/cms/resource/28/2900628_image3_1.jpg",
  "i18n": {
   "ko": {
    "name": "뚝도지기",
    "desc": "",
    "address": "서울특별시 성동구 성수이로 30-4 (성수동2가)"
   }
  }
 },
 {
  "section": "food",
  "name_ko": "뜨락",
  "district": "강남구",
  "category": "한식·백반",
  "lat": 37.524466074,
  "lng": 127.0555679713,
  "phone": "",
  "thumb": "http://tong.visitkorea.or.kr/cms/resource/92/2845692_image3_1.jpg",
  "i18n": {
   "ko": {
    "name": "뜨락",
    "desc": "",
    "address": "서울특별시 강남구 영동대로142길 13-3 (청담동)"
   }
  }
 },
 {
  "section": "food",
  "name_ko": "띠아낭",
  "district": "강서구",
  "category": "양식·세계요리",
  "lat": 37.5559616332,
  "lng": 126.85690185,
  "phone": "",
  "thumb": "http://tong.visitkorea.or.kr/cms/resource/00/2788100_image2_1.jpg",
  "i18n": {
   "ko": {
    "name": "띠아낭",
    "desc": "",
    "address": "서울특별시 강서구 화곡로64길 72"
   }
  }
 },
 {
  "section": "food",
  "name_ko": "라 쿠치나",
  "district": "용산구",
  "category": "양식·세계요리",
  "lat": 37.5406020271,
  "lng": 126.9964728955,
  "phone": "",
  "thumb": "",
  "i18n": {
   "ko": {
    "name": "라 쿠치나",
    "desc": "",
    "address": "서울특별시 용산구 회나무로44길 10 라쿠치나"
   }
  }
 },
 {
  "section": "food",
  "name_ko": "라메흐꺄도",
  "district": "영등포구",
  "category": "한식·백반",
  "lat": 37.5211801026,
  "lng": 126.8870500801,
  "phone": "",
  "thumb": "http://tong.visitkorea.or.kr/cms/resource/63/2853563_image3_1.jpg",
  "i18n": {
   "ko": {
    "name": "라메흐꺄도",
    "desc": "",
    "address": "서울특별시 영등포구 선유로17길 24 (문래동6가)"
   }
  }
 },
 {
  "section": "food",
  "name_ko": "라멘트럭 상수본점",
  "district": "마포구",
  "category": "일식",
  "lat": 37.5475526741,
  "lng": 126.9226183177,
  "phone": "",
  "thumb": "http://tong.visitkorea.or.kr/cms/resource/04/2853804_image3_1.jpg",
  "i18n": {
   "ko": {
    "name": "라멘트럭 상수본점",
    "desc": "",
    "address": "서울특별시 마포구 독막로14길 31 (상수동)"
   }
  }
 },
 {
  "section": "food",
  "name_ko": "라온석갈비",
  "district": "성동구",
  "category": "고기·구이",
  "lat": 37.5457858482,
  "lng": 127.0571616658,
  "phone": "",
  "thumb": "http://tong.visitkorea.or.kr/cms/resource/11/2900611_image3_1.jpg",
  "i18n": {
   "ko": {
    "name": "라온석갈비",
    "desc": "",
    "address": "서울특별시 성동구 성수이로 119 (성수동2가)"
   }
  }
 },
 {
  "section": "food",
  "name_ko": "라운드앤드",
  "district": "중구",
  "category": "카페·베이커리",
  "lat": 37.5661041865,
  "lng": 126.9723827022,
  "phone": "",
  "thumb": "http://tong.visitkorea.or.kr/cms/resource/64/3427964_image3_1.jpg",
  "i18n": {
   "ko": {
    "name": "라운드앤드",
    "desc": "",
    "address": "서울특별시 중구 정동길 35 (정동)"
   }
  }
 },
 {
  "section": "food",
  "name_ko": "라칸티나",
  "district": "중구",
  "category": "양식·세계요리",
  "lat": 37.566359849,
  "lng": 126.9799708922,
  "phone": "",
  "thumb": "",
  "i18n": {
   "ko": {
    "name": "라칸티나",
    "desc": "",
    "address": "서울특별시 중구 을지로 19 (을지로1가)"
   }
  }
 },
 {
  "section": "food",
  "name_ko": "라코펠라",
  "district": "강서구",
  "category": "카페·베이커리",
  "lat": 37.5653406087,
  "lng": 126.8294429794,
  "phone": "",
  "thumb": "http://tong.visitkorea.or.kr/cms/resource/22/3452222_image3_1.JPEG",
  "i18n": {
   "ko": {
    "name": "라코펠라",
    "desc": "",
    "address": "서울특별시 강서구 마곡중앙로 136 (마곡동)"
   }
  }
 },
 {
  "section": "food",
  "name_ko": "라프레플루트",
  "district": "성동구",
  "category": "카페·베이커리",
  "lat": 37.5473047981,
  "lng": 127.0394576794,
  "phone": "",
  "thumb": "http://tong.visitkorea.or.kr/cms/resource/38/2894938_image3_1.JPG",
  "i18n": {
   "ko": {
    "name": "라프레플루트",
    "desc": "",
    "address": "서울특별시 성동구 서울숲2길 8-8"
   }
  }
 },
 {
  "section": "food",
  "name_ko": "락희안 가좌본점",
  "district": "서대문구",
  "category": "중식",
  "lat": 37.5761521554,
  "lng": 126.9241840333,
  "phone": "",
  "thumb": "http://tong.visitkorea.or.kr/cms/resource/45/2914245_image3_1.jpg",
  "i18n": {
   "ko": {
    "name": "락희안 가좌본점",
    "desc": "",
    "address": "서울특별시 서대문구 가재울로4길 53 (남가좌동)"
   }
  }
 },
 {
  "section": "food",
  "name_ko": "락희옥 마포본점",
  "district": "마포구",
  "category": "한식·백반",
  "lat": 37.5445840502,
  "lng": 126.9492243099,
  "phone": "",
  "thumb": "http://tong.visitkorea.or.kr/cms/resource/31/2900431_image3_1.jpg",
  "i18n": {
   "ko": {
    "name": "락희옥 마포본점",
    "desc": "",
    "address": "서울특별시 마포구 백범로 170 (공덕동, 공덕더샵아파트)"
   }
  }
 },
 {
  "section": "food",
  "name_ko": "램랜드",
  "district": "마포구",
  "category": "중식",
  "lat": 37.5434895483,
  "lng": 126.9388919493,
  "phone": "",
  "thumb": "http://tong.visitkorea.or.kr/cms/resource/21/2786821_image3_1.jpg",
  "i18n": {
   "ko": {
    "name": "램랜드",
    "desc": "",
    "address": "서울특별시 마포구 토정로 255"
   }
  }
 },
 {
  "section": "food",
  "name_ko": "러반로제 레스토랑",
  "district": "송파구",
  "category": "양식·세계요리",
  "lat": 37.5102797443,
  "lng": 127.1062304296,
  "phone": "",
  "thumb": "",
  "i18n": {
   "ko": {
    "name": "러반로제 레스토랑",
    "desc": "",
    "address": "서울특별시 송파구 석촌호수로 274 (송파동)"
   }
  }
 },
 {
  "section": "food",
  "name_ko": "러프러프",
  "district": "성동구",
  "category": "카페·베이커리",
  "lat": 37.5417613364,
  "lng": 127.0582811222,
  "phone": "",
  "thumb": "http://tong.visitkorea.or.kr/cms/resource/86/2900586_image3_1.jpg",
  "i18n": {
   "ko": {
    "name": "러프러프",
    "desc": "",
    "address": "서울특별시 성동구 연무장길 81 남경빌딩"
   }
  }
 },
 {
  "section": "food",
  "name_ko": "런던베이글뮤지엄 안국",
  "district": "종로구",
  "category": "카페·베이커리",
  "lat": 37.5792251324,
  "lng": 126.9862171806,
  "phone": "",
  "thumb": "http://tong.visitkorea.or.kr/cms/resource/50/3563950_image3_1.jpg",
  "i18n": {
   "ko": {
    "name": "런던베이글뮤지엄 안국",
    "desc": "",
    "address": "서울특별시 종로구 북촌로4길 20 (계동)"
   }
  }
 },
 {
  "section": "food",
  "name_ko": "레드마블하우스",
  "district": "강남구",
  "category": "한식·백반",
  "lat": 37.4967190011,
  "lng": 127.0391841373,
  "phone": "",
  "thumb": "http://tong.visitkorea.or.kr/cms/resource/93/2869993_image3_1.jpg",
  "i18n": {
   "ko": {
    "name": "레드마블하우스",
    "desc": "",
    "address": "서울특별시 강남구 논현로 408 (역삼동)"
   }
  }
 },
 {
  "section": "food",
  "name_ko": "레스쁘아",
  "district": "강남구",
  "category": "양식·세계요리",
  "lat": 37.5248296839,
  "lng": 127.0424080481,
  "phone": "",
  "thumb": "http://tong.visitkorea.or.kr/cms/resource/77/2869677_image3_1.jpg",
  "i18n": {
   "ko": {
    "name": "레스쁘아",
    "desc": "",
    "address": "서울특별시 강남구 도산대로59길 16 (청담동)"
   }
  }
 },
 {
  "section": "food",
  "name_ko": "레이더",
  "district": "성동구",
  "category": "카페·베이커리",
  "lat": 37.5436693715,
  "lng": 127.054039788,
  "phone": "",
  "thumb": "http://tong.visitkorea.or.kr/cms/resource/36/2900536_image3_1.jpg",
  "i18n": {
   "ko": {
    "name": "레이더",
    "desc": "",
    "address": "서울특별시 성동구 연무장길 39-29"
   }
  }
 },
 {
  "section": "food",
  "name_ko": "로씨니",
  "district": "종로구",
  "category": "양식·세계요리",
  "lat": 37.5784557709,
  "lng": 126.9858672342,
  "phone": "",
  "thumb": "",
  "i18n": {
   "ko": {
    "name": "로씨니",
    "desc": "",
    "address": "서울특별시 종로구 북촌로 18 (재동)"
   }
  }
 },
 {
  "section": "food",
  "name_ko": "로얄 라운지 다이닝",
  "district": "강남구",
  "category": "양식·세계요리",
  "lat": 37.5153416703,
  "lng": 127.0298233511,
  "phone": "",
  "thumb": "http://tong.visitkorea.or.kr/cms/resource/47/2846947_image3_1.jpg",
  "i18n": {
   "ko": {
    "name": "로얄 라운지 다이닝",
    "desc": "",
    "address": "서울특별시 강남구 논현로 709 (논현동)"
   }
  }
 },
 {
  "section": "food",
  "name_ko": "로얄맨션",
  "district": "서초구",
  "category": "양식·세계요리",
  "lat": 37.4992568527,
  "lng": 126.9978128312,
  "phone": "",
  "thumb": "http://tong.visitkorea.or.kr/cms/resource/40/2856640_image3_1.jpg",
  "i18n": {
   "ko": {
    "name": "로얄맨션",
    "desc": "",
    "address": "서울특별시 서초구 사평대로22길 9 (반포동)"
   }
  }
 },
 {
  "section": "food",
  "name_ko": "로와이드(LOWIDE)",
  "district": "성동구",
  "category": "카페·베이커리",
  "lat": 37.5469937522,
  "lng": 127.0410603197,
  "phone": "",
  "thumb": "http://tong.visitkorea.or.kr/cms/resource/03/2895103_image3_1.JPG",
  "i18n": {
   "ko": {
    "name": "로와이드(LOWIDE)",
    "desc": "",
    "address": "서울특별시 성동구 서울숲2길 22-1 (성수동1가)"
   }
  }
 },
 {
  "section": "food",
  "name_ko": "로우키",
  "district": "성동구",
  "category": "카페·베이커리",
  "lat": 37.5442525932,
  "lng": 127.0515927719,
  "phone": "",
  "thumb": "http://tong.visitkorea.or.kr/cms/resource/76/2900476_image3_1.jpg",
  "i18n": {
   "ko": {
    "name": "로우키",
    "desc": "",
    "address": "서울특별시 성동구 연무장3길 6 (성수동2가)"
   }
  }
 },
 {
  "section": "food",
  "name_ko": "로이터 커피 셸터",
  "district": "중구",
  "category": "카페·베이커리",
  "lat": 37.5568140223,
  "lng": 126.995930819,
  "phone": "",
  "thumb": "http://tong.visitkorea.or.kr/cms/resource/74/2914174_image3_1.jpg",
  "i18n": {
   "ko": {
    "name": "로이터 커피 셸터",
    "desc": "",
    "address": "서울특별시 중구 필동로 53 (필동3가)"
   }
  }
 },
 {
  "section": "food",
  "name_ko": "로코스 비비큐 경리단길본점",
  "district": "용산구",
  "category": "양식·세계요리",
  "lat": 37.541038071,
  "lng": 126.9955535221,
  "phone": "",
  "thumb": "http://tong.visitkorea.or.kr/cms/resource/64/2855464_image3_1.jpg",
  "i18n": {
   "ko": {
    "name": "로코스 비비큐 경리단길본점",
    "desc": "",
    "address": "서울특별시 용산구 회나무로 83 (이태원동)"
   }
  }
 },
 {
  "section": "food",
  "name_ko": "록멘",
  "district": "성동구",
  "category": "일식",
  "lat": 37.5421611148,
  "lng": 127.0485653291,
  "phone": "",
  "thumb": "http://tong.visitkorea.or.kr/cms/resource/47/2895147_image3_1.jpg",
  "i18n": {
   "ko": {
    "name": "록멘",
    "desc": "",
    "address": "서울특별시 성동구 성수일로3길 2 (성수동1가)"
   }
  }
 },
 {
  "section": "food",
  "name_ko": "루비떡볶이",
  "district": "강남구",
  "category": "분식·주점",
  "lat": 37.5246851709,
  "lng": 127.0376640392,
  "phone": "",
  "thumb": "",
  "i18n": {
   "ko": {
    "name": "루비떡볶이",
    "desc": "",
    "address": "서울특별시 강남구 선릉로153길 21"
   }
  }
 },
 {
  "section": "food",
  "name_ko": "루위",
  "district": "강남구",
  "category": "중식",
  "lat": 37.5206382758,
  "lng": 127.0297093227,
  "phone": "",
  "thumb": "http://tong.visitkorea.or.kr/cms/resource/70/2602870_image3_1.jpg",
  "i18n": {
   "ko": {
    "name": "루위",
    "desc": "",
    "address": "서울특별시 강남구 도산대로 211 (신사동)"
   }
  }
 },
 {
  "section": "food",
  "name_ko": "루프",
  "district": "성동구",
  "category": "카페·베이커리",
  "lat": 37.5442831609,
  "lng": 127.0524538036,
  "phone": "",
  "thumb": "http://tong.visitkorea.or.kr/cms/resource/95/2900395_image3_1.jpg",
  "i18n": {
   "ko": {
    "name": "루프",
    "desc": "",
    "address": "서울특별시 성동구 연무장5길 9-13"
   }
  }
 },
 {
  "section": "food",
  "name_ko": "르몽블랑",
  "district": "용산구",
  "category": "카페·베이커리",
  "lat": 37.5449652004,
  "lng": 126.984859941,
  "phone": "",
  "thumb": "http://tong.visitkorea.or.kr/cms/resource/11/3587011_image3_1.jpg",
  "i18n": {
   "ko": {
    "name": "르몽블랑",
    "desc": "",
    "address": "서울특별시 용산구 신흥로 99-4"
   }
  }
 },
 {
  "section": "food",
  "name_ko": "르브런쉭 신사점",
  "district": "강남구",
  "category": "양식·세계요리",
  "lat": 37.5221240595,
  "lng": 127.0210822885,
  "phone": "",
  "thumb": "http://tong.visitkorea.or.kr/cms/resource/73/2867173_image3_1.jpg",
  "i18n": {
   "ko": {
    "name": "르브런쉭 신사점",
    "desc": "",
    "address": "서울특별시 강남구 강남대로162길 41-22 (신사동, 오로라빌)"
   }
  }
 },
 {
  "section": "food",
  "name_ko": "르지우",
  "district": "서초구",
  "category": "양식·세계요리",
  "lat": 37.498373643,
  "lng": 126.9989349762,
  "phone": "",
  "thumb": "http://tong.visitkorea.or.kr/cms/resource/49/2856649_image3_1.jpg",
  "i18n": {
   "ko": {
    "name": "르지우",
    "desc": "",
    "address": "서울특별시 서초구 사평대로26길 40 (반포동)"
   }
  }
 },
 {
  "section": "food",
  "name_ko": "르프리크",
  "district": "성동구",
  "category": "양식·세계요리",
  "lat": 37.5444914739,
  "lng": 127.0526732224,
  "phone": "",
  "thumb": "http://tong.visitkorea.or.kr/cms/resource/40/3576240_image3_1.jpg",
  "i18n": {
   "ko": {
    "name": "르프리크",
    "desc": "",
    "address": "서울특별시 성동구 연무장5길 9-16"
   }
  }
 },
 {
  "section": "food",
  "name_ko": "르한스",
  "district": "성북구",
  "category": "양식·세계요리",
  "lat": 37.6041863408,
  "lng": 126.9985375715,
  "phone": "",
  "thumb": "",
  "i18n": {
   "ko": {
    "name": "르한스",
    "desc": "",
    "address": "서울특별시 성북구 정릉로10길 127"
   }
  }
 },
 {
  "section": "food",
  "name_ko": "리브나 다이닝",
  "district": "성동구",
  "category": "양식·세계요리",
  "lat": 37.5397197729,
  "lng": 127.0508513013,
  "phone": "",
  "thumb": "http://tong.visitkorea.or.kr/cms/resource/37/2899037_image3_1.jpg",
  "i18n": {
   "ko": {
    "name": "리브나 다이닝",
    "desc": "",
    "address": "서울특별시 성동구 뚝섬로 366-46 (성수동1가)"
   }
  }
 },
 {
  "section": "food",
  "name_ko": "리애",
  "district": "강남구",
  "category": "일식",
  "lat": 37.4838569819,
  "lng": 127.0601075967,
  "phone": "",
  "thumb": "http://tong.visitkorea.or.kr/cms/resource/06/2869106_image2_1.JPG",
  "i18n": {
   "ko": {
    "name": "리애",
    "desc": "",
    "address": "서울특별시 강남구 선릉로16길 6"
   }
  }
 },
 {
  "section": "food",
  "name_ko": "리커버리커피바",
  "district": "성동구",
  "category": "카페·베이커리",
  "lat": 37.5503906482,
  "lng": 127.0448709877,
  "phone": "",
  "thumb": "http://tong.visitkorea.or.kr/cms/resource/95/2895195_image3_1.jpg",
  "i18n": {
   "ko": {
    "name": "리커버리커피바",
    "desc": "",
    "address": "서울특별시 성동구 왕십리로16가길 10 (성수동1가)"
   }
  }
 },
 {
  "section": "food",
  "name_ko": "리코",
  "district": "강북구",
  "category": "카페·베이커리",
  "lat": 37.6313947898,
  "lng": 127.0264453642,
  "phone": "",
  "thumb": "http://tong.visitkorea.or.kr/cms/resource/00/3458600_image3_1.jpg",
  "i18n": {
   "ko": {
    "name": "리코",
    "desc": "",
    "address": "서울특별시 강북구 도봉로68길 36 (미아동)"
   }
  }
 },
 {
  "section": "food",
  "name_ko": "리틀포레스트",
  "district": "성동구",
  "category": "양식·세계요리",
  "lat": 37.5483604874,
  "lng": 127.0537230167,
  "phone": "",
  "thumb": "http://tong.visitkorea.or.kr/cms/resource/75/2900375_image3_1.jpg",
  "i18n": {
   "ko": {
    "name": "리틀포레스트",
    "desc": "",
    "address": "서울특별시 성동구 성수일로12길 23 (성수동2가)"
   }
  }
 },
 {
  "section": "food",
  "name_ko": "린스시",
  "district": "서초구",
  "category": "일식",
  "lat": 37.4846115843,
  "lng": 127.0119369587,
  "phone": "",
  "thumb": "http://tong.visitkorea.or.kr/cms/resource/52/2535552_image2_1.jpg",
  "i18n": {
   "ko": {
    "name": "린스시",
    "desc": "",
    "address": "서울특별시 서초구 반포대로12길 10"
   }
  }
 },
 {
  "section": "food",
  "name_ko": "마곡오리",
  "district": "강서구",
  "category": "한식·백반",
  "lat": 37.5727424089,
  "lng": 126.8228933688,
  "phone": "",
  "thumb": "http://tong.visitkorea.or.kr/cms/resource/90/2849690_image3_1.jpg",
  "i18n": {
   "ko": {
    "name": "마곡오리",
    "desc": "",
    "address": "서울특별시 강서구 양천로30길 11 (마곡동)"
   }
  }
 },
 {
  "section": "food",
  "name_ko": "마구로센 한남점",
  "district": "용산구",
  "category": "일식",
  "lat": 37.5343918088,
  "lng": 127.006061087,
  "phone": "",
  "thumb": "http://tong.visitkorea.or.kr/cms/resource/37/3572037_image3_1.jpg",
  "i18n": {
   "ko": {
    "name": "마구로센 한남점",
    "desc": "",
    "address": "서울특별시 용산구 대사관로31길 24 (한남동)"
   }
  }
 },
 {
  "section": "food",
  "name_ko": "마누테라스",
  "district": "강남구",
  "category": "양식·세계요리",
  "lat": 37.4822819033,
  "lng": 127.0455867406,
  "phone": "",
  "thumb": "http://tong.visitkorea.or.kr/cms/resource/54/2869954_image3_1.jpg",
  "i18n": {
   "ko": {
    "name": "마누테라스",
    "desc": "",
    "address": "서울특별시 강남구 양재천로 179 (도곡동)"
   }
  }
 },
 {
  "section": "food",
  "name_ko": "마드레",
  "district": "강동구",
  "category": "한식·백반",
  "lat": 37.5373191045,
  "lng": 127.1524004597,
  "phone": "",
  "thumb": "http://tong.visitkorea.or.kr/cms/resource/52/2839552_image3_1.jpg",
  "i18n": {
   "ko": {
    "name": "마드레",
    "desc": "",
    "address": "서울특별시 강동구 동남로 710 (둔촌동)"
   }
  }
 },
 {
  "section": "food",
  "name_ko": "마를리",
  "district": "성동구",
  "category": "카페·베이커리",
  "lat": 37.5428528123,
  "lng": 127.0547508574,
  "phone": "",
  "thumb": "http://tong.visitkorea.or.kr/cms/resource/45/2900345_image3_1.jpg",
  "i18n": {
   "ko": {
    "name": "마를리",
    "desc": "",
    "address": "서울특별시 성동구 연무장길 47 (성수동2가)"
   }
  }
 },
 {
  "section": "food",
  "name_ko": "마리오네",
  "district": "성동구",
  "category": "양식·세계요리",
  "lat": 37.5397948735,
  "lng": 127.0569229685,
  "phone": "",
  "thumb": "",
  "i18n": {
   "ko": {
    "name": "마리오네",
    "desc": "",
    "address": "서울특별시 성동구 성수이로12길 15"
   }
  }
 },
 {
  "section": "food",
  "name_ko": "마복림할머니 막내아들네",
  "district": "중구",
  "category": "한식·백반",
  "lat": 37.5629747614,
  "lng": 127.0151038977,
  "phone": "",
  "thumb": "http://tong.visitkorea.or.kr/cms/resource/34/2853934_image3_1.jpg",
  "i18n": {
   "ko": {
    "name": "마복림할머니 막내아들네",
    "desc": "",
    "address": "서울특별시 중구 다산로 221 (신당동)"
   }
  }
 },
 {
  "section": "food",
  "name_ko": "마부자생삼겹살",
  "district": "강서구",
  "category": "고기·구이",
  "lat": 37.5673431093,
  "lng": 126.826970926,
  "phone": "",
  "thumb": "http://tong.visitkorea.or.kr/cms/resource/04/2849704_image3_1.jpg",
  "i18n": {
   "ko": {
    "name": "마부자생삼겹살",
    "desc": "",
    "address": "서울특별시 강서구 마곡중앙5로 6 (마곡동)"
   }
  }
 },
 {
  "section": "food",
  "name_ko": "마얘(MAILLET)",
  "district": "서초구",
  "category": "카페·베이커리",
  "lat": 37.4990096559,
  "lng": 126.9976184113,
  "phone": "",
  "thumb": "http://tong.visitkorea.or.kr/cms/resource/83/2809083_image3_1.jpg",
  "i18n": {
   "ko": {
    "name": "마얘(MAILLET)",
    "desc": "",
    "address": "서울특별시 서초구 사평대로22길 14 (반포동)"
   }
  }
 },
 {
  "section": "food",
  "name_ko": "마오 청담동점",
  "district": "강남구",
  "category": "중식",
  "lat": 37.5220299758,
  "lng": 127.0405582959,
  "phone": "",
  "thumb": "http://tong.visitkorea.or.kr/cms/resource/13/2867213_image3_1.JPG",
  "i18n": {
   "ko": {
    "name": "마오 청담동점",
    "desc": "",
    "address": "서울특별시 강남구 도산대로56길 17 (청담동)"
   }
  }
 },
 {
  "section": "food",
  "name_ko": "마이클 바이 해비치",
  "district": "종로구",
  "category": "양식·세계요리",
  "lat": 37.5715509786,
  "lng": 126.9836731855,
  "phone": "",
  "thumb": "http://tong.visitkorea.or.kr/cms/resource/61/2848061_image3_1.jpg",
  "i18n": {
   "ko": {
    "name": "마이클 바이 해비치",
    "desc": "",
    "address": "서울특별시 종로구 우정국로 26"
   }
  }
 },
 {
  "section": "food",
  "name_ko": "마일스톤 커피",
  "district": "강남구",
  "category": "카페·베이커리",
  "lat": 37.521896367,
  "lng": 127.0243514413,
  "phone": "",
  "thumb": "http://tong.visitkorea.or.kr/cms/resource/35/2867235_image3_1.JPG",
  "i18n": {
   "ko": {
    "name": "마일스톤 커피",
    "desc": "",
    "address": "서울특별시 강남구 논현로159길 49 (신사동)"
   }
  }
 },
 {
  "section": "food",
  "name_ko": "마장동 한우촌",
  "district": "성동구",
  "category": "고기·구이",
  "lat": 37.5707354421,
  "lng": 127.041290181,
  "phone": "",
  "thumb": "http://tong.visitkorea.or.kr/cms/resource/80/2843480_image3_1.jpg",
  "i18n": {
   "ko": {
    "name": "마장동 한우촌",
    "desc": "",
    "address": "서울특별시 성동구 마장로35길 68 (마장동)"
   }
  }
 },
 {
  "section": "food",
  "name_ko": "마지",
  "district": "종로구",
  "category": "양식·세계요리",
  "lat": 37.5776167085,
  "lng": 126.9707714116,
  "phone": "",
  "thumb": "",
  "i18n": {
   "ko": {
    "name": "마지",
    "desc": "",
    "address": "서울특별시 종로구 자하문로5길 19"
   }
  }
 },
 {
  "section": "food",
  "name_ko": "마쯔야",
  "district": "중구",
  "category": "일식",
  "lat": 37.5609438324,
  "lng": 126.9811237176,
  "phone": "",
  "thumb": "",
  "i18n": {
   "ko": {
    "name": "마쯔야",
    "desc": "",
    "address": "서울특별시 중구 소공로 63"
   }
  }
 },
 {
  "section": "food",
  "name_ko": "마초쉐프 강남본점",
  "district": "강남구",
  "category": "양식·세계요리",
  "lat": 37.5035513381,
  "lng": 127.0278599746,
  "phone": "",
  "thumb": "http://tong.visitkorea.or.kr/cms/resource/13/2869913_image3_1.jpg",
  "i18n": {
   "ko": {
    "name": "마초쉐프 강남본점",
    "desc": "",
    "address": "서울특별시 강남구 강남대로106길 29 (역삼동)"
   }
  }
 },
 {
  "section": "food",
  "name_ko": "마포소문난원조족발",
  "district": "마포구",
  "category": "한식·백반",
  "lat": 37.544772989,
  "lng": 126.953229495,
  "phone": "",
  "thumb": "",
  "i18n": {
   "ko": {
    "name": "마포소문난원조족발",
    "desc": "",
    "address": "서울특별시 마포구 만리재로 19"
   }
  }
 },
 {
  "section": "food",
  "name_ko": "마포양지설렁탕",
  "district": "마포구",
  "category": "면·국물",
  "lat": 37.542089919,
  "lng": 126.9505242619,
  "phone": "",
  "thumb": "http://tong.visitkorea.or.kr/cms/resource/35/2841735_image3_1.jpg",
  "i18n": {
   "ko": {
    "name": "마포양지설렁탕",
    "desc": "",
    "address": "서울특별시 마포구 새창로 6 (도화동)"
   }
  }
 },
 {
  "section": "food",
  "name_ko": "마포원조떡볶이",
  "district": "마포구",
  "category": "분식·주점",
  "lat": 37.5403900858,
  "lng": 126.9488105771,
  "phone": "",
  "thumb": "http://tong.visitkorea.or.kr/cms/resource/89/2847789_image3_1.jpg",
  "i18n": {
   "ko": {
    "name": "마포원조떡볶이",
    "desc": "",
    "address": "서울특별시 마포구 도화2길 3 (도화동)"
   }
  }
 },
 {
  "section": "food",
  "name_ko": "마하차이 성수본점",
  "district": "성동구",
  "category": "양식·세계요리",
  "lat": 37.5390004886,
  "lng": 127.0550981573,
  "phone": "",
  "thumb": "http://tong.visitkorea.or.kr/cms/resource/95/2900295_image3_1.jpg",
  "i18n": {
   "ko": {
    "name": "마하차이 성수본점",
    "desc": "",
    "address": "서울특별시 성동구 뚝섬로 399 (성수동2가)"
   }
  }
 },
 {
  "section": "food",
  "name_ko": "만다린",
  "district": "영등포구",
  "category": "중식",
  "lat": 37.5295432042,
  "lng": 126.8973572393,
  "phone": "",
  "thumb": "http://tong.visitkorea.or.kr/cms/resource/11/2679811_image2_1.jpg",
  "i18n": {
   "ko": {
    "name": "만다린",
    "desc": "",
    "address": "서울특별시 영등포구 국회대로29길 16 (당산동4가)"
   }
  }
 },
 {
  "section": "food",
  "name_ko": "만다린",
  "district": "서초구",
  "category": "중식",
  "lat": 37.4785370871,
  "lng": 127.0006270489,
  "phone": "",
  "thumb": "http://tong.visitkorea.or.kr/cms/resource/91/2856691_image3_1.jpg",
  "i18n": {
   "ko": {
    "name": "만다린",
    "desc": "",
    "address": "서울특별시 서초구 방배로6길 10-15 (방배동)"
   }
  }
 },
 {
  "section": "food",
  "name_ko": "만두향",
  "district": "중랑구",
  "category": "한식·백반",
  "lat": 37.5890952598,
  "lng": 127.0879270771,
  "phone": "",
  "thumb": "http://tong.visitkorea.or.kr/cms/resource/76/2835176_image3_1.jpg",
  "i18n": {
   "ko": {
    "name": "만두향",
    "desc": "",
    "address": "서울특별시 중랑구 면목로74길 6 (면목동)"
   }
  }
 },
 {
  "section": "food",
  "name_ko": "만포막국수",
  "district": "중구",
  "category": "면·국물",
  "lat": 37.5558588365,
  "lng": 127.0103378666,
  "phone": "",
  "thumb": "http://tong.visitkorea.or.kr/cms/resource/44/2914144_image3_1.jpg",
  "i18n": {
   "ko": {
    "name": "만포막국수",
    "desc": "",
    "address": "서울특별시 중구 동호로14길 2"
   }
  }
 },
 {
  "section": "food",
  "name_ko": "맛짱조개",
  "district": "강남구",
  "category": "해산물·회",
  "lat": 37.5166388719,
  "lng": 127.0370282141,
  "phone": "",
  "thumb": "http://tong.visitkorea.or.kr/cms/resource/86/2869886_image3_1.jpg",
  "i18n": {
   "ko": {
    "name": "맛짱조개",
    "desc": "",
    "address": "서울특별시 강남구 언주로134길 18 (논현동)"
   }
  }
 },