[
 {
  "section": "stay",
  "name_ko": "강남스테이힐(Gangnam Stay Hill)",
  "district": "강남구",
  "category": "게스트하우스",
  "lat": 37.5034291706,
  "lng": 127.0301236613,
  "phone": "",
  "thumb": "http://tong.visitkorea.or.kr/cms/resource/28/2573328_image2_1.jpg",
  "i18n": {
   "ko": {
    "name": "강남스테이힐(Gangnam Stay Hill)",
    "desc": "",
    "address": "서울특별시 강남구 테헤란로13길 65"
   }
  }
 },
 {
  "section": "stay",
  "name_ko": "강남아르누보씨티호텔",
  "district": "서초구",
  "category": "관광호텔",
  "lat": 37.4934664031,
  "lng": 127.0281518997,
  "phone": "",
  "thumb": "http://tong.visitkorea.or.kr/cms/resource/94/2650594_image2_1.jpg",
  "i18n": {
   "ko": {
    "name": "강남아르누보씨티호텔",
    "desc": "",
    "address": "서울특별시 서초구 서초대로74길 49 (서초동)"
   }
  }
 },
 {
  "section": "stay",
  "name_ko": "게스트하우스강남",
  "district": "강남구",
  "category": "게스트하우스",
  "lat": 37.5261154387,
  "lng": 127.030900726,
  "phone": "",
  "thumb": "",
  "i18n": {
   "ko": {
    "name": "게스트하우스강남",
    "desc": "",
    "address": "서울특별시 강남구 압구정로34길 33"
   }
  }
 },
 {
  "section": "stay",
  "name_ko": "고은",
  "district": "종로구",
  "category": "게스트하우스",
  "lat": 37.583250011,
  "lng": 127.0055403052,
  "phone": "",
  "thumb": "",
  "i18n": {
   "ko": {
    "name": "고은",
    "desc": "",
    "address": "서울특별시 종로구 동숭4나길 25 (동숭동, 상일아트빌라)"
   }
  }
 },
 {
  "section": "stay",
  "name_ko": "곰곰하우스",
  "district": "종로구",
  "category": "한옥스테이",
  "lat": 37.5813971066,
  "lng": 126.9864726513,
  "phone": "",
  "thumb": "",
  "i18n": {
   "ko": {
    "name": "곰곰하우스",
    "desc": "",
    "address": "서울특별시 종로구 계동길 85-15 (계동)"
   }
  }
 },
 {
  "section": "stay",
  "name_ko": "관숙",
  "district": "마포구",
  "category": "게스트하우스",
  "lat": 37.5488806651,
  "lng": 126.9431719619,
  "phone": "",
  "thumb": "",
  "i18n": {
   "ko": {
    "name": "관숙",
    "desc": "",
    "address": "서울특별시 마포구 백범로15길 27 (대흥동)"
   }
  }
 },
 {
  "section": "stay",
  "name_ko": "교대게스트하우스",
  "district": "서초구",
  "category": "게스트하우스",
  "lat": 37.4933329219,
  "lng": 127.0190443994,
  "phone": "",
  "thumb": "http://tong.visitkorea.or.kr/cms/resource/81/2529081_image3_1.jpg",
  "i18n": {
   "ko": {
    "name": "교대게스트하우스",
    "desc": "",
    "address": "서울특별시 서초구 사임당로17길 116 서초삼성래미안아파트"
   }
  }
 },
 {
  "section": "stay",
  "name_ko": "그랜드 머큐어 앰버서더 서울 용산",
  "district": "용산구",
  "category": "관광호텔",
  "lat": 37.5320052033,
  "lng": 126.9630345182,
  "phone": "",
  "thumb": "",
  "i18n": {
   "ko": {
    "name": "그랜드 머큐어 앰버서더 서울 용산",
    "desc": "",
    "address": "서울특별시 용산구 청파로20길 95 (한강로3가)"
   }
  }
 },
 {
  "section": "stay",
  "name_ko": "그랜드 인터컨티넨탈 서울 파르나스",
  "district": "강남구",
  "category": "관광호텔",
  "lat": 37.5095984514,
  "lng": 127.0608845757,
  "phone": "",
  "thumb": "http://tong.visitkorea.or.kr/cms/resource/45/2705645_image2_1.jpg",
  "i18n": {
   "ko": {
    "name": "그랜드 인터컨티넨탈 서울 파르나스",
    "desc": "",
    "address": "서울특별시 강남구 테헤란로 521"
   }
  }
 },
 {
  "section": "stay",
  "name_ko": "그루브하우스",
  "district": "동대문구",
  "category": "게스트하우스",
  "lat": 37.5827620188,
  "lng": 127.0522138438,
  "phone": "",
  "thumb": "",
  "i18n": {
   "ko": {
    "name": "그루브하우스",
    "desc": "",
    "address": "서울특별시 동대문구 서울시립대로25길 10 (전농동)"
   }
  }
 },
 {
  "section": "stay",
  "name_ko": "글래드 마포",
  "district": "마포구",
  "category": "관광호텔",
  "lat": 37.5433286707,
  "lng": 126.9508880827,
  "phone": "",
  "thumb": "",
  "i18n": {
   "ko": {
    "name": "글래드 마포",
    "desc": "",
    "address": "서울특별시 마포구 마포대로 92 (도화동)"
   }
  }
 },
 {
  "section": "stay",
  "name_ko": "글로리 인 연신내",
  "district": "은평구",
  "category": "홈스테이",
  "lat": 37.6187611087,
  "lng": 126.9252855054,
  "phone": "",
  "thumb": "http://tong.visitkorea.or.kr/cms/resource/30/3507530_image3_1.jpg",
  "i18n": {
   "ko": {
    "name": "글로리 인 연신내",
    "desc": "",
    "address": "서울특별시 은평구 통일로78길 26-9 (불광동, 불광트레비앙)"
   }
  }
 },
 {
  "section": "stay",
  "name_ko": "나비호스텔",
  "district": "마포구",
  "category": "게스트하우스",
  "lat": 37.5580626011,
  "lng": 126.9247400491,
  "phone": "",
  "thumb": "",
  "i18n": {
   "ko": {
    "name": "나비호스텔",
    "desc": "",
    "address": "서울특별시 마포구 양화로 177-1"
   }
  }
 },
 {
  "section": "stay",
  "name_ko": "나인브릭호텔",
  "district": "마포구",
  "category": "관광호텔",
  "lat": 37.5538352404,
  "lng": 126.920584992,
  "phone": "",
  "thumb": "http://tong.visitkorea.or.kr/cms/resource/56/2900456_image3_1.jpg",
  "i18n": {
   "ko": {
    "name": "나인브릭호텔",
    "desc": "",
    "address": "서울특별시 마포구 홍익로5길 32 (서교동)"
   }
  }
 },
 {
  "section": "stay",
  "name_ko": "남산호스텔",
  "district": "중구",
  "category": "게스트하우스",
  "lat": 37.5580831159,
  "lng": 126.9846040375,
  "phone": "",
  "thumb": "http://tong.visitkorea.or.kr/cms/resource/51/2487651_image2_1.jpg",
  "i18n": {
   "ko": {
    "name": "남산호스텔",
    "desc": "",
    "address": "서울특별시 중구 퇴계로18길 67"
   }
  }
 },
 {
  "section": "stay",
  "name_ko": "노보텔 스위트 앰배서더 서울 용산",
  "district": "용산구",
  "category": "관광호텔",
  "lat": 37.5320052033,
  "lng": 126.9630345182,
  "phone": "",
  "thumb": "",
  "i18n": {
   "ko": {
    "name": "노보텔 스위트 앰배서더 서울 용산",
    "desc": "",
    "address": "서울특별시 용산구 청파로20길 95 (한강로3가)"
   }
  }
 },
 {
  "section": "stay",
  "name_ko": "노보텔 앰배서더 서울 강남",
  "district": "강남구",
  "category": "관광호텔",
  "lat": 37.5053372605,
  "lng": 127.0289098282,
  "phone": "",
  "thumb": "http://tong.visitkorea.or.kr/cms/resource/27/3534327_image3_1.jpg",
  "i18n": {
   "ko": {
    "name": "노보텔 앰배서더 서울 강남",
    "desc": "",
    "address": "서울특별시 강남구 봉은사로 130 (역삼동)"
   }
  }
 },
 {
  "section": "stay",
  "name_ko": "노보텔 앰배서더 서울 용산",
  "district": "용산구",
  "category": "관광호텔",
  "lat": 37.5320052033,
  "lng": 126.9630345182,
  "phone": "",
  "thumb": "",
  "i18n": {
   "ko": {
    "name": "노보텔 앰배서더 서울 용산",
    "desc": "",
    "address": "서울특별시 용산구 청파로20길 95 (한강로3가)"
   }
  }
 },
 {
  "section": "stay",
  "name_ko": "누와",
  "district": "종로구",
  "category": "한옥스테이",
  "lat": 37.57963031,
  "lng": 126.9677966258,
  "phone": "",
  "thumb": "http://tong.visitkorea.or.kr/cms/resource/89/3074289_image3_1.jpg",
  "i18n": {
   "ko": {
    "name": "누와",
    "desc": "",
    "address": "서울특별시 종로구 필운대로5나길 3-1"
   }
  }
 },
 {
  "section": "stay",
  "name_ko": "능마루게스트하우스(Nungmaru Guesthouse)",
  "district": "중구",
  "category": "게스트하우스",
  "lat": 37.558783047,
  "lng": 126.9852928439,
  "phone": "",
  "thumb": "http://tong.visitkorea.or.kr/cms/resource/79/2568079_image2_1.jpg",
  "i18n": {
   "ko": {
    "name": "능마루게스트하우스(Nungmaru Guesthouse)",
    "desc": "",
    "address": "서울특별시 중구 퇴계로20나길 2-15"
   }
  }
 },
 {
  "section": "stay",
  "name_ko": "니트하우스",
  "district": "마포구",
  "category": "게스트하우스",
  "lat": 37.5543268216,
  "lng": 126.9190017894,
  "phone": "",
  "thumb": "",
  "i18n": {
   "ko": {
    "name": "니트하우스",
    "desc": "",
    "address": "서울특별시 마포구 양화로15안길 7"
   }
  }
 },
 {
  "section": "stay",
  "name_ko": "다산하우스",
  "district": "강서구",
  "category": "게스트하우스",
  "lat": 37.5610157646,
  "lng": 126.8099920982,
  "phone": "",
  "thumb": "",
  "i18n": {
   "ko": {
    "name": "다산하우스",
    "desc": "",
    "address": "서울특별시 강서구 송정로 70"
   }
  }
 },
 {
  "section": "stay",
  "name_ko": "단밤하우스",
  "district": "용산구",
  "category": "게스트하우스",
  "lat": 37.5523307075,
  "lng": 126.9679446073,
  "phone": "",
  "thumb": "",
  "i18n": {
   "ko": {
    "name": "단밤하우스",
    "desc": "",
    "address": "서울특별시 용산구 청파로85가길 10-4 (서계동)"
   }
  }
 },
 {
  "section": "stay",
  "name_ko": "더 플라자 호텔 서울",
  "district": "중구",
  "category": "관광호텔",
  "lat": 37.564679455,
  "lng": 126.9780822232,
  "phone": "",
  "thumb": "http://tong.visitkorea.or.kr/cms/resource/26/3556826_image3_1.jpg",
  "i18n": {
   "ko": {
    "name": "더 플라자 호텔 서울",
    "desc": "",
    "address": "서울특별시 중구 소공로 119"
   }
  }
 },
 {
  "section": "stay",
  "name_ko": "더리버사이드 호텔",
  "district": "서초구",
  "category": "관광호텔",
  "lat": 37.5187882827,
  "lng": 127.0180965434,
  "phone": "",
  "thumb": "http://tong.visitkorea.or.kr/cms/resource/62/2503562_image2_1.jpg",
  "i18n": {
   "ko": {
    "name": "더리버사이드 호텔",
    "desc": "",
    "address": "서울특별시 서초구 강남대로107길 6"
   }
  }
 },
 {
  "section": "stay",
  "name_ko": "더파더스",
  "district": "종로구",
  "category": "게스트하우스",
  "lat": 37.5827082736,
  "lng": 126.9980493367,
  "phone": "",
  "thumb": "",
  "i18n": {
   "ko": {
    "name": "더파더스",
    "desc": "",
    "address": "서울특별시 종로구 창경궁로 231 (명륜4가)"
   }
  }
 },
 {
  "section": "stay",
  "name_ko": "던하우스",
  "district": "용산구",
  "category": "홈스테이",
  "lat": 37.5523307075,
  "lng": 126.9679446073,
  "phone": "",
  "thumb": "",
  "i18n": {
   "ko": {
    "name": "던하우스",
    "desc": "",
    "address": "서울특별시 용산구 청파로85가길 10-4 (서계동)"
   }
  }
 },
 {
  "section": "stay",
  "name_ko": "도화스테이",
  "district": "마포구",
  "category": "게스트하우스",
  "lat": 37.5417816542,
  "lng": 126.9523296616,
  "phone": "",
  "thumb": "",
  "i18n": {
   "ko": {
    "name": "도화스테이",
    "desc": "",
    "address": "서울특별시 마포구 새창로4가길 9 (도화동)"
   }
  }
 },
 {
  "section": "stay",
  "name_ko": "둥글하우스 (Doonggle House)",
  "district": "관악구",
  "category": "게스트하우스",
  "lat": 37.4774199202,
  "lng": 126.9654608369,
  "phone": "",
  "thumb": "",
  "i18n": {
   "ko": {
    "name": "둥글하우스 (Doonggle House)",
    "desc": "",
    "address": "서울특별시 관악구 남부순환로247가길 22"
   }
  }
 },
 {
  "section": "stay",
  "name_ko": "디비하우스",
  "district": "은평구",
  "category": "펜션",
  "lat": 37.608976058,
  "lng": 126.9209472896,
  "phone": "",
  "thumb": "",
  "i18n": {
   "ko": {
    "name": "디비하우스",
    "desc": "",
    "address": "서울특별시 은평구 서오릉로 100 (대조동)"
   }
  }
 },
 {
  "section": "stay",
  "name_ko": "디에이치 성수포레",
  "district": "성동구",
  "category": "게스트하우스",
  "lat": 37.54644947,
  "lng": 127.0466098296,
  "phone": "",
  "thumb": "",
  "i18n": {
   "ko": {
    "name": "디에이치 성수포레",
    "desc": "",
    "address": "서울특별시 성동구 왕십리로8길 17-5 (성수동1가)"
   }
  }
 },
 {
  "section": "stay",
  "name_ko": "딜라이트 호텔",
  "district": "송파구",
  "category": "관광호텔",
  "lat": 37.5154403121,
  "lng": 127.1093272239,
  "phone": "",
  "thumb": "http://tong.visitkorea.or.kr/cms/resource/07/3565907_image3_1.png",
  "i18n": {
   "ko": {
    "name": "딜라이트 호텔",
    "desc": "",
    "address": "서울특별시 송파구 오금로11길 21-9 (방이동)"
   }
  }
 },
 {
  "section": "stay",
  "name_ko": "라마다 호텔앤스위트 서울남대문",
  "district": "중구",
  "category": "관광호텔",
  "lat": 37.5599882243,
  "lng": 126.9720106869,
  "phone": "",
  "thumb": "http://tong.visitkorea.or.kr/cms/resource/55/2707755_image3_1.jpg",
  "i18n": {
   "ko": {
    "name": "라마다 호텔앤스위트 서울남대문",
    "desc": "",
    "address": "서울특별시 중구 칠패로 27"
   }
  }
 },
 {
  "section": "stay",
  "name_ko": "라바호텔",
  "district": "서초구",
  "category": "모텔",
  "lat": 37.4865502789,
  "lng": 127.0136311949,
  "phone": "",
  "thumb": "http://tong.visitkorea.or.kr/cms/resource/61/3084361_image3_1.jpg",
  "i18n": {
   "ko": {
    "name": "라바호텔",
    "desc": "",
    "address": "서울특별시 서초구 효령로53길 40 (서초동)"
   }
  }
 },
 {
  "section": "stay",
  "name_ko": "라우펜스테이",
  "district": "금천구",
  "category": "게스트하우스",
  "lat": 37.4613235109,
  "lng": 126.9063500049,
  "phone": "",
  "thumb": "",
  "i18n": {
   "ko": {
    "name": "라우펜스테이",
    "desc": "",
    "address": "서울특별시 금천구 독산로44길 29 (시흥동, 인경스마트빌딩)"
   }
  }
 },
 {
  "section": "stay",
  "name_ko": "라이프스타일 F호텔",
  "district": "영등포구",
  "category": "모텔",
  "lat": 37.5171809991,
  "lng": 126.9112341004,
  "phone": "",
  "thumb": "http://tong.visitkorea.or.kr/cms/resource/60/1874260_image3_1.jpg",
  "i18n": {
   "ko": {
    "name": "라이프스타일 F호텔",
    "desc": "",
    "address": "서울특별시 영등포구 경인로108길 8"
   }
  }
 },
 {
  "section": "stay",
  "name_ko": "락고재 서울 북촌 한옥호텔",
  "district": "종로구",
  "category": "관광호텔",
  "lat": 37.580183352,
  "lng": 126.9860754996,
  "phone": "",
  "thumb": "",
  "i18n": {
   "ko": {
    "name": "락고재 서울 북촌 한옥호텔",
    "desc": "",
    "address": "서울특별시 종로구 계동길 49-23"
   }
  }
 },
 {
  "section": "stay",
  "name_ko": "레드",
  "district": "중구",
  "category": "게스트하우스",
  "lat": 37.5583997489,
  "lng": 126.98475957,
  "phone": "",
  "thumb": "http://tong.visitkorea.or.kr/cms/resource/00/2576100_image3_1.jpg",
  "i18n": {
   "ko": {
    "name": "레드",
    "desc": "",
    "address": "서울특별시 중구 소공로6길 32"
   }
  }
 },
 {
  "section": "stay",
  "name_ko": "레스케이프 호텔(L’Escape Hotel)",
  "district": "중구",
  "category": "관광호텔",
  "lat": 37.5597189467,
  "lng": 126.9795572285,
  "phone": "",
  "thumb": "http://tong.visitkorea.or.kr/cms/resource/20/2821120_image3_1.jpg",
  "i18n": {
   "ko": {
    "name": "레스케이프 호텔(L’Escape Hotel)",
    "desc": "",
    "address": "서울특별시 중구 퇴계로 67"
   }
  }
 },
 {
  "section": "stay",
  "name_ko": "렉스관광호텔",
  "district": "강남구",
  "category": "관광호텔",
  "lat": 37.5144221668,
  "lng": 127.020546444,
  "phone": "",
  "thumb": "http://tong.visitkorea.or.kr/cms/resource/35/3080535_image3_1.JPG",
  "i18n": {
   "ko": {
    "name": "렉스관광호텔",
    "desc": "",
    "address": "서울특별시 강남구 강남대로 588 (논현동)"
   }
  }
 },
 {
  "section": "stay",
  "name_ko": "로사나부티크호텔",
  "district": "송파구",
  "category": "모텔",
  "lat": 37.5060550786,
  "lng": 127.0975757814,
  "phone": "",
  "thumb": "http://tong.visitkorea.or.kr/cms/resource/89/3562689_image3_1.jpg",
  "i18n": {
   "ko": {
    "name": "로사나부티크호텔",
    "desc": "",
    "address": "서울특별시 송파구 삼학사로 98 (석촌동)"
   }
  }
 },
 {
  "section": "stay",
  "name_ko": "로얄스퀘어호텔",
  "district": "강서구",
  "category": "게스트하우스",
  "lat": 37.5607102509,
  "lng": 126.8103254099,
  "phone": "",
  "thumb": "",
  "i18n": {
   "ko": {
    "name": "로얄스퀘어호텔",
    "desc": "",
    "address": "서울특별시 강서구 공항대로 30"
   }
  }
 },
 {
  "section": "stay",
  "name_ko": "롯데시티호텔 구로",
  "district": "구로구",
  "category": "관광호텔",
  "lat": 37.4850844673,
  "lng": 126.8966252225,
  "phone": "",
  "thumb": "http://tong.visitkorea.or.kr/cms/resource/65/2505865_image2_1.jpg",
  "i18n": {
   "ko": {
    "name": "롯데시티호텔 구로",
    "desc": "",
    "address": "서울특별시 구로구 디지털로 300"
   }
  }
 },
 {
  "section": "stay",
  "name_ko": "롯데시티호텔 김포공항",
  "district": "강서구",
  "category": "관광호텔",
  "lat": 19.69442748,
  "lng": 117.9925662504,
  "phone": "",
  "thumb": "http://tong.visitkorea.or.kr/cms/resource/63/3578963_image3_1.jpg",
  "i18n": {
   "ko": {
    "name": "롯데시티호텔 김포공항",
    "desc": "",
    "address": "서울특별시 강서구 하늘길 38 (방화동)"
   }
  }
 },
 {
  "section": "stay",
  "name_ko": "롯데시티호텔 마포",
  "district": "마포구",
  "category": "관광호텔",
  "lat": 37.5450590314,
  "lng": 126.9512685547,
  "phone": "",
  "thumb": "http://tong.visitkorea.or.kr/cms/resource/21/3592521_image3_1.jpg",
  "i18n": {
   "ko": {
    "name": "롯데시티호텔 마포",
    "desc": "",
    "address": "서울특별시 마포구 마포대로 109"
   }
  }
 },
 {
  "section": "stay",
  "name_ko": "롯데시티호텔 명동",
  "district": "중구",
  "category": "관광호텔",
  "lat": 37.5669377042,
  "lng": 126.9880590273,
  "phone": "",
  "thumb": "http://tong.visitkorea.or.kr/cms/resource/66/2504466_image2_1.jpg",
  "i18n": {
   "ko": {
    "name": "롯데시티호텔 명동",
    "desc": "",
    "address": "서울특별시 중구 삼일대로 362"
   }
  }
 },
 {
  "section": "stay",
  "name_ko": "롯데호텔 L7홍대",
  "district": "마포구",
  "category": "관광호텔",
  "lat": 37.5558072531,
  "lng": 126.9216848363,
  "phone": "",
  "thumb": "http://tong.visitkorea.or.kr/cms/resource/32/2907132_image3_1.jpg",
  "i18n": {
   "ko": {
    "name": "롯데호텔 L7홍대",
    "desc": "",
    "address": "서울특별시 마포구 양화로 141 롯데호텔 L7홍대"
   }
  }
 },
 {
  "section": "stay",
  "name_ko": "롯데호텔 월드",
  "district": "송파구",
  "category": "관광호텔",
  "lat": 37.5123821225,
  "lng": 127.0976311526,
  "phone": "",
  "thumb": "http://tong.visitkorea.or.kr/cms/resource/28/3566628_image3_1.jpeg",
  "i18n": {
   "ko": {
    "name": "롯데호텔 월드",
    "desc": "",
    "address": "서울특별시 송파구 올림픽로 240 (잠실동)"
   }
  }
 },
 {
  "section": "stay",
  "name_ko": "리버사이드게스트하우스",
  "district": "광진구",
  "category": "게스트하우스",
  "lat": 37.5329878783,
  "lng": 127.0873259497,
  "phone": "",
  "thumb": "http://tong.visitkorea.or.kr/cms/resource/36/2650636_image2_1.jpg",
  "i18n": {
   "ko": {
    "name": "리버사이드게스트하우스",
    "desc": "",
    "address": "서울특별시 광진구 뚝섬로 702-4"
   }
  }
 },
 {
  "section": "stay",
  "name_ko": "리재",
  "district": "중구",
  "category": "펜션",
  "lat": 37.5638912266,
  "lng": 127.0097710247,
  "phone": "",
  "thumb": "",
  "i18n": {
   "ko": {
    "name": "리재",
    "desc": "",
    "address": "서울특별시 중구 퇴계로68길 14 (광희동2가)"
   }
  }
 },
 {
  "section": "stay",
  "name_ko": "리틀포레한강",
  "district": "성동구",
  "category": "홈스테이",
  "lat": 37.5463689287,
  "lng": 127.0468348118,
  "phone": "",
  "thumb": "",
  "i18n": {
   "ko": {
    "name": "리틀포레한강",
    "desc": "",
    "address": "서울특별시 성동구 왕십리로8길 19-5 (성수동1가)"
   }
  }
 },
 {
  "section": "stay",
  "name_ko": "린다픽",
  "district": "용산구",
  "category": "게스트하우스",
  "lat": 37.5358052852,
  "lng": 126.9922206404,
  "phone": "",
  "thumb": "http://tong.visitkorea.or.kr/cms/resource/10/2803310_image3_1.jpg",
  "i18n": {
   "ko": {
    "name": "린다픽",
    "desc": "",
    "address": "서울특별시 용산구 이태원로23길 26-5"
   }
  }
 },
 {
  "section": "stay",
  "name_ko": "마리호텔",
  "district": "강동구",
  "category": "관광호텔",
  "lat": 37.5375465985,
  "lng": 127.1381489723,
  "phone": "",
  "thumb": "",
  "i18n": {
   "ko": {
    "name": "마리호텔",
    "desc": "",
    "address": "서울특별시 강동구 양재대로111길 28 (길동)"
   }
  }
 },
 {
  "section": "stay",
  "name_ko": "머큐어 앰배서더 서울 홍대",
  "district": "마포구",
  "category": "관광호텔",
  "lat": 37.5553962029,
  "lng": 126.922409782,
  "phone": "",
  "thumb": "http://tong.visitkorea.or.kr/cms/resource/72/2916572_image3_1.jpg",
  "i18n": {
   "ko": {
    "name": "머큐어 앰배서더 서울 홍대",
    "desc": "",
    "address": "서울특별시 마포구 양화로 144 (동교동)"
   }
  }
 },
 {
  "section": "stay",
  "name_ko": "메리어트 이그제큐티브 아파트먼트 서울 여의도",
  "district": "영등포구",
  "category": "관광호텔",
  "lat": 37.5212667678,
  "lng": 126.9186194232,
  "phone": "",
  "thumb": "http://tong.visitkorea.or.kr/cms/resource/66/3555066_image3_1.JPG",
  "i18n": {
   "ko": {
    "name": "메리어트 이그제큐티브 아파트먼트 서울 여의도",
    "desc": "",
    "address": "서울특별시 영등포구 여의대로 8 (여의도동)"
   }
  }
 },
 {
  "section": "stay",
  "name_ko": "메모리스테이 효자",
  "district": "종로구",
  "category": "한옥스테이",
  "lat": 37.5827355624,
  "lng": 126.9710156891,
  "phone": "",
  "thumb": "http://tong.visitkorea.or.kr/cms/resource/97/3507597_image3_1.jpg",
  "i18n": {
   "ko": {
    "name": "메모리스테이 효자",
    "desc": "",
    "address": "서울특별시 종로구 자하문로 76-4 (효자동)"
   }
  }
 },
 {
  "section": "stay",
  "name_ko": "명동게스트하우스 꼬모",
  "district": "중구",
  "category": "게스트하우스",
  "lat": 37.5604773294,
  "lng": 126.9872287304,
  "phone": "",
  "thumb": "http://tong.visitkorea.or.kr/cms/resource/89/2709189_image3_1.jpg",
  "i18n": {
   "ko": {
    "name": "명동게스트하우스 꼬모",
    "desc": "",
    "address": "서울특별시 중구 퇴계로24길 12"
   }
  }
 },
 {
  "section": "stay",
  "name_ko": "모드하우스",
  "district": "용산구",
  "category": "게스트하우스",
  "lat": 37.5404519981,
  "lng": 126.9938981342,
  "phone": "",
  "thumb": "",
  "i18n": {
   "ko": {
    "name": "모드하우스",
    "desc": "",
    "address": "서울특별시 용산구 회나무로39가길 18 (이태원동)"
   }
  }
 },
 {
  "section": "stay",
  "name_ko": "미담 한옥 게스트 하우스",
  "district": "종로구",
  "category": "한옥스테이",
  "lat": 37.5806638566,
  "lng": 126.9863532384,
  "phone": "",
  "thumb": "",
  "i18n": {
   "ko": {
    "name": "미담 한옥 게스트 하우스",
    "desc": "",
    "address": "서울특별시 종로구 북촌로6길 25-6"
   }
  }
 },
 {
  "section": "stay",
  "name_ko": "미로 게스트하우스",
  "district": "마포구",
  "category": "게스트하우스",
  "lat": 37.561787184,
  "lng": 126.925595422,
  "phone": "",
  "thumb": "",
  "i18n": {
   "ko": {
    "name": "미로 게스트하우스",
    "desc": "",
    "address": "서울특별시 마포구 동교로38길 27"
   }
  }
 },
 {
  "section": "stay",
  "name_ko": "반얀트리 클럽 앤 스파 서울",
  "district": "중구",
  "category": "관광호텔",
  "lat": 37.55012877,
  "lng": 127.0005250345,
  "phone": "",
  "thumb": "http://tong.visitkorea.or.kr/cms/resource/65/2719665_image2_1.jpg",
  "i18n": {
   "ko": {
    "name": "반얀트리 클럽 앤 스파 서울",
    "desc": "",
    "address": "서울특별시 중구 장충단로 60"
   }
  }
 },
 {
  "section": "stay",
  "name_ko": "보나게스트하우스",
  "district": "영등포구",
  "category": "게스트하우스",
  "lat": 37.5153952166,
  "lng": 126.9180196434,
  "phone": "",
  "thumb": "",
  "i18n": {
   "ko": {
    "name": "보나게스트하우스",
    "desc": "",
    "address": "서울특별시 영등포구 영등포로 351 (신길동, 신길동경남아파트)"
   }
  }
 },
 {
  "section": "stay",
  "name_ko": "보라보라",
  "district": "용산구",
  "category": "게스트하우스",
  "lat": 37.5333861525,
  "lng": 126.9939205548,
  "phone": "",
  "thumb": "",
  "i18n": {
   "ko": {
    "name": "보라보라",
    "desc": "",
    "address": "서울특별시 용산구 이태원로26길 25-12 (이태원동)"
   }
  }
 },
 {
  "section": "stay",
  "name_ko": "보문소담",
  "district": "성북구",
  "category": "게스트하우스",
  "lat": 37.5829836296,
  "lng": 127.0196751356,
  "phone": "",
  "thumb": "",
  "i18n": {
   "ko": {
    "name": "보문소담",
    "desc": "",
    "address": "서울특별시 성북구 보문로21길 15-3 (보문동5가)"
   }
  }
 },
 {
  "section": "stay",
  "name_ko": "보코 서울 강남",
  "district": "강남구",
  "category": "관광호텔",
  "lat": 37.5178162906,
  "lng": 127.0246265322,
  "phone": "",
  "thumb": "",
  "i18n": {
   "ko": {
    "name": "보코 서울 강남",
    "desc": "",
    "address": "서울특별시 강남구 도산대로 144 (논현동)"
   }
  }
 },
 {
  "section": "stay",
  "name_ko": "복합한옥공간 곳",
  "district": "종로구",
  "category": "한옥스테이",
  "lat": 37.5797528699,
  "lng": 126.9873670606,
  "phone": "",
  "thumb": "http://tong.visitkorea.or.kr/cms/resource/68/2631068_image3_1.jpg",
  "i18n": {
   "ko": {
    "name": "복합한옥공간 곳",
    "desc": "",
    "address": "서울특별시 종로구 계동길 52-11 (계동)"
   }
  }
 },
 {
  "section": "stay",
  "name_ko": "북촌 게스트하우스",
  "district": "종로구",
  "category": "한옥스테이",
  "lat": 37.5786279695,
  "lng": 126.9856811352,
  "phone": "",
  "thumb": "http://tong.visitkorea.or.kr/cms/resource/42/2575642_image2_1.PNG",
  "i18n": {
   "ko": {
    "name": "북촌 게스트하우스",
    "desc": "",
    "address": "서울특별시 종로구 북촌로 20-17"
   }
  }
 },
 {
  "section": "stay",
  "name_ko": "북촌다락방",
  "district": "종로구",
  "category": "한옥스테이",
  "lat": 37.5827802333,
  "lng": 126.983925622,
  "phone": "",
  "thumb": "",
  "i18n": {
   "ko": {
    "name": "북촌다락방",
    "desc": "",
    "address": "서울특별시 종로구 북촌로11가길 27 (가회동)"
   }
  }
 },
 {
  "section": "stay",
  "name_ko": "북촌빈관 by 락고재",
  "district": "종로구",
  "category": "한옥스테이",
  "lat": 37.5823469553,
  "lng": 126.9842200518,
  "phone": "",
  "thumb": "",
  "i18n": {
   "ko": {
    "name": "북촌빈관 by 락고재",
    "desc": "",
    "address": "서울특별시 종로구 북촌로11가길 10 (가회동)"
   }
  }
 },
 {
  "section": "stay",
  "name_ko": "브라운스위트 신촌센트럴",
  "district": "마포구",
  "category": "모텔",
  "lat": 37.5547215174,
  "lng": 126.9356085978,
  "phone": "",
  "thumb": "http://tong.visitkorea.or.kr/cms/resource/04/3023104_image3_1.jpg",
  "i18n": {
   "ko": {
    "name": "브라운스위트 신촌센트럴",
    "desc": "",
    "address": "서울특별시 마포구 서강로 137 (노고산동)"
   }
  }
 },
 {
  "section": "stay",
  "name_ko": "빅 존스 플레이스",
  "district": "강남구",
  "category": "게스트하우스",
  "lat": 37.5041457045,
  "lng": 127.0273600035,
  "phone": "",
  "thumb": "",
  "i18n": {
   "ko": {
    "name": "빅 존스 플레이스",
    "desc": "",
    "address": "서울특별시 강남구 강남대로110길 31-1"
   }
  }
 },
 {
  "section": "stay",
  "name_ko": "사월 한옥",
  "district": "성북구",
  "category": "한옥스테이",
  "lat": 37.5939097842,
  "lng": 127.0000238388,
  "phone": "",
  "thumb": "",
  "i18n": {
   "ko": {
    "name": "사월 한옥",
    "desc": "",
    "address": "서울특별시 성북구 성북로 76-11 (성북동)"
   }
  }
 },
 {
  "section": "stay",
  "name_ko": "삼청동 코리아 게스트하우스",
  "district": "종로구",
  "category": "게스트하우스",
  "lat": 37.5821136107,
  "lng": 126.982025814,
  "phone": "",
  "thumb": "",
  "i18n": {
   "ko": {
    "name": "삼청동 코리아 게스트하우스",
    "desc": "",
    "address": "서울특별시 종로구 삼청로4길 12-1"
   }
  }
 },
 {
  "section": "stay",
  "name_ko": "샤갈의 집",
  "district": "관악구",
  "category": "게스트하우스",
  "lat": 37.4765478211,
  "lng": 126.9666746399,
  "phone": "",
  "thumb": "",
  "i18n": {
   "ko": {
    "name": "샤갈의 집",
    "desc": "",
    "address": "서울특별시 관악구 남부순환로247길 14-8"
   }
  }
 },
 {
  "section": "stay",
  "name_ko": "서울 성북 홈스테이",
  "district": "성북구",
  "category": "게스트하우스",
  "lat": 37.6017901504,
  "lng": 127.0404421537,
  "phone": "",
  "thumb": "http://tong.visitkorea.or.kr/cms/resource/73/2573573_image2_1.jpg",
  "i18n": {
   "ko": {
    "name": "서울 성북 홈스테이",
    "desc": "",
    "address": "서울특별시 성북구 화랑로 76"
   }
  }
 },
 {
  "section": "stay",
  "name_ko": "서울 타이완 게스트하우스",
  "district": "중구",
  "category": "게스트하우스",
  "lat": 37.5581885778,
  "lng": 126.9800488938,
  "phone": "",
  "thumb": "http://tong.visitkorea.or.kr/cms/resource/19/2568119_image2_1.jpg",
  "i18n": {
   "ko": {
    "name": "서울 타이완 게스트하우스",
    "desc": "",
    "address": "서울특별시 중구 퇴계로10길 20-18"
   }
  }
 },
 {
  "section": "stay",
  "name_ko": "서울가든호텔",
  "district": "마포구",
  "category": "관광호텔",
  "lat": 37.5408900188,
  "lng": 126.9483050535,
  "phone": "",
  "thumb": "http://tong.visitkorea.or.kr/cms/resource/39/3562939_image3_1.jpg",
  "i18n": {
   "ko": {
    "name": "서울가든호텔",
    "desc": "",
    "address": "서울특별시 마포구 마포대로 58"
   }
  }
 },
 {
  "section": "stay",
  "name_ko": "서울아리",
  "district": "종로구",
  "category": "한옥스테이",
  "lat": 37.5767227374,
  "lng": 126.9913445622,
  "phone": "",
  "thumb": "",
  "i18n": {
   "ko": {
    "name": "서울아리",
    "desc": "",
    "address": "서울특별시 종로구 율곡로10길 15-8 (권농동)"
   }
  }
 },
 {
  "section": "stay",
  "name_ko": "서울올림픽파크텔",
  "district": "송파구",
  "category": "유스호스텔",
  "lat": 37.522334086,
  "lng": 127.1165319275,
  "phone": "",
  "thumb": "http://tong.visitkorea.or.kr/cms/resource/68/3562568_image3_1.jpeg",
  "i18n": {
   "ko": {
    "name": "서울올림픽파크텔",
    "desc": "",
    "address": "서울특별시 송파구 올림픽로 448 (방이동)"
   }
  }
 },
 {
  "section": "stay",
  "name_ko": "서울이야기 한옥(서울이야기한옥게스트하우스)",
  "district": "종로구",
  "category": "한옥스테이",
  "lat": 37.577005917,
  "lng": 126.9846035015,
  "phone": "",
  "thumb": "http://tong.visitkorea.or.kr/cms/resource/75/2566975_image2_1.jpg",
  "i18n": {
   "ko": {
    "name": "서울이야기 한옥(서울이야기한옥게스트하우스)",
    "desc": "",
    "address": "서울특별시 종로구 율곡로5길 3-19"
   }
  }
 },
 {
  "section": "stay",
  "name_ko": "서울큐브 이화",
  "district": "마포구",
  "category": "게스트하우스",
  "lat": 37.5560798947,
  "lng": 126.9468714213,
  "phone": "",
  "thumb": "",
  "i18n": {
   "ko": {
    "name": "서울큐브 이화",
    "desc": "",
    "address": "서울특별시 마포구 대흥로30길 18-10"
   }
  }
 },
 {
  "section": "stay",
  "name_ko": "서울한옥스테이(jnpstay)",
  "district": "종로구",
  "category": "한옥스테이",
  "lat": 37.5769584543,
  "lng": 126.9708991967,
  "phone": "",
  "thumb": "http://tong.visitkorea.or.kr/cms/resource/71/2803371_image3_1.jpg",
  "i18n": {
   "ko": {
    "name": "서울한옥스테이(jnpstay)",
    "desc": "",
    "address": "서울특별시 종로구 자하문로1나길 7-28"
   }
  }
 },
 {
  "section": "stay",
  "name_ko": "서유니스테이",
  "district": "종로구",
  "category": "게스트하우스",
  "lat": 37.586741137,
  "lng": 126.9980047819,
  "phone": "",
  "thumb": "",
  "i18n": {
   "ko": {
    "name": "서유니스테이",
    "desc": "",
    "address": "서울특별시 종로구 성균관로14길 63 (명륜1가)"
   }
  }
 },
 {
  "section": "stay",
  "name_ko": "서촌영락재",
  "district": "종로구",
  "category": "한옥스테이",
  "lat": 37.5803191143,
  "lng": 126.9675494067,
  "phone": "",
  "thumb": "",
  "i18n": {
   "ko": {
    "name": "서촌영락재",
    "desc": "",
    "address": "서울특별시 종로구 필운대로5가길 29"
   }
  }
 },
 {
  "section": "stay",
  "name_ko": "석촌별채",
  "district": "송파구",
  "category": "펜션",
  "lat": 37.5116685416,
  "lng": 127.1100939275,
  "phone": "",
  "thumb": "",
  "i18n": {
   "ko": {
    "name": "석촌별채",
    "desc": "",
    "address": "서울특별시 송파구 오금로17길 5-25 (방이동)"
   }
  }
 },
 {
  "section": "stay",
  "name_ko": "선음재",
  "district": "종로구",
  "category": "한옥스테이",
  "lat": 37.5850966614,
  "lng": 126.9856309563,
  "phone": "",
  "thumb": "",
  "i18n": {
   "ko": {
    "name": "선음재",
    "desc": "",
    "address": "서울특별시 종로구 북촌로 94-14 (가회동)"
   }
  }
 },
 {
  "section": "stay",
  "name_ko": "세연재",
  "district": "은평구",
  "category": "한옥스테이",
  "lat": 37.6403283002,
  "lng": 126.9395335943,
  "phone": "",
  "thumb": "",
  "i18n": {
   "ko": {
    "name": "세연재",
    "desc": "",
    "address": "서울특별시 은평구 연서로50길 17"
   }
  }
 },
 {
  "section": "stay",
  "name_ko": "센서빌리",
  "district": "동대문구",
  "category": "게스트하우스",
  "lat": 37.5827620188,
  "lng": 127.0522138438,
  "phone": "",
  "thumb": "",
  "i18n": {
   "ko": {
    "name": "센서빌리",
    "desc": "",
    "address": "서울특별시 동대문구 서울시립대로25길 10 (전농동)"
   }
  }
 },
 {
  "section": "stay",
  "name_ko": "소담스테이",
  "district": "마포구",
  "category": "한옥스테이",
  "lat": 37.5480393261,
  "lng": 126.9559902624,
  "phone": "",
  "thumb": "",
  "i18n": {
   "ko": {
    "name": "소담스테이",
    "desc": "",
    "address": "서울특별시 마포구 마포대로14길 12-17"
   }
  }
 },
 {
  "section": "stay",
  "name_ko": "소소하우스",
  "district": "종로구",
  "category": "한옥스테이",
  "lat": 37.5803330123,
  "lng": 126.9681632393,
  "phone": "",
  "thumb": "",
  "i18n": {
   "ko": {
    "name": "소소하우스",
    "desc": "",
    "address": "서울특별시 종로구 필운대로5가길 16-5"
   }
  }
 },
 {
  "section": "stay",
  "name_ko": "수채화",
  "district": "은평구",
  "category": "게스트하우스",
  "lat": 37.6075680418,
  "lng": 126.9295021044,
  "phone": "",
  "thumb": "",
  "i18n": {
   "ko": {
    "name": "수채화",
    "desc": "",
    "address": "서울특별시 은평구 녹번로7길 20-18 (녹번동, 수채화)"
   }
  }
 },
 {
  "section": "stay",
  "name_ko": "숨바꼭질(Hide & Seek)(Hide & Seek (숨바꼭질) 게스트하우스)",
  "district": "종로구",
  "category": "게스트하우스",
  "lat": 37.5808302228,
  "lng": 126.9707129929,
  "phone": "",
  "thumb": "",
  "i18n": {
   "ko": {
    "name": "숨바꼭질(Hide & Seek)(Hide & Seek (숨바꼭질) 게스트하우스)",
    "desc": "",
    "address": "서울특별시 종로구 자하문로6길 14"
   }
  }
 },
 {
  "section": "stay",
  "name_ko": "스위스 그랜드 호텔",
  "district": "서대문구",
  "category": "관광호텔",
  "lat": 37.5885203694,
  "lng": 126.9357881816,
  "phone": "",
  "thumb": "http://tong.visitkorea.or.kr/cms/resource/89/3534089_image3_1.jpg",
  "i18n": {
   "ko": {
    "name": "스위스 그랜드 호텔",
    "desc": "",
    "address": "서울특별시 서대문구 연희로 353 (홍은동)"
   }
  }
 },
 {
  "section": "stay",
  "name_ko": "스윗 서울",
  "district": "송파구",
  "category": "게스트하우스",
  "lat": 37.5073574508,
  "lng": 127.0834381418,
  "phone": "",
  "thumb": "",
  "i18n": {
   "ko": {
    "name": "스윗 서울",
    "desc": "",
    "address": "서울특별시 송파구 올림픽로12길 48-1"
   }
  }
 },
 {
  "section": "stay",
  "name_ko": "스윗미1949",
  "district": "용산구",
  "category": "게스트하우스",
  "lat": 37.5517918792,
  "lng": 126.9678113012,
  "phone": "",
  "thumb": "",
  "i18n": {
   "ko": {
    "name": "스윗미1949",
    "desc": "",
    "address": "서울특별시 용산구 청파로83길 27-2 (서계동)"
   }
  }
 },
 {
  "section": "stay",
  "name_ko": "스타리아호스텔",
  "district": "중구",
  "category": "게스트하우스",
  "lat": 37.5584830965,
  "lng": 126.9861038896,
  "phone": "",
  "thumb": "http://tong.visitkorea.or.kr/cms/resource/97/2575997_image3_1.PNG",
  "i18n": {
   "ko": {
    "name": "스타리아호스텔",
    "desc": "",
    "address": "서울특별시 중구 퇴계로20길 38"
   }
  }
 },
 {
  "section": "stay",
  "name_ko": "스테이 공간",
  "district": "영등포구",
  "category": "게스트하우스",
  "lat": 37.5250101572,
  "lng": 126.8839197022,
  "phone": "",
  "thumb": "",
  "i18n": {
   "ko": {
    "name": "스테이 공간",
    "desc": "",
    "address": "서울특별시 영등포구 선유서로25길 18-7 (양평동2가)"
   }
  }
 },
 {
  "section": "stay",
  "name_ko": "스테이 데이 오프",
  "district": "종로구",
  "category": "한옥스테이",
  "lat": 37.5773111969,
  "lng": 126.9712158243,
  "phone": "",
  "thumb": "http://tong.visitkorea.or.kr/cms/resource/96/2707596_image3_1.jpg",
  "i18n": {
   "ko": {
    "name": "스테이 데이 오프",
    "desc": "",
    "address": "서울특별시 종로구 자하문로1다길 6"
   }
  }
 },
 {
  "section": "stay",
  "name_ko": "스테이 희와",
  "district": "종로구",
  "category": "한옥스테이",
  "lat": 37.5892547343,
  "lng": 126.9980380409,
  "phone": "",
  "thumb": "",
  "i18n": {
   "ko": {
    "name": "스테이 희와",
    "desc": "",
    "address": "서울특별시 종로구 혜화로11가길 16-3 (명륜1가)"
   }
  }
 },
 {
  "section": "stay",
  "name_ko": "스테이모일",
  "district": "종로구",
  "category": "한옥스테이",
  "lat": 37.5766644064,
  "lng": 126.9911084737,
  "phone": "",
  "thumb": "",
  "i18n": {
   "ko": {
    "name": "스테이모일",
    "desc": "",
    "address": "서울특별시 종로구 율곡로10길 19 (권농동)"
   }
  }
 },
 {
  "section": "stay",
  "name_ko": "스테이별빛숭인",
  "district": "종로구",
  "category": "게스트하우스",
  "lat": 37.5751150931,
  "lng": 127.0193059481,
  "phone": "",
  "thumb": "",
  "i18n": {
   "ko": {
    "name": "스테이별빛숭인",
    "desc": "",
    "address": "서울특별시 종로구 종로65가길 19 (숭인동)"
   }
  }
 },
 {
  "section": "stay",
  "name_ko": "스테이보리",
  "district": "성동구",
  "category": "게스트하우스",
  "lat": 37.5396616376,
  "lng": 127.0614836687,
  "phone": "",
  "thumb": "",
  "i18n": {
   "ko": {
    "name": "스테이보리",
    "desc": "",
    "address": "서울특별시 성동구 성수이로16길 48 (성수동2가)"
   }
  }
 },
 {
  "section": "stay",
  "name_ko": "스테이영에버",
  "district": "종로구",
  "category": "게스트하우스",
  "lat": 37.5773257918,
  "lng": 127.0106427863,
  "phone": "",
  "thumb": "",
  "i18n": {
   "ko": {
    "name": "스테이영에버",
    "desc": "",
    "address": "서울특별시 종로구 창신8길 17 (창신동)"
   }
  }
 },
 {
  "section": "stay",
  "name_ko": "스테이청운",
  "district": "종로구",
  "category": "게스트하우스",
  "lat": 37.5877210442,
  "lng": 126.9682352457,
  "phone": "",
  "thumb": "",
  "i18n": {
   "ko": {
    "name": "스테이청운",
    "desc": "",
    "address": "서울특별시 종로구 자하문로 131-21 (청운동)"
   }
  }
 },
 {
  "section": "stay",
  "name_ko": "스테이코멧",
  "district": "종로구",
  "category": "게스트하우스",
  "lat": 37.5773257918,
  "lng": 127.0106427863,
  "phone": "",
  "thumb": "",
  "i18n": {
   "ko": {
    "name": "스테이코멧",
    "desc": "",
    "address": "서울특별시 종로구 창신8길 17 (창신동)"
   }
  }
 },
 {
  "section": "stay",
  "name_ko": "스테이콘티고",
  "district": "마포구",
  "category": "게스트하우스",
  "lat": 37.5616816357,
  "lng": 126.9253287829,
  "phone": "",
  "thumb": "",
  "i18n": {
   "ko": {
    "name": "스테이콘티고",
    "desc": "",
    "address": "서울특별시 마포구 동교로38길 26-7 (연남동)"
   }
  }
 },
 {
  "section": "stay",
  "name_ko": "시그니엘 서울",
  "district": "송파구",
  "category": "관광호텔",
  "lat": 37.5141653654,
  "lng": 127.1040749597,
  "phone": "",
  "thumb": "",
  "i18n": {
   "ko": {
    "name": "시그니엘 서울",
    "desc": "",
    "address": "서울특별시 송파구 올림픽로 300 (신천동)"
   }
  }
 },
 {
  "section": "stay",
  "name_ko": "시은재",
  "district": "종로구",
  "category": "한옥스테이",
  "lat": 37.5737035704,
  "lng": 126.9872477984,
  "phone": "",
  "thumb": "http://tong.visitkorea.or.kr/cms/resource/51/2447351_image3_1.jpg",
  "i18n": {
   "ko": {
    "name": "시은재",
    "desc": "",
    "address": "서울특별시 종로구 삼일대로 439"
   }
  }
 },
 {
  "section": "stay",
  "name_ko": "신라스테이 삼성",
  "district": "강남구",
  "category": "관광호텔",
  "lat": 37.5099623394,
  "lng": 127.063192688,
  "phone": "",
  "thumb": "",
  "i18n": {
   "ko": {
    "name": "신라스테이 삼성",
    "desc": "",
    "address": "서울특별시 강남구 영동대로 506 (삼성동)"
   }
  }
 },
 {
  "section": "stay",
  "name_ko": "신촌 시스터즈",
  "district": "마포구",
  "category": "게스트하우스",
  "lat": 37.5539549409,
  "lng": 126.9356725027,
  "phone": "",
  "thumb": "http://tong.visitkorea.or.kr/cms/resource/92/2708492_image3_1.jpg",
  "i18n": {
   "ko": {
    "name": "신촌 시스터즈",
    "desc": "",
    "address": "서울특별시 마포구 백범로2길 24"
   }
  }
 },
 {
  "section": "stay",
  "name_ko": "써미트 호텔 서울",
  "district": "중구",
  "category": "관광호텔",
  "lat": 37.5623052464,
  "lng": 127.0068407802,
  "phone": "",
  "thumb": "http://tong.visitkorea.or.kr/cms/resource/79/3572479_image3_1.jpg",
  "i18n": {
   "ko": {
    "name": "써미트 호텔 서울",
    "desc": "",
    "address": "서울특별시 중구 장충단로 198"
   }
  }
 },
 {
  "section": "stay",
  "name_ko": "쓰리세븐호텔",
  "district": "동대문구",
  "category": "관광호텔",
  "lat": 37.6038208636,
  "lng": 127.0622678841,
  "phone": "",
  "thumb": "http://tong.visitkorea.or.kr/cms/resource/72/2590472_image3_1.jpg",
  "i18n": {
   "ko": {
    "name": "쓰리세븐호텔",
    "desc": "",
    "address": "서울특별시 동대문구 이문로 192"
   }
  }
 },
 {
  "section": "stay",
  "name_ko": "아담한옥",
  "district": "종로구",
  "category": "한옥스테이",
  "lat": 37.5803885888,
  "lng": 126.9696769883,
  "phone": "",
  "thumb": "http://tong.visitkorea.or.kr/cms/resource/39/3070239_image3_1.jpg",
  "i18n": {
   "ko": {
    "name": "아담한옥",
    "desc": "",
    "address": "서울특별시 종로구 필운대로6길 21 (통인동)"
   }
  }
 },
 {
  "section": "stay",
  "name_ko": "아름다운 황토집",
  "district": "은평구",
  "category": "게스트하우스",
  "lat": 37.6257102593,
  "lng": 126.9229855187,
  "phone": "",
  "thumb": "http://tong.visitkorea.or.kr/cms/resource/61/2575061_image2_1.png",
  "i18n": {
   "ko": {
    "name": "아름다운 황토집",
    "desc": "",
    "address": "서울특별시 은평구 통일로92길 30"
   }
  }
 },
 {
  "section": "stay",
  "name_ko": "아리하우스",
  "district": "중구",
  "category": "게스트하우스",
  "lat": 37.560357891,
  "lng": 126.9867926625,
  "phone": "",
  "thumb": "http://tong.visitkorea.or.kr/cms/resource/81/2567981_image2_1.jpg",
  "i18n": {
   "ko": {
    "name": "아리하우스",
    "desc": "",
    "address": "서울특별시 중구 퇴계로22길 11-4"
   }
  }
 },
 {
  "section": "stay",
  "name_ko": "아만티호텔서울",
  "district": "마포구",
  "category": "관광호텔",
  "lat": 37.5571903727,
  "lng": 126.9187184009,
  "phone": "",
  "thumb": "http://tong.visitkorea.or.kr/cms/resource/87/2916587_image3_1.jpg",
  "i18n": {
   "ko": {
    "name": "아만티호텔서울",
    "desc": "",
    "address": "서울특별시 마포구 월드컵북로 31 (서교동)"
   }
  }
 },
 {
  "section": "stay",
  "name_ko": "안녕 올라 서울",
  "district": "관악구",
  "category": "게스트하우스",
  "lat": 37.4817547619,
  "lng": 126.9226062834,
  "phone": "",
  "thumb": "",
  "i18n": {
   "ko": {
    "name": "안녕 올라 서울",
    "desc": "",
    "address": "서울특별시 관악구 남부순환로160길 37 (신림동)"
   }
  }
 },
 {
  "section": "stay",
  "name_ko": "안다즈 서울 강남",
  "district": "강남구",
  "category": "관광호텔",
  "lat": 37.5253738224,
  "lng": 127.0288814863,
  "phone": "",
  "thumb": "",
  "i18n": {
   "ko": {
    "name": "안다즈 서울 강남",
    "desc": "",
    "address": "서울특별시 강남구 논현로 854 (신사동)"
   }
  }
 },
 {
  "section": "stay",
  "name_ko": "앙니드 공이안",
  "district": "종로구",
  "category": "한옥스테이",
  "lat": 37.5816331005,
  "lng": 126.9814925429,
  "phone": "",
  "thumb": "",
  "i18n": {
   "ko": {
    "name": "앙니드 공이안",
    "desc": "",
    "address": "서울특별시 종로구 북촌로5가길 44-5 (화동)"
   }
  }
 },
 {
  "section": "stay",
  "name_ko": "애플트리(Apple tree)(애플트리게스트하우스)",
  "district": "마포구",
  "category": "게스트하우스",
  "lat": 37.5581512374,
  "lng": 126.9111996144,
  "phone": "",
  "thumb": "http://tong.visitkorea.or.kr/cms/resource/59/2568259_image2_1.jpg",
  "i18n": {
   "ko": {
    "name": "애플트리(Apple tree)(애플트리게스트하우스)",
    "desc": "",
    "address": "서울특별시 마포구 월드컵로20길 41-5"
   }
  }
 },
 {
  "section": "stay",
  "name_ko": "앤드류 게스트하우스",
  "district": "마포구",
  "category": "게스트하우스",
  "lat": 37.5564489442,
  "lng": 126.927212092,
  "phone": "",
  "thumb": "",
  "i18n": {
   "ko": {
    "name": "앤드류 게스트하우스",
    "desc": "",
    "address": "서울특별시 마포구 와우산로29길 56-9 (서교동, 홍익예림빌라)"
   }
  }
 },
 {
  "section": "stay",
  "name_ko": "야코리아호스텔 강남점",
  "district": "강남구",
  "category": "게스트하우스",
  "lat": 37.5046598283,
  "lng": 127.0437640507,
  "phone": "",
  "thumb": "",
  "i18n": {
   "ko": {
    "name": "야코리아호스텔 강남점",
    "desc": "",
    "address": "서울특별시 강남구 테헤란로43길 19"
   }
  }
 },
 {
  "section": "stay",
  "name_ko": "양스테이",
  "district": "동대문구",
  "category": "게스트하우스",
  "lat": 37.5882336827,
  "lng": 127.0565132967,
  "phone": "",
  "thumb": "",
  "i18n": {
   "ko": {
    "name": "양스테이",
    "desc": "",
    "address": "서울특별시 동대문구 망우로 28 (휘경동)"
   }
  }
 },
 {
  "section": "stay",
  "name_ko": "어반우드",
  "district": "마포구",
  "category": "게스트하우스",
  "lat": 37.5557184671,
  "lng": 126.9268538117,
  "phone": "",
  "thumb": "http://tong.visitkorea.or.kr/cms/resource/45/2576145_image2_1.PNG",
  "i18n": {
   "ko": {
    "name": "어반우드",
    "desc": "",
    "address": "서울특별시 마포구 와우산로29마길 5"
   }
  }
 },
 {
  "section": "stay",
  "name_ko": "업플로 호스텔",
  "district": "서초구",
  "category": "게스트하우스",
  "lat": 37.4937911663,
  "lng": 127.0170584559,
  "phone": "",
  "thumb": "",
  "i18n": {
   "ko": {
    "name": "업플로 호스텔",
    "desc": "",
    "address": "서울특별시 서초구 서초대로56길 18"
   }
  }
 },
 {
  "section": "stay",
  "name_ko": "에이치에비뉴 건대점",
  "district": "광진구",
  "category": "관광호텔",
  "lat": 37.5460887604,
  "lng": 127.0665830214,
  "phone": "",
  "thumb": "http://tong.visitkorea.or.kr/cms/resource/42/3091242_image3_1.JPG",
  "i18n": {
   "ko": {
    "name": "에이치에비뉴 건대점",
    "desc": "",
    "address": "서울특별시 광진구 동일로 156 (화양동)"
   }
  }
 },
 {
  "section": "stay",
  "name_ko": "엔트라호텔",
  "district": "강남구",
  "category": "관광호텔",
  "lat": 37.524077103,
  "lng": 127.0484852936,
  "phone": "",
  "thumb": "http://tong.visitkorea.or.kr/cms/resource/11/3080511_image3_1.JPG",
  "i18n": {
   "ko": {
    "name": "엔트라호텔",
    "desc": "",
    "address": "서울특별시 강남구 도산대로 508 (청담동)"
   }
  }
 },
 {
  "section": "stay",
  "name_ko": "엘스테이(Gangnam AN guesthouse)",
  "district": "서초구",
  "category": "게스트하우스",
  "lat": 37.5048705253,
  "lng": 127.0220687977,
  "phone": "",
  "thumb": "http://tong.visitkorea.or.kr/cms/resource/32/2568832_image3_1.jpg",
  "i18n": {
   "ko": {
    "name": "엘스테이(Gangnam AN guesthouse)",
    "desc": "",
    "address": "서울특별시 서초구 사평대로53길 8-3"
   }
  }
 },
 {
  "section": "stay",
  "name_ko": "엘하우스",
  "district": "용산구",
  "category": "게스트하우스",
  "lat": 37.55201407,
  "lng": 126.9675085447,
  "phone": "",
  "thumb": "",
  "i18n": {
   "ko": {
    "name": "엘하우스",
    "desc": "",
    "address": "서울특별시 용산구 청파로85가길 19-4 (서계동)"
   }
  }
 },
 {
  "section": "stay",
  "name_ko": "연당",
  "district": "종로구",
  "category": "한옥스테이",
  "lat": 37.5826025329,
  "lng": 126.9870725624,
  "phone": "",
  "thumb": "",
  "i18n": {
   "ko": {
    "name": "연당",
    "desc": "",
    "address": "서울특별시 종로구 계동6길 3"
   }
  }
 },
 {
  "section": "stay",
  "name_ko": "영빈호텔",
  "district": "중구",
  "category": "게스트하우스",
  "lat": 37.5657908919,
  "lng": 127.0034215492,
  "phone": "",
  "thumb": "",
  "i18n": {
   "ko": {
    "name": "영빈호텔",
    "desc": "",
    "address": "서울특별시 중구 퇴계로56길 18"
   }
  }
 },
 {
  "section": "stay",
  "name_ko": "예린당 바이 버틀러리",
  "district": "종로구",
  "category": "한옥스테이",
  "lat": 37.5782832921,
  "lng": 126.9704353125,
  "phone": "",
  "thumb": "http://tong.visitkorea.or.kr/cms/resource/14/2940714_image3_1.jpg",
  "i18n": {
   "ko": {
    "name": "예린당 바이 버틀러리",
    "desc": "",
    "address": "서울특별시 종로구 자하문로5가길 17-8"
   }
  }
 },
 {
  "section": "stay",
  "name_ko": "예맥당 한옥스테이",
  "district": "은평구",
  "category": "한옥스테이",
  "lat": 37.6407671266,
  "lng": 126.9388947509,
  "phone": "",
  "thumb": "",
  "i18n": {
   "ko": {
    "name": "예맥당 한옥스테이",
    "desc": "",
    "address": "서울특별시 은평구 연서로50길 11 (진관동)"
   }
  }
 },
 {
  "section": "stay",
  "name_ko": "예포게스트하우스",
  "district": "서대문구",
  "category": "게스트하우스",
  "lat": 37.5675336308,
  "lng": 126.9196096946,
  "phone": "",
  "thumb": "",
  "i18n": {
   "ko": {
    "name": "예포게스트하우스",
    "desc": "",
    "address": "서울특별시 서대문구 성산로7안길 8"
   }
  }
 },
 {
  "section": "stay",
  "name_ko": "예하도예 게스트하우스(YEHADOYE guesthouse)",
  "district": "종로구",
  "category": "게스트하우스",
  "lat": 37.5744062273,
  "lng": 126.9850701994,
  "phone": "",
  "thumb": "http://tong.visitkorea.or.kr/cms/resource/88/2576188_image2_1.jpg",
  "i18n": {
   "ko": {
    "name": "예하도예 게스트하우스(YEHADOYE guesthouse)",
    "desc": "",
    "address": "서울특별시 종로구 인사동12길 10"
   }
  }
 },
 {
  "section": "stay",
  "name_ko": "오늘스테이",
  "district": "영등포구",
  "category": "펜션",
  "lat": 37.4998275134,
  "lng": 126.9142454258,
  "phone": "",
  "thumb": "",
  "i18n": {
   "ko": {
    "name": "오늘스테이",
    "desc": "",
    "address": "서울특별시 영등포구 신풍로 72-5 (신길동)"
   }
  }
 },
 {
  "section": "stay",
  "name_ko": "오라카이 대학로 호텔",
  "district": "종로구",
  "category": "관광호텔",
  "lat": 37.5756229977,
  "lng": 126.9987328086,
  "phone": "",
  "thumb": "",
  "i18n": {
   "ko": {
    "name": "오라카이 대학로 호텔",
    "desc": "",
    "address": "서울특별시 종로구 율곡로 180 (원남동)"
   }
  }
 },
 {
  "section": "stay",
  "name_ko": "오라카이 인사동 스위츠",
  "district": "종로구",
  "category": "서비스드레지던스",
  "lat": 37.5730564254,
  "lng": 126.9873589182,
  "phone": "",
  "thumb": "",
  "i18n": {
   "ko": {
    "name": "오라카이 인사동 스위츠",
    "desc": "",
    "address": "서울특별시 종로구 인사동4길 18 (낙원동)"
   }
  }
 },
 {
  "section": "stay",
  "name_ko": "오라카이 청계산 호텔",
  "district": "서초구",
  "category": "관광호텔",
  "lat": 37.4491275806,
  "lng": 127.0546396319,
  "phone": "",
  "thumb": "",
  "i18n": {
   "ko": {
    "name": "오라카이 청계산 호텔",
    "desc": "",
    "address": "서울특별시 서초구 청계산로9길 1-7 (신원동)"
   }
  }
 },
 {
  "section": "stay",
  "name_ko": "오롯이, 한옥",
  "district": "종로구",
  "category": "한옥스테이",
  "lat": 37.5800052708,
  "lng": 126.9680049295,
  "phone": "",
  "thumb": "",
  "i18n": {
   "ko": {
    "name": "오롯이, 한옥",
    "desc": "",
    "address": "서울특별시 종로구 필운대로5가길 13-4 (누하동)"
   }
  }
 },
 {
  "section": "stay",
  "name_ko": "오리엔스호텔&레지던스",
  "district": "중구",
  "category": "관광호텔",
  "lat": 37.5601413273,
  "lng": 126.9911422728,
  "phone": "",
  "thumb": "http://tong.visitkorea.or.kr/cms/resource/47/3079547_image3_1.jpg",
  "i18n": {
   "ko": {
    "name": "오리엔스호텔&레지던스",
    "desc": "",
    "address": "서울특별시 중구 삼일대로2길 50 (예장동)"
   }
  }
 },
 {
  "section": "stay",
  "name_ko": "오리지날 백패커스",
  "district": "종로구",
  "category": "게스트하우스",
  "lat": 37.5724874994,
  "lng": 127.0125455275,
  "phone": "",
  "thumb": "",
  "i18n": {
   "ko": {
    "name": "오리지날 백패커스",
    "desc": "",
    "address": "서울특별시 종로구 종로 313-3 (창신동)"
   }
  }
 },
 {
  "section": "stay",
  "name_ko": "오월호텔",
  "district": "강남구",
  "category": "관광호텔",
  "lat": 37.5006324696,
  "lng": 127.0410782986,
  "phone": "",
  "thumb": "http://tong.visitkorea.or.kr/cms/resource/25/3080825_image3_1.JPG",
  "i18n": {
   "ko": {
    "name": "오월호텔",
    "desc": "",
    "address": "서울특별시 강남구 언주로85길 27 (역삼동)"
   }
  }
 },
 {
  "section": "stay",
  "name_ko": "오케이 게스트하우스",
  "district": "동작구",
  "category": "게스트하우스",
  "lat": 37.5115569487,
  "lng": 126.9278105264,
  "phone": "",
  "thumb": "",
  "i18n": {
   "ko": {
    "name": "오케이 게스트하우스",
    "desc": "",
    "address": "서울특별시 동작구 알마타길 21-18"
   }
  }
 },
 {
  "section": "stay",
  "name_ko": "오크우드 프리미어 코엑스 센터",
  "district": "강남구",
  "category": "관광호텔",
  "lat": 37.511034348,
  "lng": 127.0582208886,
  "phone": "",
  "thumb": "http://tong.visitkorea.or.kr/cms/resource/46/3572546_image3_1.jpg",
  "i18n": {
   "ko": {
    "name": "오크우드 프리미어 코엑스 센터",
    "desc": "",
    "address": "서울특별시 강남구 테헤란로87길 46 (삼성동)"
   }
  }
 },
 {
  "section": "stay",
  "name_ko": "오클라우드호텔",
  "district": "서초구",
  "category": "관광호텔",
  "lat": 37.5030929836,
  "lng": 127.0237186979,
  "phone": "",
  "thumb": "http://tong.visitkorea.or.kr/cms/resource/24/2813624_image2_1.jpg",
  "i18n": {
   "ko": {
    "name": "오클라우드호텔",
    "desc": "",
    "address": "서울특별시 서초구 사평대로58길 12 오클라우드 호텔"
   }
  }
 },
 {
  "section": "stay",
  "name_ko": "온스테이",
  "district": "성북구",
  "category": "게스트하우스",
  "lat": 37.5853414853,
  "lng": 127.0083205481,
  "phone": "",
  "thumb": "",
  "i18n": {
   "ko": {
    "name": "온스테이",
    "desc": "",
    "address": "서울특별시 성북구 삼선교로8길 43-12 (삼선동1가)"
   }
  }
 },
 {
  "section": "stay",
  "name_ko": "온유헌 바이 버틀러리",
  "district": "종로구",
  "category": "한옥스테이",
  "lat": 37.581610989,
  "lng": 126.9874892192,
  "phone": "",
  "thumb": "http://tong.visitkorea.or.kr/cms/resource/58/3078458_image3_1.jpg",
  "i18n": {
   "ko": {
    "name": "온유헌 바이 버틀러리",
    "desc": "",
    "address": "서울특별시 종로구 계동길 92-19 (계동)"
   }
  }
 },
 {
  "section": "stay",
  "name_ko": "와이즈하우스",
  "district": "마포구",
  "category": "게스트하우스",
  "lat": 37.5606011548,
  "lng": 126.9225040709,
  "phone": "",
  "thumb": "",
  "i18n": {
   "ko": {
    "name": "와이즈하우스",
    "desc": "",
    "address": "서울특별시 마포구 월드컵북로6길 89-9"
   }
  }
 },
 {
  "section": "stay",
  "name_ko": "와하녹",
  "district": "종로구",
  "category": "한옥스테이",
  "lat": 37.5817723039,
  "lng": 126.9999075272,
  "phone": "",
  "thumb": "",
  "i18n": {
   "ko": {
    "name": "와하녹",
    "desc": "",
    "address": "서울특별시 종로구 창경궁로26길 38-13 (명륜4가)"
   }
  }
 },
 {
  "section": "stay",
  "name_ko": "웨스턴 코업호텔앤레지던스",
  "district": "중구",
  "category": "모텔",
  "lat": 37.566501918,
  "lng": 127.0033298707,
  "phone": "",
  "thumb": "http://tong.visitkorea.or.kr/cms/resource/24/3084624_image3_1.JPG",
  "i18n": {
   "ko": {
    "name": "웨스턴 코업호텔앤레지던스",
    "desc": "",
    "address": "서울특별시 중구 을지로 228 (을지로5가)"
   }
  }
 },
 {
  "section": "stay",
  "name_ko": "웰컴미스테익스",
  "district": "종로구",
  "category": "한옥스테이",
  "lat": 37.591776039,
  "lng": 126.9632439189,
  "phone": "",
  "thumb": "",
  "i18n": {
   "ko": {
    "name": "웰컴미스테익스",
    "desc": "",
    "address": "서울특별시 종로구 창의문로7길 27 (부암동)"
   }
  }
 },
 {
  "section": "stay",
  "name_ko": "위고인호스텔",
  "district": "서대문구",
  "category": "관광호텔",
  "lat": 37.5569158138,
  "lng": 126.9415885468,
  "phone": "",
  "thumb": "http://tong.visitkorea.or.kr/cms/resource/29/2817129_image3_1.png",
  "i18n": {
   "ko": {
    "name": "위고인호스텔",
    "desc": "",
    "address": "서울특별시 서대문구 신촌로 141 (대현동)"
   }
  }
 },
 {
  "section": "stay",
  "name_ko": "유준당 바이 버틀러리",
  "district": "종로구",
  "category": "한옥스테이",
  "lat": 37.5821109276,
  "lng": 126.9873142207,
  "phone": "",
  "thumb": "http://tong.visitkorea.or.kr/cms/resource/56/3070756_image3_1.jpg",
  "i18n": {
   "ko": {
    "name": "유준당 바이 버틀러리",
    "desc": "",
    "address": "서울특별시 종로구 계동4길 10-4 (계동)"
   }
  }
 },
 {
  "section": "stay",
  "name_ko": "응정헌",
  "district": "은평구",
  "category": "한옥스테이",
  "lat": 37.6402977508,
  "lng": 126.9396863588,
  "phone": "",
  "thumb": "http://tong.visitkorea.or.kr/cms/resource/35/2917535_image3_1.jpg",
  "i18n": {
   "ko": {
    "name": "응정헌",
    "desc": "",
    "address": "서울특별시 은평구 연서로50길 19"
   }
  }
 },
 {
  "section": "stay",
  "name_ko": "이브(이브게스트하우스)",
  "district": "중구",
  "category": "게스트하우스",
  "lat": 37.558544212,
  "lng": 126.9867593834,
  "phone": "",
  "thumb": "http://tong.visitkorea.or.kr/cms/resource/39/2573239_image3_1.jpg",
  "i18n": {
   "ko": {
    "name": "이브(이브게스트하우스)",
    "desc": "",
    "address": "서울특별시 중구 퇴계로20길 41-14"
   }
  }
 },
 {
  "section": "stay",
  "name_ko": "이비스 스타일 앰배서더 서울 강남",
  "district": "강남구",
  "category": "관광호텔",
  "lat": 37.505154455,
  "lng": 127.0571044899,
  "phone": "",
  "thumb": "",
  "i18n": {
   "ko": {
    "name": "이비스 스타일 앰배서더 서울 강남",
    "desc": "",
    "address": "서울특별시 강남구 삼성로 431"
   }
  }
 },
 {
  "section": "stay",
  "name_ko": "이비스 스타일 앰배서더 서울 용산",
  "district": "용산구",
  "category": "관광호텔",
  "lat": 37.5320052033,
  "lng": 126.9630345182,
  "phone": "",
  "thumb": "",
  "i18n": {
   "ko": {
    "name": "이비스 스타일 앰배서더 서울 용산",
    "desc": "",
    "address": "서울특별시 용산구 청파로20길 95 (한강로3가)"
   }
  }
 },
 {
  "section": "stay",
  "name_ko": "이사벨관광호텔",
  "district": "금천구",
  "category": "모텔",
  "lat": 37.4717554753,
  "lng": 126.8975255154,
  "phone": "",
  "thumb": "http://tong.visitkorea.or.kr/cms/resource/37/3084037_image3_1.jpg",
  "i18n": {
   "ko": {
    "name": "이사벨관광호텔",
    "desc": "",
    "address": "서울특별시 금천구 가산로 50 (독산동)"
   }
  }
 },
 {
  "section": "stay",
  "name_ko": "이화한옥",
  "district": "종로구",
  "category": "관광호텔",
  "lat": 37.5816467367,
  "lng": 126.9674549333,
  "phone": "",
  "thumb": "",
  "i18n": {
   "ko": {
    "name": "이화한옥",
    "desc": "",
    "address": "서울특별시 종로구 필운대로 26-25"
   }
  }
 },
 {
  "section": "stay",
  "name_ko": "인 게스트하우스",
  "district": "마포구",
  "category": "게스트하우스",
  "lat": 37.5608619529,
  "lng": 126.9066971708,
  "phone": "",
  "thumb": "",
  "i18n": {
   "ko": {
    "name": "인 게스트하우스",
    "desc": "",
    "address": "서울특별시 마포구 성미산로1길 68"
   }
  }
 },
 {
  "section": "stay",
  "name_ko": "일독일박",
  "district": "종로구",
  "category": "한옥스테이",
  "lat": 37.578538784,
  "lng": 126.9685688087,
  "phone": "",
  "thumb": "http://tong.visitkorea.or.kr/cms/resource/43/2707643_image3_1.jpg",
  "i18n": {
   "ko": {
    "name": "일독일박",
    "desc": "",
    "address": "서울특별시 종로구 필운대로3길 11-1"
   }
  }
 },
 {
  "section": "stay",
  "name_ko": "임피리얼 팰리스 부티크 호텔",
  "district": "용산구",
  "category": "관광호텔",
  "lat": 37.5354165502,
  "lng": 126.998245103,
  "phone": "",
  "thumb": "http://tong.visitkorea.or.kr/cms/resource/74/3592274_image3_1.jpg",
  "i18n": {
   "ko": {
    "name": "임피리얼 팰리스 부티크 호텔",
    "desc": "",
    "address": "서울특별시 용산구 이태원로 221 임피리얼 팰리스  부티크 호텔"
   }
  }
 },
 {
  "section": "stay",
  "name_ko": "자자백팩커스",
  "district": "중구",
  "category": "게스트하우스",
  "lat": 37.5616049239,
  "lng": 126.9843234077,
  "phone": "",
  "thumb": "",
  "i18n": {
   "ko": {
    "name": "자자백팩커스",
    "desc": "",
    "address": "서울특별시 중구 퇴계로20길 35"
   }
  }
 },
 {
  "section": "stay",
  "name_ko": "자하79",
  "district": "종로구",
  "category": "게스트하우스",
  "lat": 37.5832354866,
  "lng": 126.9700407638,
  "phone": "",
  "thumb": "",
  "i18n": {
   "ko": {
    "name": "자하79",
    "desc": "",
    "address": "서울특별시 종로구 자하문로 79 (신교동)"
   }
  }
 },
 {
  "section": "stay",
  "name_ko": "잠실 상주호텔",
  "district": "송파구",
  "category": "모텔",
  "lat": 37.510126522,
  "lng": 127.0805716573,
  "phone": "",
  "thumb": "http://tong.visitkorea.or.kr/cms/resource/72/3555472_image3_1.jpg",
  "i18n": {
   "ko": {
    "name": "잠실 상주호텔",
    "desc": "",
    "address": "서울특별시 송파구 올림픽로8길 19 (잠실동)"
   }
  }
 },
 {
  "section": "stay",
  "name_ko": "정스패밀리",
  "district": "용산구",
  "category": "게스트하우스",
  "lat": 37.5338797749,
  "lng": 126.9512744253,
  "phone": "",
  "thumb": "http://tong.visitkorea.or.kr/cms/resource/26/2566826_image2_1.jpg",
  "i18n": {
   "ko": {
    "name": "정스패밀리",
    "desc": "",
    "address": "서울특별시 용산구 효창원로8길 16"
   }
  }
 },
 {
  "section": "stay",
  "name_ko": "제이한옥(JAY Hanok)",
  "district": "종로구",
  "category": "한옥스테이",
  "lat": 37.582308127,
  "lng": 126.9873364358,
  "phone": "",
  "thumb": "",
  "i18n": {
   "ko": {
    "name": "제이한옥(JAY Hanok)",
    "desc": "",
    "address": "서울특별시 종로구 계동4길 9"
   }
  }
 },
 {
  "section": "stay",
  "name_ko": "종로 성혜헌",
  "district": "종로구",
  "category": "한옥스테이",
  "lat": 37.5730097477,
  "lng": 127.0173728509,
  "phone": "",
  "thumb": "",
  "i18n": {
   "ko": {
    "name": "종로 성혜헌",
    "desc": "",
    "address": "서울특별시 종로구 종로 358-7 (숭인동)"
   }
  }
 },
 {
  "section": "stay",
  "name_ko": "준하우스1",
  "district": "마포구",
  "category": "게스트하우스",
  "lat": 37.5592568765,
  "lng": 126.9230318384,
  "phone": "",
  "thumb": "",
  "i18n": {
   "ko": {
    "name": "준하우스1",
    "desc": "",
    "address": "서울특별시 마포구 동교로 211-9 (동교동)"
   }
  }
 },
 {
  "section": "stay",
  "name_ko": "준하우스2",
  "district": "마포구",
  "category": "게스트하우스",
  "lat": 37.5592568765,
  "lng": 126.9230318384,
  "phone": "",
  "thumb": "",
  "i18n": {
   "ko": {
    "name": "준하우스2",
    "desc": "",
    "address": "서울특별시 마포구 동교로 211-9 (동교동)"
   }
  }
 },
 {
  "section": "stay",
  "name_ko": "준하우스3",
  "district": "마포구",
  "category": "게스트하우스",
  "lat": 37.5600345566,
  "lng": 126.9226346304,
  "phone": "",
  "thumb": "",
  "i18n": {
   "ko": {
    "name": "준하우스3",
    "desc": "",
    "address": "서울특별시 마포구 월드컵북로6길 84 (동교동)"
   }
  }
 },
 {
  "section": "stay",
  "name_ko": "지구하임 홍대점",
  "district": "마포구",
  "category": "홈스테이",
  "lat": 37.5599318162,
  "lng": 126.9240678359,
  "phone": "",
  "thumb": "",
  "i18n": {
   "ko": {
    "name": "지구하임 홍대점",
    "desc": "",
    "address": "서울특별시 마포구 동교로 224 (동교동)"
   }
  }
 },
 {
  "section": "stay",
  "name_ko": "지유",
  "district": "종로구",
  "category": "게스트하우스",
  "lat": 37.5737346471,
  "lng": 127.0164673572,
  "phone": "",
  "thumb": "http://tong.visitkorea.or.kr/cms/resource/48/2568048_image3_1.jpg",
  "i18n": {
   "ko": {
    "name": "지유",
    "desc": "",
    "address": "서울특별시 종로구 종로 347"
   }
  }
 },
 {
  "section": "stay",
  "name_ko": "진스테이",
  "district": "양천구",
  "category": "게스트하우스",
  "lat": 37.5461464719,
  "lng": 126.8773169314,
  "phone": "",
  "thumb": "",
  "i18n": {
   "ko": {
    "name": "진스테이",
    "desc": "",
    "address": "서울특별시 양천구 목동중앙북로22길 3-14 (목동)"
   }
  }
 },
 {
  "section": "stay",
  "name_ko": "청량안채",
  "district": "동대문구",
  "category": "한옥스테이",
  "lat": 37.5749489699,
  "lng": 127.0484255222,
  "phone": "",
  "thumb": "",
  "i18n": {
   "ko": {
    "name": "청량안채",
    "desc": "",
    "address": "서울특별시 동대문구 서울시립대로4길 27-27 (전농동)"
   }
  }
 },
 {
  "section": "stay",
  "name_ko": "청택고택",
  "district": "성북구",
  "category": "한옥스테이",
  "lat": 37.5918797453,
  "lng": 127.0156280298,
  "phone": "",
  "thumb": "",
  "i18n": {
   "ko": {
    "name": "청택고택",
    "desc": "",
    "address": "서울특별시 성북구 동소문로18길 12-6 (동소문동5가)"
   }
  }
 },
 {
  "section": "stay",
  "name_ko": "청향재",
  "district": "은평구",
  "category": "한옥스테이",
  "lat": 37.6417059294,
  "lng": 126.9401973839,
  "phone": "",
  "thumb": "http://tong.visitkorea.or.kr/cms/resource/95/2678995_image3_1.jpg",
  "i18n": {
   "ko": {
    "name": "청향재",
    "desc": "",
    "address": "서울특별시 은평구 진관길 18"
   }
  }
 },
 {
  "section": "stay",
  "name_ko": "코지스테이(Kozy Stay)",
  "district": "중구",
  "category": "게스트하우스",
  "lat": 37.5679270495,
  "lng": 127.0198505471,
  "phone": "",
  "thumb": "",
  "i18n": {
   "ko": {
    "name": "코지스테이(Kozy Stay)",
    "desc": "",
    "address": "서울특별시 중구 퇴계로87길 49-24 (황학동)"
   }
  }
 },
 {
  "section": "stay",
  "name_ko": "콘래드 서울",
  "district": "영등포구",
  "category": "관광호텔",
  "lat": 37.5258580443,
  "lng": 126.9266241202,
  "phone": "",
  "thumb": "http://tong.visitkorea.or.kr/cms/resource/23/3550123_image3_1.jpeg",
  "i18n": {
   "ko": {
    "name": "콘래드 서울",
    "desc": "",
    "address": "서울특별시 영등포구 국제금융로 10 (여의도동)"
   }
  }
 },
 {
  "section": "stay",
  "name_ko": "쿤하우스",
  "district": "용산구",
  "category": "게스트하우스",
  "lat": 37.5528890963,
  "lng": 126.9746328707,
  "phone": "",
  "thumb": "",
  "i18n": {
   "ko": {
    "name": "쿤하우스",
    "desc": "",
    "address": "서울특별시 용산구 후암로 91-20 (동자동)"
   }
  }
 },
 {
  "section": "stay",
  "name_ko": "퀸하우스",
  "district": "마포구",
  "category": "게스트하우스",
  "lat": 37.5558905261,
  "lng": 126.9188489813,
  "phone": "",
  "thumb": "",
  "i18n": {
   "ko": {
    "name": "퀸하우스",
    "desc": "",
    "address": "서울특별시 마포구 동교로 153-5 (서교동)"
   }
  }
 },
 {
  "section": "stay",
  "name_ko": "큐브 게스트하우스",
  "district": "용산구",
  "category": "게스트하우스",
  "lat": 37.5357636211,
  "lng": 126.9920595457,
  "phone": "",
  "thumb": "http://tong.visitkorea.or.kr/cms/resource/55/2571555_image3_1.jpg",
  "i18n": {
   "ko": {
    "name": "큐브 게스트하우스",
    "desc": "",
    "address": "서울특별시 용산구 이태원로23길 28-4"
   }
  }
 },
 {
  "section": "stay",
  "name_ko": "토요코인호텔 강남",
  "district": "서초구",
  "category": "관광호텔",
  "lat": 37.4919277261,
  "lng": 127.0299906645,
  "phone": "",
  "thumb": "http://tong.visitkorea.or.kr/cms/resource/54/3084354_image3_1.JPG",
  "i18n": {
   "ko": {
    "name": "토요코인호텔 강남",
    "desc": "",
    "address": "서울특별시 서초구 강남대로 323 (서초동)"
   }
  }
 },
 {
  "section": "stay",
  "name_ko": "톰지호텔",
  "district": "송파구",
  "category": "모텔",
  "lat": 37.5156291839,
  "lng": 127.1095883055,
  "phone": "",
  "thumb": "http://tong.visitkorea.or.kr/cms/resource/10/3091210_image3_1.JPG",
  "i18n": {
   "ko": {
    "name": "톰지호텔",
    "desc": "",
    "address": "서울특별시 송파구 오금로11길 21-12 (방이동)"
   }
  }
 },
 {
  "section": "stay",
  "name_ko": "트레블로지 동대문 호텔",
  "district": "중구",
  "category": "관광호텔",
  "lat": 37.5664824504,
  "lng": 127.0019077784,
  "phone": "",
  "thumb": "http://tong.visitkorea.or.kr/cms/resource/59/2725259_image3_1.jpg",
  "i18n": {
   "ko": {
    "name": "트레블로지 동대문 호텔",
    "desc": "",
    "address": "서울특별시 중구 동호로 359"
   }
  }
 },
 {
  "section": "stay",
  "name_ko": "트리아 관광호텔",
  "district": "강남구",
  "category": "관광호텔",
  "lat": 37.5029266183,
  "lng": 127.0394283837,
  "phone": "",
  "thumb": "http://tong.visitkorea.or.kr/cms/resource/91/1358991_image3_1.jpg",
  "i18n": {
   "ko": {
    "name": "트리아 관광호텔",
    "desc": "",
    "address": "서울특별시 강남구 테헤란로33길 16"
   }
  }
 },
 {
  "section": "stay",
  "name_ko": "티롤관광호텔",
  "district": "서초구",
  "category": "관광호텔",
  "lat": 37.515160907,
  "lng": 127.0170467416,
  "phone": "",
  "thumb": "http://tong.visitkorea.or.kr/cms/resource/44/2574344_image2_1.jpg",
  "i18n": {
   "ko": {
    "name": "티롤관광호텔",
    "desc": "",
    "address": "서울특별시 서초구 나루터로 64"
   }
  }
 },
 {
  "section": "stay",
  "name_ko": "페어몬트 앰배서더 서울(Fairmont Ambassador Seoul)",
  "district": "영등포구",
  "category": "관광호텔",
  "lat": 37.5259691729,
  "lng": 126.92832674,
  "phone": "",
  "thumb": "http://tong.visitkorea.or.kr/cms/resource/98/2721798_image2_1.jpg",
  "i18n": {
   "ko": {
    "name": "페어몬트 앰배서더 서울(Fairmont Ambassador Seoul)",
    "desc": "",
    "address": "서울특별시 영등포구 여의대로 108"
   }
  }
 },
 {
  "section": "stay",
  "name_ko": "포포인츠 바이 쉐라톤 서울 강남",
  "district": "강남구",
  "category": "관광호텔",
  "lat": 37.5203577318,
  "lng": 127.0285344377,
  "phone": "",
  "thumb": "",
  "i18n": {
   "ko": {
    "name": "포포인츠 바이 쉐라톤 서울 강남",
    "desc": "",
    "address": "서울특별시 강남구 도산대로 203 (신사동)"
   }
  }
 },
 {
  "section": "stay",
  "name_ko": "포포인츠 바이 쉐라톤 조선 서울 명동",
  "district": "중구",
  "category": "관광호텔",
  "lat": 37.5656295479,
  "lng": 126.9894367169,
  "phone": "",
  "thumb": "http://tong.visitkorea.or.kr/cms/resource/03/2819003_image3_1.jpg",
  "i18n": {
   "ko": {
    "name": "포포인츠 바이 쉐라톤 조선 서울 명동",
    "desc": "",
    "address": "서울특별시 중구 삼일대로10길 36 (저동2가)"
   }
  }
 },
 {
  "section": "stay",
  "name_ko": "플랜에이호스텔",
  "district": "중구",
  "category": "게스트하우스",
  "lat": 37.5668964075,
  "lng": 127.0083571794,
  "phone": "",
  "thumb": "",
  "i18n": {
   "ko": {
    "name": "플랜에이호스텔",
    "desc": "",
    "address": "서울특별시 중구 청구로 138"
   }
  }
 },
 {
  "section": "stay",
  "name_ko": "하우스 오브 로터스",
  "district": "성동구",
  "category": "게스트하우스",
  "lat": 37.5635027428,
  "lng": 127.0298192093,
  "phone": "",
  "thumb": "",
  "i18n": {
   "ko": {
    "name": "하우스 오브 로터스",
    "desc": "",
    "address": "서울특별시 성동구 무학봉15길 27-15 (하왕십리동)"
   }
  }
 },
 {
  "section": "stay",
  "name_ko": "하우스 오브 카멜리아",
  "district": "광진구",
  "category": "게스트하우스",
  "lat": 37.5544659713,
  "lng": 127.0891140651,
  "phone": "",
  "thumb": "",
  "i18n": {
   "ko": {
    "name": "하우스 오브 카멜리아",
    "desc": "",
    "address": "서울특별시 광진구 용마산로2길 8-12 (중곡동)"
   }
  }
 },
 {
  "section": "stay",
  "name_ko": "하은재",
  "district": "종로구",
  "category": "한옥스테이",
  "lat": 37.5819384379,
  "lng": 126.9712823538,
  "phone": "",
  "thumb": "http://tong.visitkorea.or.kr/cms/resource/68/3070268_image3_1.jpg",
  "i18n": {
   "ko": {
    "name": "하은재",
    "desc": "",
    "address": "서울특별시 종로구 자하문로 68-10"
   }
  }
 },
 {
  "section": "stay",
  "name_ko": "하이서울유스호스텔",
  "district": "영등포구",
  "category": "유스호스텔",
  "lat": 37.5253021252,
  "lng": 126.9026707626,
  "phone": "",
  "thumb": "http://tong.visitkorea.or.kr/cms/resource/17/3562617_image3_1.jpg",
  "i18n": {
   "ko": {
    "name": "하이서울유스호스텔",
    "desc": "",
    "address": "서울특별시 영등포구 영신로 200 (영등포동7가)"
   }
  }
 },
 {
  "section": "stay",
  "name_ko": "한미장",
  "district": "강북구",
  "category": "한옥스테이",
  "lat": 37.6712203738,
  "lng": 127.007590395,
  "phone": "",
  "thumb": "",
  "i18n": {
   "ko": {
    "name": "한미장",
    "desc": "",
    "address": "서울특별시 강북구 삼양로181길 168"
   }
  }
 },
 {
  "section": "stay",
  "name_ko": "한스하우스(Hans house)",
  "district": "종로구",
  "category": "게스트하우스",
  "lat": 37.5774778296,
  "lng": 126.9704270026,
  "phone": "",
  "thumb": "http://tong.visitkorea.or.kr/cms/resource/23/2571123_image3_1.jpg",
  "i18n": {
   "ko": {
    "name": "한스하우스(Hans house)",
    "desc": "",
    "address": "서울특별시 종로구 자하문로1다길 20"
   }
  }
 },
 {
  "section": "stay",
  "name_ko": "한옥 201(Hanok 201)",
  "district": "종로구",
  "category": "한옥스테이",
  "lat": 37.5805582961,
  "lng": 126.9854144381,
  "phone": "",
  "thumb": "",
  "i18n": {
   "ko": {
    "name": "한옥 201(Hanok 201)",
    "desc": "",
    "address": "서울특별시 종로구 북촌로 40-3"
   }
  }
 },
 {
  "section": "stay",
  "name_ko": "한옥 게스트하우스 동촌재",
  "district": "종로구",
  "category": "한옥스테이",
  "lat": 37.5801108465,
  "lng": 126.9698547581,
  "phone": "",
  "thumb": "",
  "i18n": {
   "ko": {
    "name": "한옥 게스트하우스 동촌재",
    "desc": "",
    "address": "서울특별시 종로구 자하문로11길 21-10"
   }
  }
 },
 {
  "section": "stay",
  "name_ko": "한옥 게스트하우스 동촌재",
  "district": "종로구",
  "category": "한옥스테이",
  "lat": 37.5801108465,
  "lng": 126.9698547581,
  "phone": "",
  "thumb": "http://tong.visitkorea.or.kr/cms/resource/96/2705896_image3_1.jpg",
  "i18n": {
   "ko": {
    "name": "한옥 게스트하우스 동촌재",
    "desc": "",
    "address": "서울특별시 종로구 자하문로11길 21-10"
   }
  }
 },
 {
  "section": "stay",
  "name_ko": "한옥 포지티브스",
  "district": "은평구",
  "category": "한옥스테이",
  "lat": 37.6416781412,
  "lng": 126.9394141224,
  "phone": "",
  "thumb": "",
  "i18n": {
   "ko": {
    "name": "한옥 포지티브스",
    "desc": "",
    "address": "서울특별시 은평구 연서로50길 7-16 (진관동)"
   }
  }
 },
 {
  "section": "stay",
  "name_ko": "한옥에세이 서촌",
  "district": "종로구",
  "category": "한옥스테이",
  "lat": 37.5786693216,
  "lng": 126.9683965985,
  "phone": "",
  "thumb": "http://tong.visitkorea.or.kr/cms/resource/85/3070285_image3_1.jpg",
  "i18n": {
   "ko": {
    "name": "한옥에세이 서촌",
    "desc": "",
    "address": "서울특별시 종로구 필운대로3길 12 (누하동)"
   }
  }
 },
 {
  "section": "stay",
  "name_ko": "향운",
  "district": "종로구",
  "category": "한옥스테이",
  "lat": 37.5830274626,
  "lng": 126.9859254324,
  "phone": "",
  "thumb": "",
  "i18n": {
   "ko": {
    "name": "향운",
    "desc": "",
    "address": "서울특별시 종로구 북촌로12길 35-3"
   }
  }
 },
 {
  "section": "stay",
  "name_ko": "헤이마 게스트하우스",
  "district": "마포구",
  "category": "게스트하우스",
  "lat": 37.5553074035,
  "lng": 126.9268482681,
  "phone": "",
  "thumb": "",
  "i18n": {
   "ko": {
    "name": "헤이마 게스트하우스",
    "desc": "",
    "address": "서울특별시 마포구 와우산로29마길 15-7"
   }
  }
 },
 {
  "section": "stay",
  "name_ko": "호스텔 하루",
  "district": "종로구",
  "category": "게스트하우스",
  "lat": 37.5690401708,
  "lng": 126.9843398624,
  "phone": "",
  "thumb": "",
  "i18n": {
   "ko": {
    "name": "호스텔 하루",
    "desc": "",
    "address": "서울특별시 종로구 청계천로 61"
   }
  }
 },
 {
  "section": "stay",
  "name_ko": "호텔 글램",
  "district": "동대문구",
  "category": "모텔",
  "lat": 37.5891502144,
  "lng": 127.0549384141,
  "phone": "",
  "thumb": "",
  "i18n": {
   "ko": {
    "name": "호텔 글램",
    "desc": "",
    "address": "서울특별시 동대문구 이문로 14 (휘경동)"
   }
  }
 },
 {
  "section": "stay",
  "name_ko": "호텔 더 디자이너스 동대문",
  "district": "중구",
  "category": "관광호텔",
  "lat": 37.5636661788,
  "lng": 127.0056769592,
  "phone": "",
  "thumb": "http://tong.visitkorea.or.kr/cms/resource/30/3084630_image3_1.JPG",
  "i18n": {
   "ko": {
    "name": "호텔 더 디자이너스 동대문",
    "desc": "",
    "address": "서울특별시 중구 퇴계로 306 (쌍림동)"
   }
  }
 },
 {
  "section": "stay",
  "name_ko": "호텔 더 디자이너스 청량리(Hotel the designers)",
  "district": "동대문구",
  "category": "관광호텔",
  "lat": 37.5817676085,
  "lng": 127.0476559538,
  "phone": "",
  "thumb": "http://tong.visitkorea.or.kr/cms/resource/58/2591958_image3_1.jpg",
  "i18n": {
   "ko": {
    "name": "호텔 더 디자이너스 청량리(Hotel the designers)",
    "desc": "",
    "address": "서울특별시 동대문구 왕산로 226"
   }
  }
 },
 {
  "section": "stay",
  "name_ko": "호텔 마누",
  "district": "중구",
  "category": "관광호텔",
  "lat": 37.5571913788,
  "lng": 126.9748882818,
  "phone": "",
  "thumb": "http://tong.visitkorea.or.kr/cms/resource/47/3592047_image3_1.jpg",
  "i18n": {
   "ko": {
    "name": "호텔 마누",
    "desc": "",
    "address": "서울특별시 중구 퇴계로 19"
   }
  }
 },
 {
  "section": "stay",
  "name_ko": "호텔 베이204(Hotel Bay204)",
  "district": "도봉구",
  "category": "모텔",
  "lat": 37.6678519715,
  "lng": 127.0436705321,
  "phone": "",
  "thumb": "http://tong.visitkorea.or.kr/cms/resource/78/3555678_image3_1.jpg",
  "i18n": {
   "ko": {
    "name": "호텔 베이204(Hotel Bay204)",
    "desc": "",
    "address": "서울특별시 도봉구 도봉로 710 (방학동)"
   }
  }
 },
 {
  "section": "stay",
  "name_ko": "호텔 카푸치노",
  "district": "강남구",
  "category": "관광호텔",
  "lat": 37.5069537864,
  "lng": 127.0315123236,
  "phone": "",
  "thumb": "http://tong.visitkorea.or.kr/cms/resource/83/2602783_image3_1.jpeg",
  "i18n": {
   "ko": {
    "name": "호텔 카푸치노",
    "desc": "",
    "address": "서울특별시 강남구 봉은사로 155 (논현동)"
   }
  }
 },
 {
  "section": "stay",
  "name_ko": "호텔 페이토 삼성",
  "district": "강남구",
  "category": "관광호텔",
  "lat": 37.5085040952,
  "lng": 127.0587320249,
  "phone": "",
  "thumb": "http://tong.visitkorea.or.kr/cms/resource/06/3080806_image3_1.JPG",
  "i18n": {
   "ko": {
    "name": "호텔 페이토 삼성",
    "desc": "",
    "address": "서울특별시 강남구 테헤란로87길 9 (삼성동)"
   }
  }
 },
 {
  "section": "stay",
  "name_ko": "호텔디아티스트",
  "district": "강남구",
  "category": "모텔",
  "lat": 37.5024544344,
  "lng": 127.038497926,
  "phone": "",
  "thumb": "http://tong.visitkorea.or.kr/cms/resource/10/3080810_image3_1.JPG",
  "i18n": {
   "ko": {
    "name": "호텔디아티스트",
    "desc": "",
    "address": "서울특별시 강남구 테헤란로29길 11 (역삼동)"
   }
  }
 },
 {
  "section": "stay",
  "name_ko": "호텔디아티스트 연신내점",
  "district": "은평구",
  "category": "관광호텔",
  "lat": 37.6225494527,
  "lng": 126.9194498193,
  "phone": "",
  "thumb": "http://tong.visitkorea.or.kr/cms/resource/02/3084602_image3_1.JPG",
  "i18n": {
   "ko": {
    "name": "호텔디아티스트 연신내점",
    "desc": "",
    "address": "서울특별시 은평구 통일로 891 (갈현동)"
   }
  }
 },
 {
  "section": "stay",
  "name_ko": "호텔로프트",
  "district": "영등포구",
  "category": "관광호텔",
  "lat": 37.5347009629,
  "lng": 126.8987486333,
  "phone": "",
  "thumb": "http://tong.visitkorea.or.kr/cms/resource/86/3084586_image3_1.JPG",
  "i18n": {
   "ko": {
    "name": "호텔로프트",
    "desc": "",
    "address": "서울특별시 영등포구 선유동2로 72 (당산동5가)"
   }
  }
 },
 {
  "section": "stay",
  "name_ko": "호텔리베라 청담",
  "district": "강남구",
  "category": "관광호텔",
  "lat": 37.523918893,
  "lng": 127.0543430983,
  "phone": "",
  "thumb": "http://tong.visitkorea.or.kr/cms/resource/75/3567475_image3_1.jpg",
  "i18n": {
   "ko": {
    "name": "호텔리베라 청담",
    "desc": "",
    "address": "서울특별시 강남구 영동대로 737"
   }
  }
 },
 {
  "section": "stay",
  "name_ko": "호텔소설",
  "district": "서초구",
  "category": "관광호텔",
  "lat": 37.4864308513,
  "lng": 127.0137950723,
  "phone": "",
  "thumb": "http://tong.visitkorea.or.kr/cms/resource/65/3084365_image3_1.jpg",
  "i18n": {
   "ko": {
    "name": "호텔소설",
    "desc": "",
    "address": "서울특별시 서초구 반포대로14길 53 (서초동)"
   }
  }
 },
 {
  "section": "stay",
  "name_ko": "호텔스타프리미어 역삼",
  "district": "강남구",
  "category": "관광호텔",
  "lat": 37.5027599872,
  "lng": 127.040347749,
  "phone": "",
  "thumb": "http://tong.visitkorea.or.kr/cms/resource/16/3080816_image3_1.JPG",
  "i18n": {
   "ko": {
    "name": "호텔스타프리미어 역삼",
    "desc": "",
    "address": "서울특별시 강남구 테헤란로33길 6-11 (역삼동)"
   }
  }
 },
 {
  "section": "stay",
  "name_ko": "호텔아르누보서초",
  "district": "서초구",
  "category": "관광호텔",
  "lat": 37.4962215019,
  "lng": 127.0204969632,
  "phone": "",
  "thumb": "http://tong.visitkorea.or.kr/cms/resource/51/3084351_image3_1.JPG",
  "i18n": {
   "ko": {
    "name": "호텔아르누보서초",
    "desc": "",
    "address": "서울특별시 서초구 서초대로 357 (서초동)"
   }
  }
 },
 {
  "section": "stay",
  "name_ko": "호텔인나인 강남 (hotel in 9)",
  "district": "강남구",
  "category": "관광호텔",
  "lat": 37.5156310692,
  "lng": 127.0600539244,
  "phone": "",
  "thumb": "",
  "i18n": {
   "ko": {
    "name": "호텔인나인 강남 (hotel in 9)",
    "desc": "",
    "address": "서울특별시 강남구 영동대로 618 (삼성동)"
   }
  }
 },
 {
  "section": "stay",
  "name_ko": "호텔큐비(호텔QB)",
  "district": "종로구",
  "category": "관광호텔",
  "lat": 37.5719181369,
  "lng": 127.0134287966,
  "phone": "",
  "thumb": "http://tong.visitkorea.or.kr/cms/resource/54/2634454_image3_1.jpg",
  "i18n": {
   "ko": {
    "name": "호텔큐비(호텔QB)",
    "desc": "",
    "address": "서울특별시 종로구 종로 322-10 (창신동)"
   }
  }
 },
 {
  "section": "stay",
  "name_ko": "호텔포코 성수",
  "district": "성동구",
  "category": "관광호텔",
  "lat": 37.5435000009,
  "lng": 127.0570589625,
  "phone": "",
  "thumb": "http://tong.visitkorea.or.kr/cms/resource/34/3555534_image3_1.jpg",
  "i18n": {
   "ko": {
    "name": "호텔포코 성수",
    "desc": "",
    "address": "서울특별시 성동구 성수이로 96 (성수동2가)"
   }
  }
 },
 {
  "section": "stay",
  "name_ko": "홀리데이 인 익스프레스 서울 홍대",
  "district": "마포구",
  "category": "관광호텔",
  "lat": 37.557798775,
  "lng": 126.9265121176,
  "phone": "",
  "thumb": "http://tong.visitkorea.or.kr/cms/resource/29/3562729_image3_1.jpg",
  "i18n": {
   "ko": {
    "name": "홀리데이 인 익스프레스 서울 홍대",
    "desc": "",
    "address": "서울특별시 마포구 양화로 188 (동교동)"
   }
  }
 },
 {
  "section": "stay",
  "name_ko": "홍대스타일 게스트하우스",
  "district": "마포구",
  "category": "게스트하우스",
  "lat": 37.5575487011,
  "lng": 126.9207848692,
  "phone": "",
  "thumb": "",
  "i18n": {
   "ko": {
    "name": "홍대스타일 게스트하우스",
    "desc": "",
    "address": "서울특별시 마포구 월드컵북로4길 23-3"
   }
  }
 },
 {
  "section": "stay",
  "name_ko": "홍스테이신당",
  "district": "중구",
  "category": "게스트하우스",
  "lat": 37.567304935,
  "lng": 127.0218448276,
  "phone": "",
  "thumb": "",
  "i18n": {
   "ko": {
    "name": "홍스테이신당",
    "desc": "",
    "address": "서울특별시 중구 난계로13길 33 (황학동)"
   }
  }
 },
 {
  "section": "stay",
  "name_ko": "화이트테일",
  "district": "마포구",
  "category": "게스트하우스",
  "lat": 37.564950655,
  "lng": 126.9227983656,
  "phone": "",
  "thumb": "",
  "i18n": {
   "ko": {
    "name": "화이트테일",
    "desc": "",
    "address": "서울특별시 마포구 동교로38안길 8-1"
   }
  }
 },
 {
  "section": "stay",
  "name_ko": "회랑정",
  "district": "강서구",
  "category": "게스트하우스",
  "lat": 37.5550895591,
  "lng": 126.8595266354,
  "phone": "",
  "thumb": "",
  "i18n": {
   "ko": {
    "name": "회랑정",
    "desc": "",
    "address": "서울특별시 강서구 공항대로53나길 6-9"
   }
  }
 },
 {
  "section": "stay",
  "name_ko": "효자스테이",
  "district": "종로구",
  "category": "한옥스테이",
  "lat": 37.5787999537,
  "lng": 126.9734877974,
  "phone": "",
  "thumb": "",
  "i18n": {
   "ko": {
    "name": "효자스테이",
    "desc": "",
    "address": "서울특별시 종로구 효자로7길 7-5"
   }
  }
 },
 {
  "section": "stay",
  "name_ko": "힐제이",
  "district": "종로구",
  "category": "게스트하우스",
  "lat": 37.5783867504,
  "lng": 127.0090234588,
  "phone": "",
  "thumb": "",
  "i18n": {
   "ko": {
    "name": "힐제이",
    "desc": "",
    "address": "서울특별시 종로구 창신길 159-1 (창신동, 동문아트빌라)"
   }
  }
 },
 {
  "section": "stay",
  "name_ko": "힐튼 가든 인 서울 강남",
  "district": "서초구",
  "category": "관광호텔",
  "lat": 37.4859840219,
  "lng": 127.0327822456,
  "phone": "",
  "thumb": "",
  "i18n": {
   "ko": {
    "name": "힐튼 가든 인 서울 강남",
    "desc": "",
    "address": "서울특별시 서초구 강남대로 253 (서초동)"
   }
  }
 },
 {
  "section": "stay",
  "name_ko": "힐하우스 호텔",
  "district": "중구",
  "category": "관광호텔",
  "lat": 37.556891541,
  "lng": 126.981987643,
  "phone": "",
  "thumb": "http://tong.visitkorea.or.kr/cms/resource/84/3010284_image3_1.jpg",
  "i18n": {
   "ko": {
    "name": "힐하우스 호텔",
    "desc": "",
    "address": "서울특별시 중구 소공로3길 42 언덕의집"
   }
  }
 },
 {
  "section": "stay",
  "name_ko": "1012 하우스 남산",
  "district": "중구",
  "category": "게스트하우스",
  "lat": 37.5604272406,
  "lng": 126.9819569902,
  "phone": "",
  "thumb": "",
  "i18n": {
   "ko": {
    "name": "1012 하우스 남산",
    "desc": "",
    "address": "서울특별시 중구 소공로6가길 22"
   }
  }
 },
 {
  "section": "stay",
  "name_ko": "24게스트하우스(서울 잠실점) (24게스트하우스 잠실점)",
  "district": "송파구",
  "category": "게스트하우스",
  "lat": 37.5033830197,
  "lng": 127.0894099336,
  "phone": "",
  "thumb": "",
  "i18n": {
   "ko": {
    "name": "24게스트하우스(서울 잠실점) (24게스트하우스 잠실점)",
    "desc": "",
    "address": "서울특별시 송파구 백제고분로22길 5"
   }
  }
 },
 {
  "section": "stay",
  "name_ko": "2U호스텔",
  "district": "중구",
  "category": "게스트하우스",
  "lat": 37.5686904607,
  "lng": 126.9981997204,
  "phone": "",
  "thumb": "",
  "i18n": {
   "ko": {
    "name": "2U호스텔",
    "desc": "",
    "address": "서울특별시 중구 청계천로 184"
   }
  }
 },
 {
  "section": "stay",
  "name_ko": "96번지 트래블러스 롯지",
  "district": "중구",
  "category": "게스트하우스",
  "lat": 37.5675963138,
  "lng": 127.0076655554,
  "phone": "",
  "thumb": "",
  "i18n": {
   "ko": {
    "name": "96번지 트래블러스 롯지",
    "desc": "",
    "address": "서울특별시 중구 퇴계로 343-1"
   }
  }
 },
 {
  "section": "stay",
  "name_ko": "AT 30",
  "district": "마포구",
  "category": "게스트하우스",
  "lat": 37.5589208267,
  "lng": 126.9242872892,
  "phone": "",
  "thumb": "",
  "i18n": {
   "ko": {
    "name": "AT 30",
    "desc": "",
    "address": "서울특별시 마포구 양화로19길 22-13"
   }
  }
 },
 {
  "section": "stay",
  "name_ko": "B my guesthouse",
  "district": "중구",
  "category": "게스트하우스",
  "lat": 37.561254919,
  "lng": 126.9817875377,
  "phone": "",
  "thumb": "",
  "i18n": {
   "ko": {
    "name": "B my guesthouse",
    "desc": "",
    "address": "서울특별시 중구 소공로6가길 2"
   }
  }
 },
 {
  "section": "stay",
  "name_ko": "CS AVENUE호텔",
  "district": "은평구",
  "category": "관광호텔",
  "lat": 37.5991441464,
  "lng": 126.936446154,
  "phone": "",
  "thumb": "http://tong.visitkorea.or.kr/cms/resource/95/3555595_image3_1.jpg",
  "i18n": {
   "ko": {
    "name": "CS AVENUE호텔",
    "desc": "",
    "address": "서울특별시 은평구 통일로 585-1 (응암동)"
   }
  }
 },
 {
  "section": "stay",
  "name_ko": "Cozy Lodge",
  "district": "관악구",
  "category": "게스트하우스",
  "lat": 37.489801568,
  "lng": 126.9515978613,
  "phone": "",
  "thumb": "http://tong.visitkorea.or.kr/cms/resource/23/2573023_image3_1.jpeg",
  "i18n": {
   "ko": {
    "name": "Cozy Lodge",
    "desc": "",
    "address": "서울특별시 관악구 성현로 80"
   }
  }
 },
 {
  "section": "stay",
  "name_ko": "Goldlady's House",
  "district": "송파구",
  "category": "게스트하우스",
  "lat": 37.5133567215,
  "lng": 127.0816103603,
  "phone": "",
  "thumb": "",
  "i18n": {
   "ko": {
    "name": "Goldlady's House",
    "desc": "",
    "address": "서울특별시 송파구 올림픽로 99"
   }
  }
 },
 {
  "section": "stay",
  "name_ko": "Jeong's family(정스패밀리)",
  "district": "용산구",
  "category": "게스트하우스",
  "lat": 37.5335103739,
  "lng": 126.9512744357,
  "phone": "",
  "thumb": "",
  "i18n": {
   "ko": {
    "name": "Jeong's family(정스패밀리)",
    "desc": "",
    "address": "서울특별시 용산구 효창원로8길 16"
   }
  }
 },
 {
  "section": "stay",
  "name_ko": "K-그랜드 호스텔 강남 1(K-GRAND HOSTEL GANGNAM1)",
  "district": "강남구",
  "category": "게스트하우스",
  "lat": 37.5055705015,
  "lng": 127.0252740414,
  "phone": "",
  "thumb": "",
  "i18n": {
   "ko": {
    "name": "K-그랜드 호스텔 강남 1(K-GRAND HOSTEL GANGNAM1)",
    "desc": "",
    "address": "서울특별시 강남구 강남대로112길 11"
   }
  }
 },
 {
  "section": "stay",
  "name_ko": "Stay Vibe",
  "district": "종로구",
  "category": "게스트하우스",
  "lat": 37.6052328134,
  "lng": 126.9635768407,
  "phone": "",
  "thumb": "",
  "i18n": {
   "ko": {
    "name": "Stay Vibe",
    "desc": "",
    "address": "서울특별시 종로구 평창1길 7-4 (평창동)"
   }
  }
 },
 {
  "section": "stay",
  "name_ko": "Sweet Dream House",
  "district": "강서구",
  "category": "홈스테이",
  "lat": 37.5575578443,
  "lng": 126.8105893624,
  "phone": "",
  "thumb": "",
  "i18n": {
   "ko": {
    "name": "Sweet Dream House",
    "desc": "",
    "address": "서울특별시 강서구 남부순환로9길 13-9 (공항동, 하우스 공감)"
   }
  }
 },
 {
  "section": "stay",
  "name_ko": "Sweet Home Seoul",
  "district": "영등포구",
  "category": "게스트하우스",
  "lat": 37.5296488819,
  "lng": 126.9049204352,
  "phone": "",
  "thumb": "",
  "i18n": {
   "ko": {
    "name": "Sweet Home Seoul",
    "desc": "",
    "address": "서울특별시 영등포구 영중로 145"
   }
  }
 },
 {
  "section": "stay",
  "name_ko": "Tina`s Homestay",
  "district": "송파구",
  "category": "게스트하우스",
  "lat": 37.5059050538,
  "lng": 127.0952287768,
  "phone": "",
  "thumb": "http://tong.visitkorea.or.kr/cms/resource/52/2575952_image3_1.jpg",
  "i18n": {
   "ko": {
    "name": "Tina`s Homestay",
    "desc": "",
    "address": "서울특별시 송파구 삼학사로19길 17"
   }
  }
 },
 {
  "section": "stay",
  "name_ko": "USB하우스",
  "district": "중구",
  "category": "게스트하우스",
  "lat": 37.5606526013,
  "lng": 127.0035189077,
  "phone": "",
  "thumb": "",
  "i18n": {
   "ko": {
    "name": "USB하우스",
    "desc": "",
    "address": "서울특별시 중구 동호로 290-9"
   }
  }
 },
 {
  "section": "stay",
  "name_ko": "Y's house",
  "district": "마포구",
  "category": "게스트하우스",
  "lat": 37.5606011548,
  "lng": 126.9225040709,
  "phone": "",
  "thumb": "",
  "i18n": {
   "ko": {
    "name": "Y's house",
    "desc": "",
    "address": "서울특별시 마포구 월드컵북로6길 89-9"
   }
  }
 },
 {
  "section": "stay",
  "name_ko": "brother house(artist house)",
  "district": "마포구",
  "category": "게스트하우스",
  "lat": 37.5614150131,
  "lng": 126.9260787223,
  "phone": "",
  "thumb": "",
  "i18n": {
   "ko": {
    "name": "brother house(artist house)",
    "desc": "",
    "address": "서울특별시 마포구 연희로1길 55-6"
   }
  }
 },
 {
  "section": "stay",
  "name_ko": "casa cielo",
  "district": "용산구",
  "category": "게스트하우스",
  "lat": 37.5484006303,
  "lng": 126.9691196115,
  "phone": "",
  "thumb": "",
  "i18n": {
   "ko": {
    "name": "casa cielo",
    "desc": "",
    "address": "서울특별시 용산구 청파로63길 18"
   }
  }
 },
 {
  "section": "stay",
  "name_ko": "peace in bnb",
  "district": "서대문구",
  "category": "홈스테이",
  "lat": 37.5600846554,
  "lng": 126.9284785409,
  "phone": "",
  "thumb": "",
  "i18n": {
   "ko": {
    "name": "peace in bnb",
    "desc": "",
    "address": "서울특별시 서대문구 신촌로1길 57 (창천동)"
   }
  }
 }
]