[
 {
  "section": "food",
  "name_ko": "갈비스토리",
  "district": "군산시",
  "category": "고기·구이",
  "lat": 35.9679251522,
  "lng": 126.698206251,
  "phone": "",
  "thumb": "https://t1.daumcdn.net/local/kakaomapPhoto/review/0f90f3df6ae973b4dfd3ca3ee43c60f5cf106f4e?original",
  "i18n": {
   "ko": {
    "name": "갈비스토리",
    "desc": "",
    "address": "전북특별자치도 군산시 하나운1길 15"
   }
  },
  "rating": 1.7,
  "rcount": 19
 },
 {
  "section": "food",
  "name_ko": "갑기회관 본점",
  "district": "전주시",
  "category": "해산물·회",
  "lat": 35.8525897317,
  "lng": 127.1043118952,
  "phone": "",
  "thumb": "http://tong.visitkorea.or.kr/cms/resource/83/2877583_image3_1.jpg",
  "i18n": {
   "ko": {
    "name": "갑기회관 본점",
    "desc": "",
    "address": "전북특별자치도 전주시 덕진구 상리로 50"
   }
  }
 },
 {
  "section": "food",
  "name_ko": "강나루횟집",
  "district": "임실군",
  "category": "해산물·회",
  "lat": 35.598074293,
  "lng": 127.109037534,
  "phone": "",
  "thumb": "http://tong.visitkorea.or.kr/cms/resource/07/2837907_image3_1.jpg",
  "i18n": {
   "ko": {
    "name": "강나루횟집",
    "desc": "",
    "address": "전북특별자치도 임실군 종운로 802-5 강나루횟집"
   }
  },
  "rating": 3.8,
  "rcount": 19
 },
 {
  "section": "food",
  "name_ko": "강천골식당",
  "district": "순창군",
  "category": "한식·백반",
  "lat": 35.4085950781,
  "lng": 127.068820968,
  "phone": "",
  "thumb": "https://t1.daumcdn.net/local/kakaomapPhoto/review/05a4ef0a49b3f083afe73b7f5257110db431e1a5?original",
  "i18n": {
   "ko": {
    "name": "강천골식당",
    "desc": "",
    "address": "전북특별자치도 순창군 팔덕면 강천산길 85"
   }
  },
  "rating": 3.2,
  "rcount": 13
 },
 {
  "section": "food",
  "name_ko": "개암곰탕",
  "district": "부안군",
  "category": "면·국물",
  "lat": 35.6482666424,
  "lng": 126.6696197718,
  "phone": "",
  "thumb": "http://tong.visitkorea.or.kr/cms/resource/11/2840111_image3_1.jpg",
  "i18n": {
   "ko": {
    "name": "개암곰탕",
    "desc": "",
    "address": "전북특별자치도 부안군 상서면 부안로 1567"
   }
  },
  "rating": 4.9,
  "rcount": 15
 },
 {
  "section": "food",
  "name_ko": "거북선숯불풍천장어",
  "district": "고창군",
  "category": "해산물·회",
  "lat": 35.4329676956,
  "lng": 126.4336878622,
  "phone": "",
  "thumb": "http://tong.visitkorea.or.kr/cms/resource/00/2783600_image3_1.jpg",
  "i18n": {
   "ko": {
    "name": "거북선숯불풍천장어",
    "desc": "",
    "address": "전북특별자치도 고창군 상하면 고리포길 199"
   }
  },
  "rating": 3.7,
  "rcount": 26
 },
 {
  "section": "food",
  "name_ko": "계곡가든꽃게장",
  "district": "군산시",
  "category": "해산물·회",
  "lat": 35.9831246695,
  "lng": 126.7713770921,
  "phone": "",
  "thumb": "http://tong.visitkorea.or.kr/cms/resource/70/3591470_image3_1.jpg",
  "i18n": {
   "ko": {
    "name": "계곡가든꽃게장",
    "desc": "",
    "address": "전북특별자치도 군산시 개정면 금강로 470"
   }
  },
  "rating": 2.9,
  "rcount": 105
 },
 {
  "section": "food",
  "name_ko": "고궁 전주본점",
  "district": "전주시",
  "category": "한식·백반",
  "lat": 35.8500847231,
  "lng": 127.1194217262,
  "phone": "",
  "thumb": "http://tong.visitkorea.or.kr/cms/resource/63/1023863_image3_1.jpg",
  "i18n": {
   "ko": {
    "name": "고궁 전주본점",
    "desc": "",
    "address": "전북특별자치도 전주시 덕진구 송천중앙로 33"
   }
  },
  "rating": 3.4,
  "rcount": 178
 },
 {
  "section": "food",
  "name_ko": "고귀",
  "district": "전주시",
  "category": "한식·백반",
  "lat": 35.8543814424,
  "lng": 127.1186050197,
  "phone": "",
  "thumb": "https://t1.daumcdn.net/local/kakaomapPhoto/review/ecc5ed561895dc460803a0ef62883bdd40343b44?original",
  "i18n": {
   "ko": {
    "name": "고귀",
    "desc": "",
    "address": "전북특별자치도 전주시 덕진구 송천로 1"
   }
  },
  "rating": 3.5,
  "rcount": 11
 },
 {
  "section": "food",
  "name_ko": "고창부안축협한우명품관참예우",
  "district": "고창군",
  "category": "고기·구이",
  "lat": 35.4365605902,
  "lng": 126.6969449176,
  "phone": "",
  "thumb": "http://tong.visitkorea.or.kr/cms/resource/83/2870383_image3_1.jpg",
  "i18n": {
   "ko": {
    "name": "고창부안축협한우명품관참예우",
    "desc": "",
    "address": "전북특별자치도 고창군 성산1길 13 고창부안축협한우명품관"
   }
  }
 },
 {
  "section": "food",
  "name_ko": "고창심원풍천장어",
  "district": "전주시",
  "category": "해산물·회",
  "lat": 35.8144248291,
  "lng": 127.1157840934,
  "phone": "",
  "thumb": "https://t1.daumcdn.net/local/kakaomapPhoto/review/2a2f2875ab2e98311330111e405a3197e0259e83?original",
  "i18n": {
   "ko": {
    "name": "고창심원풍천장어",
    "desc": "",
    "address": "전북특별자치도 전주시 완산구 신촌2길 26"
   }
  },
  "rating": 3.8,
  "rcount": 9
 },
 {
  "section": "food",
  "name_ko": "곰소 아리랑 식당",
  "district": "부안군",
  "category": "한식·백반",
  "lat": 35.5871392253,
  "lng": 126.608476768,
  "phone": "",
  "thumb": "http://tong.visitkorea.or.kr/cms/resource/40/2870340_image3_1.jpg",
  "i18n": {
   "ko": {
    "name": "곰소 아리랑 식당",
    "desc": "",
    "address": "전북특별자치도 부안군 곰소항길 77-1 제일식당"
   }
  },
  "rating": 3.1,
  "rcount": 23
 },
 {
  "section": "food",
  "name_ko": "곰소궁횟집삼대젓갈",
  "district": "부안군",
  "category": "해산물·회",
  "lat": 35.5874085754,
  "lng": 126.6046965416,
  "phone": "",
  "thumb": "http://tong.visitkorea.or.kr/cms/resource/16/2796816_image2_1.jpg",
  "i18n": {
   "ko": {
    "name": "곰소궁횟집삼대젓갈",
    "desc": "",
    "address": "전북특별자치도 부안군 진서면 곰소항길 25"
   }
  },
  "rating": 3.3,
  "rcount": 33
 },
 {
  "section": "food",
  "name_ko": "공감선유",
  "district": "군산시",
  "category": "카페·베이커리",
  "lat": 35.9085762963,
  "lng": 126.6939220548,
  "phone": "",
  "thumb": "http://tong.visitkorea.or.kr/cms/resource/29/2781529_image2_1.jpg",
  "i18n": {
   "ko": {
    "name": "공감선유",
    "desc": "",
    "address": "전북특별자치도 군산시 옥구읍 수왕새터길 53"
   }
  },
  "rating": 4.6,
  "rcount": 77
 },
 {
  "section": "food",
  "name_ko": "구 전망좋은집",
  "district": "부안군",
  "category": "한식·백반",
  "lat": 35.6007439447,
  "lng": 126.4855262701,
  "phone": "",
  "thumb": "http://tong.visitkorea.or.kr/cms/resource/27/2867027_image3_1.jpg",
  "i18n": {
   "ko": {
    "name": "구 전망좋은집",
    "desc": "",
    "address": "전북특별자치도 부안군 변산로 3207-1 상록태양캐슬"
   }
  },
  "rating": 3.9,
  "rcount": 42
 },
 {
  "section": "food",
  "name_ko": "국제반점",
  "district": "군산시",
  "category": "중식",
  "lat": 35.9881563934,
  "lng": 126.7109101469,
  "phone": "",
  "thumb": "http://tong.visitkorea.or.kr/cms/resource/46/2877146_image3_1.jpg",
  "i18n": {
   "ko": {
    "name": "국제반점",
    "desc": "",
    "address": "전북특별자치도 군산시 구영6길 100 (영화동)"
   }
  },
  "rating": 3.4,
  "rcount": 172
 },
 {
  "section": "food",
  "name_ko": "군산복집",
  "district": "군산시",
  "category": "한식·백반",
  "lat": 35.9847039735,
  "lng": 126.7088159789,
  "phone": "",
  "thumb": "https://t1.kakaocdn.net/mystore/9BF6D059C7374CEBA3C97627D1E35031",
  "i18n": {
   "ko": {
    "name": "군산복집",
    "desc": "",
    "address": "전북특별자치도 군산시 구영7길 15"
   }
  },
  "rating": 4.2,
  "rcount": 31
 },
 {
  "section": "food",
  "name_ko": "군산중동호떡",
  "district": "군산시",
  "category": "한식·백반",
  "lat": 35.9825183452,
  "lng": 126.7224398172,
  "phone": "",
  "thumb": "http://tong.visitkorea.or.kr/cms/resource/71/3040571_image3_1.jpg",
  "i18n": {
   "ko": {
    "name": "군산중동호떡",
    "desc": "",
    "address": "전북특별자치도 군산시 서래로 52"
   }
  },
  "rating": 3.0,
  "rcount": 116
 },
 {
  "section": "food",
  "name_ko": "군산활어회센타",
  "district": "군산시",
  "category": "한식·백반",
  "lat": 35.9700473392,
  "lng": 126.7102995587,
  "phone": "",
  "thumb": "http://tong.visitkorea.or.kr/cms/resource/20/2923820_image3_1.jpg",
  "i18n": {
   "ko": {
    "name": "군산활어회센타",
    "desc": "",
    "address": "전북특별자치도 군산시 문화로 41"
   }
  },
  "rating": 3.5,
  "rcount": 2
 },
 {
  "section": "food",
  "name_ko": "굴딴지",
  "district": "익산시",
  "category": "한식·백반",
  "lat": 35.9273759846,
  "lng": 126.962617017,
  "phone": "",
  "thumb": "https://t1.daumcdn.net/local/kakaomapPhoto/review/e07dcc949c680c0b9f94d3ab62a57a697e860e0b?original",
  "i18n": {
   "ko": {
    "name": "굴딴지",
    "desc": "",
    "address": "전북특별자치도 익산시 평동로 764"
   }
  },
  "rating": 4.5,
  "rcount": 11
 },
 {
  "section": "food",
  "name_ko": "궁전꽃게장",
  "district": "군산시",
  "category": "해산물·회",
  "lat": 35.9766387714,
  "lng": 126.7405966792,
  "phone": "",
  "thumb": "https://t1.daumcdn.net/localfiy/EF20ED455961409F866E5DC0D9FD65CE",
  "i18n": {
   "ko": {
    "name": "궁전꽃게장",
    "desc": "",
    "address": "전북특별자치도 군산시 궁포1로 24-5"
   }
  },
  "rating": 4.3,
  "rcount": 18
 },
 {
  "section": "food",
  "name_ko": "그랑깨",
  "district": "남원시",
  "category": "양식·세계요리",
  "lat": 35.4058812737,
  "lng": 127.3782381036,
  "phone": "",
  "thumb": "https://t1.daumcdn.net/local/kakaomapPhoto/review/8993a25cf3875994bf23776f61582347b551aa03?original",
  "i18n": {
   "ko": {
    "name": "그랑깨",
    "desc": "",
    "address": "전북특별자치도 남원시 광한서로 52 (금동)"
   }
  },
  "rating": 4.4,
  "rcount": 112
 },
 {
  "section": "food",
  "name_ko": "그림그림케이크",
  "district": "전주시",
  "category": "카페·베이커리",
  "lat": 35.8634081489,
  "lng": 127.1160744533,
  "phone": "",
  "thumb": "https://t1.kakaocdn.net/fiy_reboot/place/839369BABB2A46E78D0E2B340E59D836",
  "i18n": {
   "ko": {
    "name": "그림그림케이크",
    "desc": "",
    "address": "전북특별자치도 전주시 덕진구 용소로 72"
   }
  },
  "rating": 5.0,
  "rcount": 1
 },
 {
  "section": "food",
  "name_ko": "금강식당",
  "district": "무주군",
  "category": "한식·백반",
  "lat": 36.0076124471,
  "lng": 127.6621748152,
  "phone": "",
  "thumb": "https://t1.daumcdn.net/local/kakaomapPhoto/review/48dcfaa8dfb25e072eaa5570b893edf082c49afb?original",
  "i18n": {
   "ko": {
    "name": "금강식당",
    "desc": "",
    "address": "전북특별자치도 무주군 무주읍 단천로 102"
   }
  },
  "rating": 3.0,
  "rcount": 37
 },
 {
  "section": "food",
  "name_ko": "금강참붕어",
  "district": "진안군",
  "category": "한식·백반",
  "lat": 35.8621062626,
  "lng": 127.4764007728,
  "phone": "",
  "thumb": "http://tong.visitkorea.or.kr/cms/resource/76/2844076_image3_1.jpg",
  "i18n": {
   "ko": {
    "name": "금강참붕어",
    "desc": "",
    "address": "전북특별자치도 진안군 상전면 금지1길 18-20"
   }
  }
 },
 {
  "section": "food",
  "name_ko": "금단양만",
  "district": "고창군",
  "category": "한식·백반",
  "lat": 35.5365912789,
  "lng": 126.554252315,
  "phone": "",
  "thumb": "https://t1.daumcdn.net/local/kakaomapPhoto/review/49b00de67911da16282b342f63897ae2d8800249?original",
  "i18n": {
   "ko": {
    "name": "금단양만",
    "desc": "",
    "address": "전북특별자치도 고창군 심원면 검당길 51-10"
   }
  },
  "rating": 3.3,
  "rcount": 91
 },
 {
  "section": "food",
  "name_ko": "금암피순대",
  "district": "전주시",
  "category": "한식·백반",
  "lat": 35.8384057298,
  "lng": 127.1328486143,
  "phone": "",
  "thumb": "http://tong.visitkorea.or.kr/cms/resource/88/2870988_image3_1.jpg",
  "i18n": {
   "ko": {
    "name": "금암피순대",
    "desc": "",
    "address": "전북특별자치도 전주시 덕진구 기린대로 400-61"
   }
  },
  "rating": 4.1,
  "rcount": 201
 },
 {
  "section": "food",
  "name_ko": "기양초",
  "district": "완주군",
  "category": "한식·백반",
  "lat": 35.9043695861,
  "lng": 127.2431426185,
  "phone": "",
  "thumb": "http://tong.visitkorea.or.kr/cms/resource/79/2796179_image3_1.jpg",
  "i18n": {
   "ko": {
    "name": "기양초",
    "desc": "",
    "address": "전북특별자치도 완주군 소양면 송광수만로 508"
   }
  },
  "rating": 2.2,
  "rcount": 26
 },
 {
  "section": "food",
  "name_ko": "기차길옆오막살이",
  "district": "전주시",
  "category": "한식·백반",
  "lat": 35.8287936729,
  "lng": 127.1753811914,
  "phone": "",
  "thumb": "https://t1.daumcdn.net/localfiy/740BA2AC71F74637AFECA0F979BA559F",
  "i18n": {
   "ko": {
    "name": "기차길옆오막살이",
    "desc": "",
    "address": "전북특별자치도 전주시 덕진구 인교9길 71 (우아동1가)"
   }
  },
  "rating": 4.4,
  "rcount": 104
 },
 {
  "section": "food",
  "name_ko": "길뜨락",
  "district": "고창군",
  "category": "한식·백반",
  "lat": 35.4313948933,
  "lng": 126.7197263567,
  "phone": "",
  "thumb": "https://t1.kakaocdn.net/mystore/3503459487164627B39D4F2FE4395C7D",
  "i18n": {
   "ko": {
    "name": "길뜨락",
    "desc": "",
    "address": "전북특별자치도 고창군 상원사길 1-6 길뜨락"
   }
  },
  "rating": 4.0,
  "rcount": 28
 },
 {
  "section": "food",
  "name_ko": "김인경원조바지락죽",
  "district": "부안군",
  "category": "한식·백반",
  "lat": 35.6916377143,
  "lng": 126.5647807961,
  "phone": "",
  "thumb": "https://t1.daumcdn.net/local/kakaomapPhoto/review/8d89f81ce8855424a4725aa4788fef9de83e293f?original",
  "i18n": {
   "ko": {
    "name": "김인경원조바지락죽",
    "desc": "",
    "address": "전북특별자치도 부안군 변산면 묵정길 18"
   }
  },
  "rating": 3.6,
  "rcount": 64
 },
 {
  "section": "food",
  "name_ko": "김정선 베이커리카페",
  "district": "김제시",
  "category": "카페·베이커리",
  "lat": 35.7340882988,
  "lng": 127.0451091396,
  "phone": "",
  "thumb": "http://tong.visitkorea.or.kr/cms/resource/54/2891554_image3_1.jpg",
  "i18n": {
   "ko": {
    "name": "김정선 베이커리카페",
    "desc": "",
    "address": "전북특별자치도 김제시 우림로 188-14"
   }
  },
  "rating": 3.6,
  "rcount": 28
 },
 {
  "section": "food",
  "name_ko": "김판쇠전주우족탕 본점",
  "district": "전주시",
  "category": "한식·백반",
  "lat": 35.8328091937,
  "lng": 127.1357151721,
  "phone": "",
  "thumb": "http://tong.visitkorea.or.kr/cms/resource/69/2870969_image3_1.jpg",
  "i18n": {
   "ko": {
    "name": "김판쇠전주우족탕 본점",
    "desc": "",
    "address": "전북특별자치도 전주시 덕진구 태진로 132"
   }
  },
  "rating": 4.4,
  "rcount": 79
 },
 {
  "section": "food",
  "name_ko": "까치정",
  "district": "남원시",
  "category": "한식·백반",
  "lat": 35.4135139595,
  "lng": 127.3906479204,
  "phone": "",
  "thumb": "https://t1.daumcdn.net/local/kakaomapPhoto/review/54bf5dc75329968830b629ebf3f9a6912e04185e?original",
  "i18n": {
   "ko": {
    "name": "까치정",
    "desc": "",
    "address": "전북특별자치도 남원시 옥정1길 64"
   }
  },
  "rating": 4.2,
  "rcount": 11
 },
 {
  "section": "food",
  "name_ko": "깐쇼새우",
  "district": "전주시",
  "category": "중식",
  "lat": 35.8195853242,
  "lng": 127.1140896653,
  "phone": "",
  "thumb": "http://tong.visitkorea.or.kr/cms/resource/86/2898986_image3_1.jpg",
  "i18n": {
   "ko": {
    "name": "깐쇼새우",
    "desc": "",
    "address": "전북특별자치도 전주시 완산구 화산천변1길 18-1"
   }
  },
  "rating": 4.3,
  "rcount": 54
 },
 {
  "section": "food",
  "name_ko": "나래궁",
  "district": "고창군",
  "category": "중식",
  "lat": 35.4332942913,
  "lng": 126.6968033451,
  "phone": "",
  "thumb": "http://tong.visitkorea.or.kr/cms/resource/08/2904608_image3_1.jpg",
  "i18n": {
   "ko": {
    "name": "나래궁",
    "desc": "",
    "address": "전북특별자치도 고창군 동리로 41 나래궁"
   }
  },
  "rating": 3.9,
  "rcount": 63
 },
 {
  "section": "food",
  "name_ko": "남도밥상",
  "district": "군산시",
  "category": "한식·백반",
  "lat": 35.8129546841,
  "lng": 126.4138606473,
  "phone": "",
  "thumb": "http://tong.visitkorea.or.kr/cms/resource/49/2877549_image3_1.jpg",
  "i18n": {
   "ko": {
    "name": "남도밥상",
    "desc": "",
    "address": "전북특별자치도 군산시 옥도면 선유북길 79"
   }
  },
  "rating": 3.2,
  "rcount": 71
 },
 {
  "section": "food",
  "name_ko": "남원 이조갈비",
  "district": "남원시",
  "category": "고기·구이",
  "lat": 35.4048148018,
  "lng": 127.3825127533,
  "phone": "",
  "thumb": "http://tong.visitkorea.or.kr/cms/resource/73/2847873_image3_1.jpg",
  "i18n": {
   "ko": {
    "name": "남원 이조갈비",
    "desc": "",
    "address": "전북특별자치도 남원시 향단로 18 이조숯불냉면"
   }
  }
 },
 {
  "section": "food",
  "name_ko": "남원두부마을",
  "district": "남원시",
  "category": "한식·백반",
  "lat": 35.4019068973,
  "lng": 127.3882817632,
  "phone": "",
  "thumb": "https://t1.daumcdn.net/local/kakaomapPhoto/review/001fc284610a5d4307b01ddfa0f65aee5d6674cf3a56734996678f8bc513f9fa",
  "i18n": {
   "ko": {
    "name": "남원두부마을",
    "desc": "",
    "address": "전북특별자치도 남원시 양림길 28-7"
   }
  },
  "rating": 3.3,
  "rcount": 31
 },
 {
  "section": "food",
  "name_ko": "노랑토랑",
  "district": "전주시",
  "category": "중식",
  "lat": 35.7972044697,
  "lng": 127.1102405919,
  "phone": "",
  "thumb": "",
  "i18n": {
   "ko": {
    "name": "노랑토랑",
    "desc": "",
    "address": "전북특별자치도 전주시 완산구 강변로 62"
   }
  }
 },
 {
  "section": "food",
  "name_ko": "노벨반점",
  "district": "전주시",
  "category": "중식",
  "lat": 35.8134893156,
  "lng": 127.1440982642,
  "phone": "",
  "thumb": "http://tong.visitkorea.or.kr/cms/resource/09/2899009_image3_1.jpg",
  "i18n": {
   "ko": {
    "name": "노벨반점",
    "desc": "",
    "address": "전북특별자치도 전주시 완산구 풍남문2길 99 (전동3가)"
   }
  },
  "rating": 3.7,
  "rcount": 114
 },
 {
  "section": "food",
  "name_ko": "녹원전통찻집",
  "district": "정읍시",
  "category": "카페·베이커리",
  "lat": 35.5831605783,
  "lng": 126.8583240795,
  "phone": "",
  "thumb": "http://tong.visitkorea.or.kr/cms/resource/34/2916434_image3_1.jpg",
  "i18n": {
   "ko": {
    "name": "녹원전통찻집",
    "desc": "",
    "address": "전북특별자치도 정읍시 수성3로 43-3 논두렁밭두렁"
   }
  },
  "rating": 4.5,
  "rcount": 25
 },
 {
  "section": "food",
  "name_ko": "늘,파인",
  "district": "남원시",
  "category": "카페·베이커리",
  "lat": 35.4210321039,
  "lng": 127.5243498014,
  "phone": "",
  "thumb": "http://tong.visitkorea.or.kr/cms/resource/18/2899818_image3_1.jpg",
  "i18n": {
   "ko": {
    "name": "늘,파인",
    "desc": "",
    "address": "전북특별자치도 남원시 삼산길 8-17"
   }
  },
  "rating": 4.3,
  "rcount": 21
 },
 {
  "section": "food",
  "name_ko": "늘숲",
  "district": "김제시",
  "category": "카페·베이커리",
  "lat": 35.741623604,
  "lng": 127.0480392389,
  "phone": "",
  "thumb": "http://tong.visitkorea.or.kr/cms/resource/07/2847907_image3_1.jpg",
  "i18n": {
   "ko": {
    "name": "늘숲",
    "desc": "",
    "address": "전북특별자치도 김제시 청도4길 30-8"
   }
  },
  "rating": 4.7,
  "rcount": 14
 },
 {
  "section": "food",
  "name_ko": "늘푸른산장",
  "district": "완주군",
  "category": "한식·백반",
  "lat": 35.9841866352,
  "lng": 127.308195825,
  "phone": "",
  "thumb": "https://t1.daumcdn.net/local/kakaomapPhoto/review/5c1791fd025aa4765b1a3c08622bd56dc17dc866?original",
  "i18n": {
   "ko": {
    "name": "늘푸른산장",
    "desc": "",
    "address": "전북특별자치도 완주군 동상면 대아수목로 209"
   }
  },
  "rating": 5.0,
  "rcount": 7
 },
 {
  "section": "food",
  "name_ko": "다가포가든",
  "district": "익산시",
  "category": "한식·백반",
  "lat": 35.9641352294,
  "lng": 126.9363933977,
  "phone": "",
  "thumb": "http://tong.visitkorea.or.kr/cms/resource/78/2851278_image3_1.jpg",
  "i18n": {
   "ko": {
    "name": "다가포가든",
    "desc": "",
    "address": "전북특별자치도 익산시 현영길 40-28 (만석동)"
   }
  },
  "rating": 4.1,
  "rcount": 21
 },
 {
  "section": "food",
  "name_ko": "다미일식",
  "district": "익산시",
  "category": "일식",
  "lat": 35.9600227082,
  "lng": 126.9884138618,
  "phone": "",
  "thumb": "https://t1.kakaocdn.net/mystore/F66B57C16D1C4D7B8FA985AA90A76B96",
  "i18n": {
   "ko": {
    "name": "다미일식",
    "desc": "",
    "address": "전북특별자치도 익산시 무왕로23길 5"
   }
  },
  "rating": 5.0,
  "rcount": 2
 },
 {
  "section": "food",
  "name_ko": "다솜차반",
  "district": "김제시",
  "category": "한식·백반",
  "lat": 35.7899317255,
  "lng": 127.0321838399,
  "phone": "",
  "thumb": "http://tong.visitkorea.or.kr/cms/resource/13/2877413_image3_1.jpg",
  "i18n": {
   "ko": {
    "name": "다솜차반",
    "desc": "",
    "address": "전북특별자치도 김제시 대율2길 83"
   }
  },
  "rating": 3.3,
  "rcount": 43
 },
 {
  "section": "food",
  "name_ko": "다이도",
  "district": "군산시",
  "category": "일식",
  "lat": 35.9678563188,
  "lng": 126.7334947636,
  "phone": "",
  "thumb": "http://tong.visitkorea.or.kr/cms/resource/74/2904974_image3_1.jpg",
  "i18n": {
   "ko": {
    "name": "다이도",
    "desc": "",
    "address": "전북특별자치도 군산시 번영로 121"
   }
  },
  "rating": 3.9,
  "rcount": 9
 },
 {
  "section": "food",
  "name_ko": "당골 한옥카페",
  "district": "군산시",
  "category": "카페·베이커리",
  "lat": 36.0016143272,
  "lng": 126.7773094151,
  "phone": "",
  "thumb": "http://tong.visitkorea.or.kr/cms/resource/96/2783596_image3_1.jpg",
  "i18n": {
   "ko": {
    "name": "당골 한옥카페",
    "desc": "",
    "address": "전북특별자치도 군산시 성산면 오성로 134-17"
   }
  }
 },
 {
  "section": "food",
  "name_ko": "당산마루",
  "district": "부안군",
  "category": "한식·백반",
  "lat": 35.7306944226,
  "lng": 126.7312760641,
  "phone": "",
  "thumb": "https://t1.daumcdn.net/local/kakaomapPhoto/review/5e099b40b91b5a3e274b4abd20fd9cbf3ba4b8b6?original",
  "i18n": {
   "ko": {
    "name": "당산마루",
    "desc": "",
    "address": "전북특별자치도 부안군 부안읍 당산로 71"
   }
  },
  "rating": 4.0,
  "rcount": 49
 },
 {
  "section": "food",
  "name_ko": "대가 꽃게장",
  "district": "군산시",
  "category": "해산물·회",
  "lat": 35.9820220268,
  "lng": 126.7719326266,
  "phone": "",
  "thumb": "https://t1.kakaocdn.net/mystore/B94E1BB0581C465C8A353A2BE9EB3A1F",
  "i18n": {
   "ko": {
    "name": "대가 꽃게장",
    "desc": "",
    "address": "전북특별자치도 군산시 개정면 금강로 466"
   }
  },
  "rating": 4.4,
  "rcount": 23
 },
 {
  "section": "food",
  "name_ko": "대둔산골",
  "district": "완주군",
  "category": "한식·백반",
  "lat": 36.1197105182,
  "lng": 127.3335343977,
  "phone": "",
  "thumb": "https://t1.kakaocdn.net/mystore/D29E6846C2EF40578EDCD68281E50335",
  "i18n": {
   "ko": {
    "name": "대둔산골",
    "desc": "",
    "address": "전북특별자치도 완주군 운주면 대둔산로 2268"
   }
  },
  "rating": 4.7,
  "rcount": 34
 },
 {
  "section": "food",
  "name_ko": "대북경",
  "district": "군산시",
  "category": "중식",
  "lat": 35.9561433862,
  "lng": 126.7112053933,
  "phone": "",
  "thumb": "http://tong.visitkorea.or.kr/cms/resource/13/2905013_image3_1.jpg",
  "i18n": {
   "ko": {
    "name": "대북경",
    "desc": "",
    "address": "전북특별자치도 군산시 신평1길 3 대북경"
   }
  },
  "rating": 2.6,
  "rcount": 40
 },
 {
  "section": "food",
  "name_ko": "대승가든",
  "district": "완주군",
  "category": "한식·백반",
  "lat": 35.8564231162,
  "lng": 127.2919145432,
  "phone": "",
  "thumb": "http://tong.visitkorea.or.kr/cms/resource/59/2851459_image3_1.jpg",
  "i18n": {
   "ko": {
    "name": "대승가든",
    "desc": "",
    "address": "전북특별자치도 완주군 대승길 7"
   }
  },
  "rating": 4.2,
  "rcount": 22
 },
 {
  "section": "food",
  "name_ko": "대운한우암소회관",
  "district": "김제시",
  "category": "해산물·회",
  "lat": 35.7161700319,
  "lng": 126.9951723793,
  "phone": "",
  "thumb": "http://tong.visitkorea.or.kr/cms/resource/89/2847889_image3_1.jpg",
  "i18n": {
   "ko": {
    "name": "대운한우암소회관",
    "desc": "",
    "address": "전북특별자치도 김제시 모악로 7"
   }
  },
  "rating": 4.8,
  "rcount": 38
 },
 {
  "section": "food",
  "name_ko": "대율담",
  "district": "김제시",
  "category": "카페·베이커리",
  "lat": 35.791345568,
  "lng": 127.0388137687,
  "phone": "",
  "thumb": "http://tong.visitkorea.or.kr/cms/resource/51/2837151_image3_1.jpg",
  "i18n": {
   "ko": {
    "name": "대율담",
    "desc": "",
    "address": "전북특별자치도 김제시 대화1길 95"
   }
  }
 },
 {
  "section": "food",
  "name_ko": "대흥각",
  "district": "김제시",
  "category": "중식",
  "lat": 35.8037140311,
  "lng": 126.9021867291,
  "phone": "",
  "thumb": "http://tong.visitkorea.or.kr/cms/resource/45/2877445_image3_1.jpg",
  "i18n": {
   "ko": {
    "name": "대흥각",
    "desc": "",
    "address": "전북특별자치도 김제시 검산택지1길 29"
   }
  },
  "rating": 2.9,
  "rcount": 41
 },
 {
  "section": "food",
  "name_ko": "덕신산장민박식당",
  "district": "남원시",
  "category": "한식·백반",
  "lat": 35.3645363062,
  "lng": 127.5585371445,
  "phone": "",
  "thumb": "http://tong.visitkorea.or.kr/cms/resource/44/2790644_image3_1.jpg",
  "i18n": {
   "ko": {
    "name": "덕신산장민박식당",
    "desc": "",
    "address": "전북특별자치도 남원시 산내면 덕동길 67"
   }
  }
 },
 {
  "section": "food",
  "name_ko": "덕진헌",
  "district": "전주시",
  "category": "한식·백반",
  "lat": 35.850745812,
  "lng": 127.1224603274,
  "phone": "",
  "thumb": "http://tong.visitkorea.or.kr/cms/resource/35/3423235_image3_1.jpg",
  "i18n": {
   "ko": {
    "name": "덕진헌",
    "desc": "",
    "address": "전북특별자치도 전주시 덕진구 창포길 49-10 (덕진동1가)"
   }
  },
  "rating": 3.5,
  "rcount": 20
 },
 {
  "section": "food",
  "name_ko": "도란",
  "district": "군산시",
  "category": "양식·세계요리",
  "lat": 35.9868703714,
  "lng": 126.7075354816,
  "phone": "",
  "thumb": "http://tong.visitkorea.or.kr/cms/resource/33/3423333_image3_1.jpg",
  "i18n": {
   "ko": {
    "name": "도란",
    "desc": "",
    "address": "전북특별자치도 군산시 구영신창길 61 (월명동)"
   }
  }
 },
 {
  "section": "food",
  "name_ko": "돈까스클라스",
  "district": "순창군",
  "category": "양식·세계요리",
  "lat": 35.3778997131,
  "lng": 127.1365574215,
  "phone": "",
  "thumb": "http://tong.visitkorea.or.kr/cms/resource/42/2905542_image3_1.jpg",
  "i18n": {
   "ko": {
    "name": "돈까스클라스",
    "desc": "",
    "address": "전북특별자치도 순창군 금산로 8-15"
   }
  },
  "rating": 3.4,
  "rcount": 13
 },
 {
  "section": "food",
  "name_ko": "동국사다온",
  "district": "군산시",
  "category": "카페·베이커리",
  "lat": 35.9828791638,
  "lng": 126.70775501,
  "phone": "",
  "thumb": "http://tong.visitkorea.or.kr/cms/resource/38/3423338_image3_1.jpg",
  "i18n": {
   "ko": {
    "name": "동국사다온",
    "desc": "",
    "address": "전북특별자치도 군산시 동국사길 16 (금광동)"
   }
  },
  "rating": 5.0,
  "rcount": 1
 },
 {
  "section": "food",
  "name_ko": "동몽원식당",
  "district": "진안군",
  "category": "한식·백반",
  "lat": 35.8531965734,
  "lng": 127.3415296613,
  "phone": "",
  "thumb": "https://postfiles.pstatic.net/MjAyNjA2MTFfNDIg/MDAxNzgxMTY3NDIxMTA1.XCN4QR7ILofaWwnLyZDUqdpnYkRBwJfYe5vnekJOmkwg.vNSNltRRFx9Ww9WycyT7kNHHkmpMiSJzqcL5poT03RYg.JPEG/SE-14d5bfe3-e514-48e9-a339-7989bdaa12e8.jpg?type=w773",
  "i18n": {
   "ko": {
    "name": "동몽원식당",
    "desc": "",
    "address": "전북특별자치도 진안군 부귀면 운장로 54-9"
   }
  },
  "rating": 3.4,
  "rcount": 11
 },
 {
  "section": "food",
  "name_ko": "동보성",
  "district": "익산시",
  "category": "중식",
  "lat": 35.9594643123,
  "lng": 126.9810839747,
  "phone": "",
  "thumb": "https://t1.daumcdn.net/local/kakaomapPhoto/review/8ca9dfa022287a18923abc585b4ac723238ae3fd372d3c7e5fe574f8d7e48efa",
  "i18n": {
   "ko": {
    "name": "동보성",
    "desc": "",
    "address": "전북특별자치도 익산시 하나로 437 (영등동)"
   }
  },
  "rating": 3.2,
  "rcount": 21
 },
 {
  "section": "food",
  "name_ko": "동원순대집",
  "district": "전주시",
  "category": "한식·백반",
  "lat": 35.8046480232,
  "lng": 127.1076822923,
  "phone": "",
  "thumb": "http://tong.visitkorea.or.kr/cms/resource/22/2899022_image3_1.jpg",
  "i18n": {
   "ko": {
    "name": "동원순대집",
    "desc": "",
    "address": "전북특별자치도 전주시 완산구 쑥고개로 391 (효자동2가)"
   }
  },
  "rating": 3.6,
  "rcount": 116
 },
 {
  "section": "food",
  "name_ko": "두거리우신탕 본점",
  "district": "전주시",
  "category": "한식·백반",
  "lat": 35.8701214489,
  "lng": 127.1261844884,
  "phone": "",
  "thumb": "https://t1.kakaocdn.net/mystore/5DE821AA3C8543F69DBE6DD751D6DBB1",
  "i18n": {
   "ko": {
    "name": "두거리우신탕 본점",
    "desc": "",
    "address": "전북특별자치도 전주시 덕진구 동부대로 1106 (송천동2가)"
   }
  }
 },
 {
  "section": "food",
  "name_ko": "두레식당",
  "district": "남원시",
  "category": "한식·백반",
  "lat": 35.4100224346,
  "lng": 127.3760937412,
  "phone": "",
  "thumb": "http://tong.visitkorea.or.kr/cms/resource/65/2837165_image3_1.jpg",
  "i18n": {
   "ko": {
    "name": "두레식당",
    "desc": "",
    "address": "전북특별자치도 남원시 서문1길 14"
   }
  },
  "rating": 4.3,
  "rcount": 133
 },
 {
  "section": "food",
  "name_ko": "두루미밥상",
  "district": "전주시",
  "category": "한식·백반",
  "lat": 35.8680192454,
  "lng": 127.1454967123,
  "phone": "",
  "thumb": "http://tong.visitkorea.or.kr/cms/resource/31/2870931_image3_1.jpg",
  "i18n": {
   "ko": {
    "name": "두루미밥상",
    "desc": "",
    "address": "전북특별자치도 전주시 덕진구 동부대로 930 (호성동2가)"
   }
  },
  "rating": 3.2,
  "rcount": 89
 },
 {
  "section": "food",
  "name_ko": "두메골",
  "district": "군산시",
  "category": "한식·백반",
  "lat": 35.9536129552,
  "lng": 126.7015952065,
  "phone": "",
  "thumb": "https://t1.daumcdn.net/local/kakaomapPhoto/review/9e7ee3dceddf4e1c63c271692904bf03a13483fc?original",
  "i18n": {
   "ko": {
    "name": "두메골",
    "desc": "",
    "address": "전북특별자치도 군산시 백토로 284-20"
   }
  },
  "rating": 3.8,
  "rcount": 32
 },
 {
  "section": "food",
  "name_ko": "들불",
  "district": "남원시",
  "category": "한식·백반",
  "lat": 35.3901980385,
  "lng": 127.4417328993,
  "phone": "",
  "thumb": "https://t1.kakaocdn.net/mystore/011FAE4C57C64470A778817930B2A108",
  "i18n": {
   "ko": {
    "name": "들불",
    "desc": "",
    "address": "전북특별자치도 남원시 주천면 쑥고개로 840"
   }
  },
  "rating": 4.8,
  "rcount": 21
 },
 {
  "section": "food",
  "name_ko": "또또생곱창",
  "district": "군산시",
  "category": "고기·구이",
  "lat": 35.9634894891,
  "lng": 126.6947511189,
  "phone": "",
  "thumb": "http://tong.visitkorea.or.kr/cms/resource/23/2904323_image3_1.jpg",
  "i18n": {
   "ko": {
    "name": "또또생곱창",
    "desc": "",
    "address": "전북특별자치도 군산시 하나운안2길 15-4 (나운동)"
   }
  }
 },
 {
  "section": "food",
  "name_ko": "또순이네집",
  "district": "전주시",
  "category": "한식·백반",
  "lat": 35.8177887875,
  "lng": 127.1418594628,
  "phone": "",
  "thumb": "http://tong.visitkorea.or.kr/cms/resource/01/2907001_image3_1.jpg",
  "i18n": {
   "ko": {
    "name": "또순이네집",
    "desc": "",
    "address": "전북특별자치도 전주시 완산구 전주객사3길 11-8"
   }
  },
  "rating": 2.7,
  "rcount": 107
 },
 {
  "section": "food",
  "name_ko": "뚜부카페",
  "district": "익산시",
  "category": "카페·베이커리",
  "lat": 35.9980946376,
  "lng": 127.0617285428,
  "phone": "",
  "thumb": "http://tong.visitkorea.or.kr/cms/resource/76/3580876_image3_1.jpg",
  "i18n": {
   "ko": {
    "name": "뚜부카페",
    "desc": "",
    "address": "전북특별자치도 익산시 금마면 고도9길 23"
   }
  },
  "rating": 3.9,
  "rcount": 11
 },
 {
  "section": "food",
  "name_ko": "라벤하임",
  "district": "부안군",
  "category": "양식·세계요리",
  "lat": 35.6033767973,
  "lng": 126.474724389,
  "phone": "",
  "thumb": "",
  "i18n": {
   "ko": {
    "name": "라벤하임",
    "desc": "",
    "address": "전북특별자치도 부안군 변산면 궁항로 91"
   }
  }
 },
 {
  "section": "food",
  "name_ko": "라보테",
  "district": "전주시",
  "category": "양식·세계요리",
  "lat": 35.8436206194,
  "lng": 127.0645212283,
  "phone": "",
  "thumb": "http://tong.visitkorea.or.kr/cms/resource/09/2877609_image3_1.jpg",
  "i18n": {
   "ko": {
    "name": "라보테",
    "desc": "",
    "address": "전북특별자치도 전주시 덕진구 중동로 104-16 (장동)"
   }
  },
  "rating": 4.2,
  "rcount": 81
 },
 {
  "section": "food",
  "name_ko": "란향",
  "district": "군산시",
  "category": "중식",
  "lat": 35.9652093942,
  "lng": 126.7332143017,
  "phone": "",
  "thumb": "http://tong.visitkorea.or.kr/cms/resource/65/2924665_image3_1.jpg",
  "i18n": {
   "ko": {
    "name": "란향",
    "desc": "",
    "address": "전북특별자치도 군산시 미장안9길 7"
   }
  },
  "rating": 4.0,
  "rcount": 48
 },
 {
  "section": "food",
  "name_ko": "리즈리",
  "district": "군산시",
  "category": "양식·세계요리",
  "lat": 35.942132726,
  "lng": 126.8064500203,
  "phone": "",
  "thumb": "http://tong.visitkorea.or.kr/cms/resource/98/2929398_image3_1.jpg",
  "i18n": {
   "ko": {
    "name": "리즈리",
    "desc": "",
    "address": "전북특별자치도 군산시 서만자2길 6"
   }
  },
  "rating": 3.9,
  "rcount": 14
 },
 {
  "section": "food",
  "name_ko": "리투스카페",
  "district": "군산시",
  "category": "카페·베이커리",
  "lat": 35.9862235076,
  "lng": 126.7241840099,
  "phone": "",
  "thumb": "http://tong.visitkorea.or.kr/cms/resource/52/2877152_image3_1.jpg",
  "i18n": {
   "ko": {
    "name": "리투스카페",
    "desc": "",
    "address": "전북특별자치도 군산시 해망로 118"
   }
  },
  "rating": 4.4,
  "rcount": 27
 },
 {
  "section": "food",
  "name_ko": "마르",
  "district": "부안군",
  "category": "카페·베이커리",
  "lat": 35.6070873572,
  "lng": 126.4670249827,
  "phone": "",
  "thumb": "http://tong.visitkorea.or.kr/cms/resource/05/3562305_image3_1.jpg",
  "i18n": {
   "ko": {
    "name": "마르",
    "desc": "",
    "address": "전북특별자치도 부안군 궁항영상길 48"
   }
  }
 },
 {
  "section": "food",
  "name_ko": "마리서사",
  "district": "정읍시",
  "category": "양식·세계요리",
  "lat": 35.5800469883,
  "lng": 126.8551022231,
  "phone": "",
  "thumb": "http://tong.visitkorea.or.kr/cms/resource/02/3589802_image3_1.jpg",
  "i18n": {
   "ko": {
    "name": "마리서사",
    "desc": "",
    "address": "전북특별자치도 정읍시 수성택지4길 20-12"
   }
  },
  "rating": 3.2,
  "rcount": 23
 },
 {
  "section": "food",
  "name_ko": "마시랑게",
  "district": "전주시",
  "category": "카페·베이커리",
  "lat": 35.8144753987,
  "lng": 127.1489644725,
  "phone": "",
  "thumb": "http://tong.visitkorea.or.kr/cms/resource/39/3589839_image3_1.png",
  "i18n": {
   "ko": {
    "name": "마시랑게",
    "desc": "",
    "address": "전북특별자치도 전주시 완산구 전동성당길 100 (전동)"
   }
  },
  "rating": 4.1,
  "rcount": 243
 },
 {
  "section": "food",
  "name_ko": "마식당",
  "district": "부안군",
  "category": "한식·백반",
  "lat": 35.6241493774,
  "lng": 126.4713380579,
  "phone": "",
  "thumb": "http://tong.visitkorea.or.kr/cms/resource/40/2840140_image3_1.jpg",
  "i18n": {
   "ko": {
    "name": "마식당",
    "desc": "",
    "address": "전북특별자치도 부안군 변산면 격포항길 13"
   }
  },
  "rating": 3.9,
  "rcount": 71
 },
 {
  "section": "food",
  "name_ko": "만남스넥",
  "district": "군산시",
  "category": "한식·백반",
  "lat": 35.98425682,
  "lng": 126.7097992361,
  "phone": "",
  "thumb": "http://tong.visitkorea.or.kr/cms/resource/62/2877162_image3_1.jpg",
  "i18n": {
   "ko": {
    "name": "만남스넥",
    "desc": "",
    "address": "전북특별자치도 군산시 대학로 67-3 만남스넥"
   }
  },
  "rating": 3.4,
  "rcount": 50
 },
 {
  "section": "food",
  "name_ko": "만수식당 본점",
  "district": "전주시",
  "category": "한식·백반",
  "lat": 35.8730799752,
  "lng": 127.1566844724,
  "phone": "",
  "thumb": "http://tong.visitkorea.or.kr/cms/resource/24/2930024_image3_1.jpg",
  "i18n": {
   "ko": {
    "name": "만수식당 본점",
    "desc": "",
    "address": "전북특별자치도 전주시 덕진구 사거리길 49"
   }
  },
  "rating": 3.0,
  "rcount": 28
 },
 {
  "section": "food",
  "name_ko": "매드에스프레소로스터리",
  "district": "완주군",
  "category": "카페·베이커리",
  "lat": 35.8284827527,
  "lng": 127.0239696793,
  "phone": "",
  "thumb": "https://postfiles.pstatic.net/MjAyNjA2MjFfMjQg/MDAxNzgxOTc2Nzk1OTkx.MU6fiK5vZrWCE0nEndIgXgexJ4qbehUV6M7gVPvBELEg.6LLOaG1ymR4Wt9bBDhQI97bTcMPYsbvsI4xmcsMmjOYg.JPEG/900_20260530_121506.jpg?type=w966",
  "i18n": {
   "ko": {
    "name": "매드에스프레소로스터리",
    "desc": "",
    "address": "전북특별자치도 완주군 반교로 105-9"
   }
  },
  "rating": 3.9,
  "rcount": 17
 },
 {
  "section": "food",
  "name_ko": "메밀방앗간",
  "district": "전주시",
  "category": "한식·백반",
  "lat": 35.8371109904,
  "lng": 127.1073453626,
  "phone": "",
  "thumb": "http://tong.visitkorea.or.kr/cms/resource/44/2899044_image3_1.jpg",
  "i18n": {
   "ko": {
    "name": "메밀방앗간",
    "desc": "",
    "address": "전북특별자치도 전주시 완산구 고사평5길 25"
   }
  }
 },
 {
  "section": "food",
  "name_ko": "메이드인헤븐",
  "district": "익산시",
  "category": "카페·베이커리",
  "lat": 35.9978460077,
  "lng": 126.9788637244,
  "phone": "",
  "thumb": "http://tong.visitkorea.or.kr/cms/resource/18/2850818_image3_1.jpg",
  "i18n": {
   "ko": {
    "name": "메이드인헤븐",
    "desc": "",
    "address": "전북특별자치도 익산시 하나로 864-22"
   }
  },
  "rating": 3.8,
  "rcount": 32
 },
 {
  "section": "food",
  "name_ko": "멜로우어텀",
  "district": "완주군",
  "category": "카페·베이커리",
  "lat": 35.8334299728,
  "lng": 127.0564444362,
  "phone": "",
  "thumb": "http://tong.visitkorea.or.kr/cms/resource/99/2837299_image3_1.jpg",
  "i18n": {
   "ko": {
    "name": "멜로우어텀",
    "desc": "",
    "address": "전북특별자치도 완주군 안전로 107-19"
   }
  },
  "rating": 3.6,
  "rcount": 35
 },
 {
  "section": "food",
  "name_ko": "명동소바",
  "district": "군산시",
  "category": "면·국물",
  "lat": 35.9871510551,
  "lng": 126.7169040812,
  "phone": "",
  "thumb": "https://t1.daumcdn.net/local/review_placeapp/btqcVwNsnrs_JBeKxG4kx4RWuaIB4kYMCk_img.jpg",
  "i18n": {
   "ko": {
    "name": "명동소바",
    "desc": "",
    "address": "전북특별자치도 군산시 평화길 122"
   }
  },
  "rating": 3.1,
  "rcount": 20
 },
 {
  "section": "food",
  "name_ko": "명문제과",
  "district": "남원시",
  "category": "카페·베이커리",
  "lat": 35.4090698759,
  "lng": 127.3824876453,
  "phone": "",
  "thumb": "http://tong.visitkorea.or.kr/cms/resource/40/2839140_image3_1.jpg",
  "i18n": {
   "ko": {
    "name": "명문제과",
    "desc": "",
    "address": "전북특별자치도 남원시 용성로 56 명문제과"
   }
  },
  "rating": 3.4,
  "rcount": 245
 },
 {
  "section": "food",
  "name_ko": "명월갈비",
  "district": "군산시",
  "category": "고기·구이",
  "lat": 35.9864982351,
  "lng": 126.710074154,
  "phone": "",
  "thumb": "http://tong.visitkorea.or.kr/cms/resource/48/2924648_image3_1.jpg",
  "i18n": {
   "ko": {
    "name": "명월갈비",
    "desc": "",
    "address": "전북특별자치도 군산시 구영7길 59 명월갈비"
   }
  },
  "rating": 3.1,
  "rcount": 23
 },
 {
  "section": "food",
  "name_ko": "명인관",
  "district": "정읍시",
  "category": "한식·백반",
  "lat": 35.4932858815,
  "lng": 126.9296311496,
  "phone": "",
  "thumb": "https://t1.daumcdn.net/local/kakaomapPhoto/review/8cdc7cb593d3e8e10cf3ba990e982d96cfebfc56?original",
  "i18n": {
   "ko": {
    "name": "명인관",
    "desc": "",
    "address": "전북특별자치도 정읍시 내장산로 941-13"
   }
  },
  "rating": 4.2,
  "rcount": 30
 },
 {
  "section": "food",
  "name_ko": "모정엔틱카페",
  "district": "남원시",
  "category": "카페·베이커리",
  "lat": 35.4095813662,
  "lng": 127.4076548524,
  "phone": "",
  "thumb": "http://tong.visitkorea.or.kr/cms/resource/83/2899783_image3_1.jpg",
  "i18n": {
   "ko": {
    "name": "모정엔틱카페",
    "desc": "",
    "address": "전북특별자치도 남원시 모정길 7-4"
   }
  },
  "rating": 4.9,
  "rcount": 16
 },
 {
  "section": "food",
  "name_ko": "몽펠리에 카페 레스토랑",
  "district": "완주군",
  "category": "카페·베이커리",
  "lat": 35.881647205,
  "lng": 127.2450041632,
  "phone": "",
  "thumb": "http://tong.visitkorea.or.kr/cms/resource/08/2851408_image3_1.jpg",
  "i18n": {
   "ko": {
    "name": "몽펠리에 카페 레스토랑",
    "desc": "",
    "address": "전북특별자치도 완주군 소양면 원대흥길 127-21"
   }
  }
 },
 {
  "section": "food",
  "name_ko": "무주농원",
  "district": "무주군",
  "category": "한식·백반",
  "lat": 35.9069312078,
  "lng": 127.7606882284,
  "phone": "",
  "thumb": "http://tong.visitkorea.or.kr/cms/resource/03/2837203_image3_1.jpg",
  "i18n": {
   "ko": {
    "name": "무주농원",
    "desc": "",
    "address": "전북특별자치도 무주군 구천동로 1053"
   }
  },
  "rating": 2.4,
  "rcount": 71
 },
 {
  "section": "food",
  "name_ko": "무주뚝배기",
  "district": "무주군",
  "category": "한식·백반",
  "lat": 35.9070449811,
  "lng": 127.7549387356,
  "phone": "",
  "thumb": "http://tong.visitkorea.or.kr/cms/resource/35/2855335_image3_1.jpg",
  "i18n": {
   "ko": {
    "name": "무주뚝배기",
    "desc": "",
    "address": "전북특별자치도 무주군 관동길 7"
   }
  },
  "rating": 3.6,
  "rcount": 79
 },
 {
  "section": "food",
  "name_ko": "무주창고",
  "district": "무주군",
  "category": "카페·베이커리",
  "lat": 35.920580998,
  "lng": 127.6800783471,
  "phone": "",
  "thumb": "http://tong.visitkorea.or.kr/cms/resource/27/2837227_image3_1.jpg",
  "i18n": {
   "ko": {
    "name": "무주창고",
    "desc": "",
    "address": "전북특별자치도 무주군 마산내동길 16"
   }
  }
 },
 {
  "section": "food",
  "name_ko": "무진장아구복전문점",
  "district": "남원시",
  "category": "해산물·회",
  "lat": 35.4159247571,
  "lng": 127.3882925101,
  "phone": "",
  "thumb": "https://postfiles.pstatic.net/MjAyNjAyMjJfOTAg/MDAxNzcxNzM1NzIyMTE5.bAZJPQ0UP-8HAlHCgCPcdzPCD4cREJETSC9kxmVeQHIg.Tz361oyDRKIvxv2We3nxOsY4gVz9CDnbO23UCpmQ_5cg.JPEG/IMG%EF%BC%BF6935.jpg?type=w966",
  "i18n": {
   "ko": {
    "name": "무진장아구복전문점",
    "desc": "",
    "address": "전북특별자치도 남원시 옥정5길 11"
   }
  },
  "rating": 4.2,
  "rcount": 5
 },
 {
  "section": "food",
  "name_ko": "물고기자리",
  "district": "군산시",
  "category": "고기·구이",
  "lat": 35.9358453225,
  "lng": 126.5255253043,
  "phone": "",
  "thumb": "http://tong.visitkorea.or.kr/cms/resource/14/2925114_image3_1.jpg",
  "i18n": {
   "ko": {
    "name": "물고기자리",
    "desc": "",
    "address": "전북특별자치도 군산시 비응남로 5"
   }
  },
  "rating": 3.2,
  "rcount": 40
 },
 {
  "section": "food",
  "name_ko": "물머리집",
  "district": "익산시",
  "category": "한식·백반",
  "lat": 35.997777868,
  "lng": 127.0537070445,
  "phone": "",
  "thumb": "https://t1.kakaocdn.net/mystore/6EBD1F98629D45B8A882553BC20ADA6B",
  "i18n": {
   "ko": {
    "name": "물머리집",
    "desc": "",
    "address": "전북특별자치도 익산시 금마면 고도1길 56-5"
   }
  },
  "rating": 3.0,
  "rcount": 15
 },
 {
  "section": "food",
  "name_ko": "물밀소",
  "district": "군산시",
  "category": "카페·베이커리",
  "lat": 35.9851317068,
  "lng": 126.7090576136,
  "phone": "",
  "thumb": "http://tong.visitkorea.or.kr/cms/resource/03/2794403_image3_1.JPG",
  "i18n": {
   "ko": {
    "name": "물밀소",
    "desc": "",
    "address": "전북특별자치도 군산시 구영7길 23"
   }
  },
  "rating": 4.8,
  "rcount": 8
 },
 {
  "section": "food",
  "name_ko": "물빛정원",
  "district": "전주시",
  "category": "카페·베이커리",
  "lat": 35.8843837245,
  "lng": 127.1267729508,
  "phone": "",
  "thumb": "http://tong.visitkorea.or.kr/cms/resource/48/2783648_image3_1.jpg",
  "i18n": {
   "ko": {
    "name": "물빛정원",
    "desc": "",
    "address": "전북특별자치도 전주시 덕진구 백석길 7-11 (전미동1가)"
   }
  },
  "rating": 3.5,
  "rcount": 27
 },
 {
  "section": "food",
  "name_ko": "뭉치네풍천장어전문",
  "district": "고창군",
  "category": "해산물·회",
  "lat": 35.5030678394,
  "lng": 126.5858392346,
  "phone": "",
  "thumb": "http://tong.visitkorea.or.kr/cms/resource/19/3074119_image3_1.jpg",
  "i18n": {
   "ko": {
    "name": "뭉치네풍천장어전문",
    "desc": "",
    "address": "전북특별자치도 고창군 아산면 중촌길 13"
   }
  }
 },
 {
  "section": "food",
  "name_ko": "미르밀옥류관 본점",
  "district": "전주시",
  "category": "한식·백반",
  "lat": 35.8212710564,
  "lng": 127.10331558,
  "phone": "",
  "thumb": "http://tong.visitkorea.or.kr/cms/resource/41/2877641_image3_1.jpg",
  "i18n": {
   "ko": {
    "name": "미르밀옥류관 본점",
    "desc": "",
    "address": "전북특별자치도 전주시 완산구 마전들로 71 서림빌딩"
   }
  },
  "rating": 2.9,
  "rcount": 36
 },
 {
  "section": "food",
  "name_ko": "미안커피",
  "district": "남원시",
  "category": "카페·베이커리",
  "lat": 35.3987461657,
  "lng": 127.3895706199,
  "phone": "",
  "thumb": "http://tong.visitkorea.or.kr/cms/resource/04/2851504_image3_1.jpg",
  "i18n": {
   "ko": {
    "name": "미안커피",
    "desc": "",
    "address": "전북특별자치도 남원시 함파우길 65-14"
   }
  }
 },
 {
  "section": "food",
  "name_ko": "미즈커피",
  "district": "군산시",
  "category": "카페·베이커리",
  "lat": 35.9900534265,
  "lng": 126.7125071772,
  "phone": "",
  "thumb": "http://tong.visitkorea.or.kr/cms/resource/20/2774220_image2_1.jpg",
  "i18n": {
   "ko": {
    "name": "미즈커피",
    "desc": "",
    "address": "전북특별자치도 군산시 해망로 232 (장미동)"
   }
  },
  "rating": 3.3,
  "rcount": 50
 },
 {
  "section": "food",
  "name_ko": "미향",
  "district": "군산시",
  "category": "한식·백반",
  "lat": 35.9710134025,
  "lng": 126.681429894,
  "phone": "",
  "thumb": "",
  "i18n": {
   "ko": {
    "name": "미향",
    "desc": "",
    "address": "전북특별자치도 군산시 소룡길 52"
   }
  }
 },
 {
  "section": "food",
  "name_ko": "바다꽃게탕 본점",
  "district": "전주시",
  "category": "한식·백반",
  "lat": 35.828849146,
  "lng": 127.1709899142,
  "phone": "",
  "thumb": "https://postfiles.pstatic.net/MjAyNjA0MTZfMTcz/MDAxNzc2MzQ0MTIxNTE0.3D5slpsaaYkrsSPUzqAmgd6ILAQDoKwdgSS5yqJvzrwg.JalAyqDMMVMW7xtRg_Y8BwxCK4T_E859F1edl87MJk4g.JPEG/900_20260225_184600.jpg?type=w386",
  "i18n": {
   "ko": {
    "name": "바다꽃게탕 본점",
    "desc": "",
    "address": "전북특별자치도 전주시 덕진구 아중1길 13-1"
   }
  },
  "rating": 2.9,
  "rcount": 19
 },
 {
  "section": "food",
  "name_ko": "바지락명가장가네",
  "district": "군산시",
  "category": "한식·백반",
  "lat": 35.9403421712,
  "lng": 126.5337911162,
  "phone": "",
  "thumb": "http://tong.visitkorea.or.kr/cms/resource/20/2924920_image3_1.jpg",
  "i18n": {
   "ko": {
    "name": "바지락명가장가네",
    "desc": "",
    "address": "전북특별자치도 군산시 비응동로 67"
   }
  },
  "rating": 3.4,
  "rcount": 22
 },
 {
  "section": "food",
  "name_ko": "밥상위의한우",
  "district": "전주시",
  "category": "고기·구이",
  "lat": 35.8170519341,
  "lng": 127.0942109455,
  "phone": "",
  "thumb": "http://tong.visitkorea.or.kr/cms/resource/74/2899074_image3_1.jpg",
  "i18n": {
   "ko": {
    "name": "밥상위의한우",
    "desc": "",
    "address": "전북특별자치도 전주시 완산구 천잠로 341"
   }
  }
 },
 {
  "section": "food",
  "name_ko": "백합식당",
  "district": "부안군",
  "category": "한식·백반",
  "lat": 35.6287794095,
  "lng": 126.4715351458,
  "phone": "",
  "thumb": "https://t1.daumcdn.net/local/kakaomapPhoto/review/0cbcc7c02ef5dc51d732c9a0c4f2aa19cdb64d42?original",
  "i18n": {
   "ko": {
    "name": "백합식당",
    "desc": "",
    "address": "전북특별자치도 부안군 변산면 변산해변로 17"
   }
  },
  "rating": 3.9,
  "rcount": 137
 },
 {
  "section": "food",
  "name_ko": "베르데카페",
  "district": "정읍시",
  "category": "카페·베이커리",
  "lat": 35.6554205284,
  "lng": 126.9455533593,
  "phone": "",
  "thumb": "http://tong.visitkorea.or.kr/cms/resource/72/2854972_image3_1.jpg",
  "i18n": {
   "ko": {
    "name": "베르데카페",
    "desc": "",
    "address": "전북특별자치도 정읍시 정읍북로 1327 베르데카페"
   }
  },
  "rating": 4.7,
  "rcount": 27
 },
 {
  "section": "food",
  "name_ko": "베르자르당",
  "district": "순창군",
  "category": "카페·베이커리",
  "lat": 35.3652873549,
  "lng": 127.1425711011,
  "phone": "",
  "thumb": "http://tong.visitkorea.or.kr/cms/resource/86/2706586_image3_1.jpg",
  "i18n": {
   "ko": {
    "name": "베르자르당",
    "desc": "",
    "address": "전북특별자치도 순창군 순창읍 순창로 102-2"
   }
  }
 },
 {
  "section": "food",
  "name_ko": "베테랑칼국수",
  "district": "전주시",
  "category": "면·국물",
  "lat": 35.8134811148,
  "lng": 127.1517281414,
  "phone": "",
  "thumb": "https://t1.daumcdn.net/cfile/23043D3A541A30480D",
  "i18n": {
   "ko": {
    "name": "베테랑칼국수",
    "desc": "",
    "address": "전북특별자치도 전주시 완산구 경기전길 135"
   }
  },
  "rating": 2.8,
  "rcount": 785
 },
 {
  "section": "food",
  "name_ko": "벽계가든",
  "district": "전주시",
  "category": "한식·백반",
  "lat": 35.8381917832,
  "lng": 127.1281157081,
  "phone": "",
  "thumb": "https://t1.daumcdn.net/local/kakaomapPhoto/review/a9e35b113d06435e67c3e21ac467da40e25ceecc?original",
  "i18n": {
   "ko": {
    "name": "벽계가든",
    "desc": "",
    "address": "전북특별자치도 전주시 덕진구 백제대로 524"
   }
  },
  "rating": 2.8,
  "rcount": 32
 },
 {
  "section": "food",
  "name_ko": "변산명인바지락죽",
  "district": "부안군",
  "category": "한식·백반",
  "lat": 35.664462164,
  "lng": 126.5134082893,
  "phone": "",
  "thumb": "https://t1.daumcdn.net/local/kakaomapPhoto/review/5343d2091bcdf71d6dc13223a6fdc10267967816?original",
  "i18n": {
   "ko": {
    "name": "변산명인바지락죽",
    "desc": "",
    "address": "전북특별자치도 부안군 변산면 변산해변로 794"
   }
  },
  "rating": 4.4,
  "rcount": 502
 },
 {
  "section": "food",
  "name_ko": "변산물회해물국밥",
  "district": "부안군",
  "category": "해산물·회",
  "lat": 35.6749528605,
  "lng": 126.5266985048,
  "phone": "",
  "thumb": "http://tong.visitkorea.or.kr/cms/resource/94/2871094_image3_1.jpg",
  "i18n": {
   "ko": {
    "name": "변산물회해물국밥",
    "desc": "",
    "address": "전북특별자치도 부안군 송포길 57"
   }
  }
 },
 {
  "section": "food",
  "name_ko": "변산온천산장",
  "district": "부안군",
  "category": "한식·백반",
  "lat": 35.6885962884,
  "lng": 126.5585480964,
  "phone": "",
  "thumb": "https://t1.daumcdn.net/local/kakaomapPhoto/review/0941a3fe605475a6cb87d0a8b76efc752312f351?original",
  "i18n": {
   "ko": {
    "name": "변산온천산장",
    "desc": "",
    "address": "전북특별자치도 부안군 변산면 묵정길 83-6"
   }
  },
  "rating": 3.4,
  "rcount": 31
 },
 {
  "section": "food",
  "name_ko": "별미가든",
  "district": "무주군",
  "category": "한식·백반",
  "lat": 35.9069619601,
  "lng": 127.7719122326,
  "phone": "",
  "thumb": "https://t1.daumcdn.net/local/kakaomapPhoto/review/165a7615690ef083c00698ab1ab0f23d842aa246?original",
  "i18n": {
   "ko": {
    "name": "별미가든",
    "desc": "",
    "address": "전북특별자치도 무주군 설천면 구천동로 948"
   }
  },
  "rating": 3.9,
  "rcount": 15
 },
 {
  "section": "food",
  "name_ko": "복성루",
  "district": "군산시",
  "category": "중식",
  "lat": 35.9782076126,
  "lng": 126.7157710807,
  "phone": "",
  "thumb": "http://tong.visitkorea.or.kr/cms/resource/09/3083009_image3_1.png",
  "i18n": {
   "ko": {
    "name": "복성루",
    "desc": "",
    "address": "전북특별자치도 군산시 월명로 382"
   }
  },
  "rating": 3.1,
  "rcount": 306
 },
 {
  "section": "food",
  "name_ko": "봉동짬뽕",
  "district": "완주군",
  "category": "중식",
  "lat": 35.9379783326,
  "lng": 127.1677206723,
  "phone": "",
  "thumb": "http://tong.visitkorea.or.kr/cms/resource/66/2877566_image3_1.jpg",
  "i18n": {
   "ko": {
    "name": "봉동짬뽕",
    "desc": "",
    "address": "전북특별자치도 완주군 하월길 43"
   }
  },
  "rating": 3.8,
  "rcount": 47
 },
 {
  "section": "food",
  "name_ko": "부산집",
  "district": "남원시",
  "category": "한식·백반",
  "lat": 35.4009706936,
  "lng": 127.3768244667,
  "phone": "",
  "thumb": "http://tong.visitkorea.or.kr/cms/resource/02/2899202_image3_1.jpg",
  "i18n": {
   "ko": {
    "name": "부산집",
    "desc": "",
    "address": "전북특별자치도 남원시 요천로 1411 부산집"
   }
  },
  "rating": 3.8,
  "rcount": 36
 },
 {
  "section": "food",
  "name_ko": "불칸",
  "district": "완주군",
  "category": "한식·백반",
  "lat": 35.7640431246,
  "lng": 127.1997085004,
  "phone": "",
  "thumb": "http://tong.visitkorea.or.kr/cms/resource/68/2851368_image3_1.jpg",
  "i18n": {
   "ko": {
    "name": "불칸",
    "desc": "",
    "address": "전북특별자치도 완주군 왜목로 676-6"
   }
  },
  "rating": 3.3,
  "rcount": 52
 },
 {
  "section": "food",
  "name_ko": "비응반점",
  "district": "군산시",
  "category": "중식",
  "lat": 35.9398560453,
  "lng": 126.5296442778,
  "phone": "",
  "thumb": "http://tong.visitkorea.or.kr/cms/resource/72/2877572_image3_1.jpg",
  "i18n": {
   "ko": {
    "name": "비응반점",
    "desc": "",
    "address": "전북특별자치도 군산시 비응로 64 (비응도동)"
   }
  },
  "rating": 3.6,
  "rcount": 106
 },
 {
  "section": "food",
  "name_ko": "빈해원",
  "district": "군산시",
  "category": "중식",
  "lat": 35.9888841406,
  "lng": 126.7139765207,
  "phone": "",
  "thumb": "http://tong.visitkorea.or.kr/cms/resource/40/3575640_image3_1.jpg",
  "i18n": {
   "ko": {
    "name": "빈해원",
    "desc": "",
    "address": "전북특별자치도 군산시 동령길 57"
   }
  }
 },
 {
  "section": "food",
  "name_ko": "사골뚝배기",
  "district": "군산시",
  "category": "한식·백반",
  "lat": 35.9855594764,
  "lng": 126.7114157244,
  "phone": "",
  "thumb": "https://postfiles.pstatic.net/MjAyNTEyMDdfNDUg/MDAxNzY1MDc1NjE4OTk4.3VM35Y-e3BEttBhJeUsadBEUlssfNZ5uAEyLFw6Y1dgg.kxpTHjP1y2Y3aRwVaB8_SBerB0yFo2zKlI6cFrM0q1sg.JPEG/SE-e23ba49c-cf09-11f0-9cf5-8f0ca62d4fbe.jpg?type=w773",
  "i18n": {
   "ko": {
    "name": "사골뚝배기",
    "desc": "",
    "address": "전북특별자치도 군산시 거석길 29"
   }
  },
  "rating": 2.0,
  "rcount": 2
 },
 {
  "section": "food",
  "name_ko": "사랑오리",
  "district": "전주시",
  "category": "한식·백반",
  "lat": 35.8002065971,
  "lng": 127.0923726588,
  "phone": "",
  "thumb": "http://tong.visitkorea.or.kr/cms/resource/45/2867045_image3_1.jpg",
  "i18n": {
   "ko": {
    "name": "사랑오리",
    "desc": "",
    "address": "전북특별자치도 전주시 완산구 쑥고개로 247 (효자동2가)"
   }
  },
  "rating": 3.5,
  "rcount": 34
 },
 {
  "section": "food",
  "name_ko": "산들애",
  "district": "무주군",
  "category": "한식·백반",
  "lat": 35.9077754799,
  "lng": 127.7564191401,
  "phone": "",
  "thumb": "http://tong.visitkorea.or.kr/cms/resource/52/2855352_image3_1.jpg",
  "i18n": {
   "ko": {
    "name": "산들애",
    "desc": "",
    "address": "전북특별자치도 무주군 만선1로 94"
   }
  },
  "rating": 3.4,
  "rcount": 33
 },
 {
  "section": "food",
  "name_ko": "산정호수가든",
  "district": "익산시",
  "category": "한식·백반",
  "lat": 36.081524127,
  "lng": 126.9084622659,
  "phone": "",
  "thumb": "https://postfiles.pstatic.net/MjAyNjA2MTVfNTcg/MDAxNzgxNDg0NjUxNzYy.ZlyO27Yq3w3PgVqaBwFOgfRZuSCzz065oKssU469XAcg.d7r7NJ6VjZLBvvValydObdF0gPZSd_x0PmkrcjLkHE0g.JPEG/IMG_3069.JPG?type=w580",
  "i18n": {
   "ko": {
    "name": "산정호수가든",
    "desc": "",
    "address": "전북특별자치도 익산시 웅포면 백제로 476-6"
   }
  },
  "rating": 3.1,
  "rcount": 14
 },
 {
  "section": "food",
  "name_ko": "산촌식당",
  "district": "부안군",
  "category": "한식·백반",
  "lat": 35.6114972404,
  "lng": 126.5890806578,
  "phone": "",
  "thumb": "http://tong.visitkorea.or.kr/cms/resource/15/2870315_image3_1.jpg",
  "i18n": {
   "ko": {
    "name": "산촌식당",
    "desc": "",
    "address": "전북특별자치도 부안군 내소사로 182 산촌식당"
   }
  }
 },
 {
  "section": "food",
  "name_ko": "삼봉가든",
  "district": "장수군",
  "category": "한식·백반",
  "lat": 35.6220895847,
  "lng": 127.5061961431,
  "phone": "",
  "thumb": "http://tong.visitkorea.or.kr/cms/resource/08/2790708_image3_1.jpg",
  "i18n": {
   "ko": {
    "name": "삼봉가든",
    "desc": "",
    "address": "전북특별자치도 장수군 장수읍 장수로 1858-3"
   }
  },
  "rating": 5.0,
  "rcount": 1
 },
 {
  "section": "food",
  "name_ko": "삼부회관",
  "district": "정읍시",
  "category": "해산물·회",
  "lat": 35.581321816,
  "lng": 126.8534801125,
  "phone": "",
  "thumb": "http://tong.visitkorea.or.kr/cms/resource/01/3572401_image3_1.jpg",
  "i18n": {
   "ko": {
    "name": "삼부회관",
    "desc": "",
    "address": "전북특별자치도 정읍시 수성택지5길 39 (수성동)"
   }
  },
  "rating": 5.0,
  "rcount": 5
 },
 {
  "section": "food",
  "name_ko": "삼일관",
  "district": "전주시",
  "category": "한식·백반",
  "lat": 35.8177637785,
  "lng": 127.1411817453,
  "phone": "",
  "thumb": "",
  "i18n": {
   "ko": {
    "name": "삼일관",
    "desc": "",
    "address": "전북특별자치도 전주시 완산구 전주객사2길 20"
   }
  }
 },
 {
  "section": "food",
  "name_ko": "삼일식당",
  "district": "익산시",
  "category": "한식·백반",
  "lat": 35.9371107392,
  "lng": 126.9483152612,
  "phone": "",
  "thumb": "http://tong.visitkorea.or.kr/cms/resource/14/3580814_image3_1.jpg",
  "i18n": {
   "ko": {
    "name": "삼일식당",
    "desc": "",
    "address": "전북특별자치도 익산시 중앙로 22-222"
   }
  },
  "rating": 4.7,
  "rcount": 3
 },
 {
  "section": "food",
  "name_ko": "삼포가든",
  "district": "남원시",
  "category": "한식·백반",
  "lat": 35.4572847768,
  "lng": 127.4348428773,
  "phone": "",
  "thumb": "http://tong.visitkorea.or.kr/cms/resource/83/2837183_image3_1.jpg",
  "i18n": {
   "ko": {
    "name": "삼포가든",
    "desc": "",
    "address": "전북특별자치도 남원시 요천로 2264"
   }
  }
 },
 {
  "section": "food",
  "name_ko": "삼풍식당",
  "district": "군산시",
  "category": "한식·백반",
  "lat": 36.014770848,
  "lng": 126.7592329118,
  "phone": "",
  "thumb": "",
  "i18n": {
   "ko": {
    "name": "삼풍식당",
    "desc": "",
    "address": "전북특별자치도 군산시 성산면 철새로 31"
   }
  }
 },
 {
  "section": "food",
  "name_ko": "상록수",
  "district": "임실군",
  "category": "한식·백반",
  "lat": 35.5916666311,
  "lng": 127.1058102085,
  "phone": "",
  "thumb": "http://tong.visitkorea.or.kr/cms/resource/27/2837927_image3_1.jpg",
  "i18n": {
   "ko": {
    "name": "상록수",
    "desc": "",
    "address": "전북특별자치도 임실군 운정길 29 상록수"
   }
  },
  "rating": 3.8,
  "rcount": 43
 },
 {
  "section": "food",
  "name_ko": "새만금횟집",
  "district": "군산시",
  "category": "해산물·회",
  "lat": 35.9393283762,
  "lng": 126.5325107012,
  "phone": "",
  "thumb": "https://t1.daumcdn.net/local/kakaomapPhoto/review/9d1d7644962766530d43e70620968ec4ed911f9d?original",
  "i18n": {
   "ko": {
    "name": "새만금횟집",
    "desc": "",
    "address": "전북특별자치도 군산시 비응안7길 13"
   }
  },
  "rating": 3.9,
  "rcount": 106
 },
 {
  "section": "food",
  "name_ko": "새재가든",
  "district": "정읍시",
  "category": "한식·백반",
  "lat": 35.4996420136,
  "lng": 126.84266371,
  "phone": "",
  "thumb": "http://tong.visitkorea.or.kr/cms/resource/32/2912132_image3_1.jpg",
  "i18n": {
   "ko": {
    "name": "새재가든",
    "desc": "",
    "address": "전북특별자치도 정읍시 백학2길 133 새재가든"
   }
  },
  "rating": 4.7,
  "rcount": 3
 },
 {
  "section": "food",
  "name_ko": "샘골가든",
  "district": "익산시",
  "category": "한식·백반",
  "lat": 36.0705393568,
  "lng": 126.9134621069,
  "phone": "",
  "thumb": "https://t1.daumcdn.net/local/kakaomapPhoto/review/89288b57756562889ea7aa0f310cc4a942a365e0?original",
  "i18n": {
   "ko": {
    "name": "샘골가든",
    "desc": "",
    "address": "전북특별자치도 익산시 함라면 백제로 622-6"
   }
  },
  "rating": 4.8,
  "rcount": 4
 },
 {
  "section": "food",
  "name_ko": "서남만찬",
  "district": "남원시",
  "category": "한식·백반",
  "lat": 35.4183191011,
  "lng": 127.3981165799,
  "phone": "",
  "thumb": "http://tong.visitkorea.or.kr/cms/resource/54/2839154_image3_1.jpg",
  "i18n": {
   "ko": {
    "name": "서남만찬",
    "desc": "",
    "address": "전북특별자치도 남원시 역재1길 9 서남아구찜,낚지볶음"
   }
  },
  "rating": 3.3,
  "rcount": 179
 },
 {
  "section": "food",
  "name_ko": "서수해장국",
  "district": "군산시",
  "category": "면·국물",
  "lat": 35.9789516457,
  "lng": 126.8587055062,
  "phone": "",
  "thumb": "http://tong.visitkorea.or.kr/cms/resource/68/2866868_image3_1.jpg",
  "i18n": {
   "ko": {
    "name": "서수해장국",
    "desc": "",
    "address": "전북특별자치도 군산시 남산로 306 서수해장국"
   }
  },
  "rating": 2.5,
  "rcount": 23
 },
 {
  "section": "food",
  "name_ko": "서우식당",
  "district": "군산시",
  "category": "한식·백반",
  "lat": 35.9685890871,
  "lng": 126.7052833785,
  "phone": "",
  "thumb": "http://tong.visitkorea.or.kr/cms/resource/68/2877168_image3_1.jpg",
  "i18n": {
   "ko": {
    "name": "서우식당",
    "desc": "",
    "address": "전북특별자치도 군산시 나운안2길 9-6 서우식당"
   }
  }
 },
 {
  "section": "food",
  "name_ko": "서해바다횟집",
  "district": "부안군",
  "category": "해산물·회",
  "lat": 35.6277906139,
  "lng": 126.4703797182,
  "phone": "",
  "thumb": "https://t1.daumcdn.net/local/kakaomapPhoto/review/dd34ec1f8725e271dbc7992253f26b386ce30f4e?original",
  "i18n": {
   "ko": {
    "name": "서해바다횟집",
    "desc": "",
    "address": "전북특별자치도 부안군 변산면 채석강길 27"
   }
  },
  "rating": 1.5,
  "rcount": 6
 },
 {
  "section": "food",
  "name_ko": "선비고을",
  "district": "남원시",
  "category": "한식·백반",
  "lat": 35.4031317803,
  "lng": 127.3895149555,
  "phone": "",
  "thumb": "https://postfiles.pstatic.net/MjAyNjA2MjZfNjIg/MDAxNzgyNDU0NTA5MjEy.byYFEORnhFbiTv-DQIbZgfezcY4vUofkr0nxINVGjDcg.oSeX-6AoLqEyhpA35_weNYbq_4uabSbZ-4H2bSZJV24g.JPEG/SE-BA440593-CEB4-48CE-B97C-E189B72D826E.jpg?type=w275",
  "i18n": {
   "ko": {
    "name": "선비고을",
    "desc": "",
    "address": "전북특별자치도 남원시 양림길 68"
   }
  },
  "rating": 4.2,
  "rcount": 20
 },
 {
  "section": "food",
  "name_ko": "선유도밤바다",
  "district": "군산시",
  "category": "한식·백반",
  "lat": 35.8251588751,
  "lng": 126.4154879708,
  "phone": "",
  "thumb": "http://tong.visitkorea.or.kr/cms/resource/83/2929683_image3_1.jpg",
  "i18n": {
   "ko": {
    "name": "선유도밤바다",
    "desc": "",
    "address": "전북특별자치도 군산시 선유도3길 33-4 선유3구 경로당"
   }
  },
  "rating": 4.0,
  "rcount": 53
 },
 {
  "section": "food",
  "name_ko": "선은재카페",
  "district": "부안군",
  "category": "카페·베이커리",
  "lat": 35.7393629939,
  "lng": 126.7379613578,
  "phone": "",
  "thumb": "http://tong.visitkorea.or.kr/cms/resource/86/2905186_image3_1.jpeg",
  "i18n": {
   "ko": {
    "name": "선은재카페",
    "desc": "",
    "address": "전북특별자치도 부안군 선은3길 25-15"
   }
  },
  "rating": 4.2,
  "rcount": 11
 },
 {
  "section": "food",
  "name_ko": "성미당",
  "district": "전주시",
  "category": "한식·백반",
  "lat": 35.817402783,
  "lng": 127.1454619294,
  "phone": "",
  "thumb": "https://t1.daumcdn.net/local/kakaomapPhoto/review/47d372a0d0269c6d049509eaa4fc9bb4d80a0ab9?original",
  "i18n": {
   "ko": {
    "name": "성미당",
    "desc": "",
    "address": "전북특별자치도 전주시 완산구 전라감영5길 19-9"
   }
  },
  "rating": 2.8,
  "rcount": 95
 },
 {
  "section": "food",
  "name_ko": "세계로가든",
  "district": "진안군",
  "category": "한식·백반",
  "lat": 35.7758669246,
  "lng": 127.3672683028,
  "phone": "",
  "thumb": "http://tong.visitkorea.or.kr/cms/resource/81/2844081_image3_1.jpg",
  "i18n": {
   "ko": {
    "name": "세계로가든",
    "desc": "",
    "address": "전북특별자치도 진안군 전진로 2759 세계로가든"
   }
  },
  "rating": 4.3,
  "rcount": 3
 },
 {
  "section": "food",
  "name_ko": "소씨네 흥부골 남원추어탕",
  "district": "남원시",
  "category": "면·국물",
  "lat": 35.4597652512,
  "lng": 127.6052305365,
  "phone": "",
  "thumb": "https://t1.kakaocdn.net/mystore/6596A0770BBE406DA995C8FFAA802B5E",
  "i18n": {
   "ko": {
    "name": "소씨네 흥부골 남원추어탕",
    "desc": "",
    "address": "전북특별자치도 남원시 인월면 천왕봉로 62-8"
   }
  },
  "rating": 4.4,
  "rcount": 50
 },
 {
  "section": "food",
  "name_ko": "소야",
  "district": "완주군",
  "category": "한식·백반",
  "lat": 35.730026014,
  "lng": 127.1112339198,
  "phone": "",
  "thumb": "http://tong.visitkorea.or.kr/cms/resource/75/2837275_image3_1.jpg",
  "i18n": {
   "ko": {
    "name": "소야",
    "desc": "",
    "address": "전북특별자치도 완주군 모악산길 78-4"
   }
  },
  "rating": 3.7,
  "rcount": 26
 },
 {
  "section": "food",
  "name_ko": "소프라",
  "district": "김제시",
  "category": "카페·베이커리",
  "lat": 35.8163362565,
  "lng": 126.9859289397,
  "phone": "",
  "thumb": "http://tong.visitkorea.or.kr/cms/resource/48/2899948_image3_1.jpg",
  "i18n": {
   "ko": {
    "name": "소프라",
    "desc": "",
    "address": "전북특별자치도 김제시 콩쥐팥쥐로 779-35"
   }
  },
  "rating": 3.3,
  "rcount": 15
 },
 {
  "section": "food",
  "name_ko": "솔가",
  "district": "전주시",
  "category": "한식·백반",
  "lat": 35.8288491822,
  "lng": 127.1730730621,
  "phone": "",
  "thumb": "https://t1.kakaocdn.net/mystore/D5BBD04CD4554593B75525078FC52445",
  "i18n": {
   "ko": {
    "name": "솔가",
    "desc": "",
    "address": "전북특별자치도 전주시 덕진구 아중로 219"
   }
  }
 },
 {
  "section": "food",
  "name_ko": "송가",
  "district": "전주시",
  "category": "한식·백반",
  "lat": 35.7987039469,
  "lng": 127.0898673658,
  "phone": "",
  "thumb": "http://tong.visitkorea.or.kr/cms/resource/83/2899083_image3_1.jpeg",
  "i18n": {
   "ko": {
    "name": "송가",
    "desc": "",
    "address": "전북특별자치도 전주시 완산구 쑥고개로 217 (삼천동3가)"
   }
  },
  "rating": 4.0,
  "rcount": 27
 },
 {
  "section": "food",
  "name_ko": "송가짬뽕",
  "district": "군산시",
  "category": "중식",
  "lat": 35.9689864577,
  "lng": 126.7166767939,
  "phone": "",
  "thumb": "http://tong.visitkorea.or.kr/cms/resource/54/2924754_image3_1.jpg",
  "i18n": {
   "ko": {
    "name": "송가짬뽕",
    "desc": "",
    "address": "전북특별자치도 군산시 동수송안길 55 (수송동)"
   }
  },
  "rating": 4.2,
  "rcount": 106
 },
 {
  "section": "food",
  "name_ko": "수복회관",
  "district": "전주시",
  "category": "해산물·회",
  "lat": 35.8466184732,
  "lng": 127.1206939259,
  "phone": "",
  "thumb": "https://t1.daumcdn.net/local/kakaomapPhoto/review/010677a05f0deafd3c6ae4033ac10264b05c3159?original",
  "i18n": {
   "ko": {
    "name": "수복회관",
    "desc": "",
    "address": "전북특별자치도 전주시 덕진구 덕진연못3길 8"
   }
  },
  "rating": 3.6,
  "rcount": 7
 },
 {
  "section": "food",
  "name_ko": "수송반점",
  "district": "군산시",
  "category": "중식",
  "lat": 35.9717999663,
  "lng": 126.7131881444,
  "phone": "",
  "thumb": "http://tong.visitkorea.or.kr/cms/resource/88/2866888_image3_1.jpg",
  "i18n": {
   "ko": {
    "name": "수송반점",
    "desc": "",
    "address": "전북특별자치도 군산시 동메3길 23 수송반점"
   }
  },
  "rating": 3.4,
  "rcount": 293
 },
 {
  "section": "food",
  "name_ko": "순정축협 한우명품관",
  "district": "정읍시",
  "category": "고기·구이",
  "lat": 35.5543946793,
  "lng": 126.8747205782,
  "phone": "",
  "thumb": "http://tong.visitkorea.or.kr/cms/resource/26/2838026_image3_1.jpg",
  "i18n": {
   "ko": {
    "name": "순정축협 한우명품관",
    "desc": "",
    "address": "전북특별자치도 정읍시 내장산로 14 순정축협 참예우 한우프라자"
   }
  }
 },
 {
  "section": "food",
  "name_ko": "순창맛집",
  "district": "순창군",
  "category": "한식·백반",
  "lat": 35.3685753113,
  "lng": 127.1099405718,
  "phone": "",
  "thumb": "https://t1.daumcdn.net/local/kakaomapPhoto/review/ee06c08178ac8d69fe9ee69a9843c4a54db35afd?original",
  "i18n": {
   "ko": {
    "name": "순창맛집",
    "desc": "",
    "address": "전북특별자치도 순창군 순창읍 민속마을길 6-3"
   }
  },
  "rating": 3.6,
  "rcount": 9
 },
 {
  "section": "food",
  "name_ko": "스위트인디아",
  "district": "군산시",
  "category": "양식·세계요리",
  "lat": 35.9860261027,
  "lng": 126.7121712006,
  "phone": "",
  "thumb": "https://t1.daumcdn.net/local/kakaomapPhoto/review/53c5d48e9dbbfccc758ebcf10d031dd71122af06?original",
  "i18n": {
   "ko": {
    "name": "스위트인디아",
    "desc": "",
    "address": "전북특별자치도 군산시 우체통거리1길 14-1 (신창동)"
   }
  },
  "rating": 2.5,
  "rcount": 45
 },
 {
  "section": "food",
  "name_ko": "슨슨카페",
  "district": "완주군",
  "category": "카페·베이커리",
  "lat": 35.8694903721,
  "lng": 127.2517177744,
  "phone": "",
  "thumb": "http://tong.visitkorea.or.kr/cms/resource/95/2857195_image3_1.jpg",
  "i18n": {
   "ko": {
    "name": "슨슨카페",
    "desc": "",
    "address": "전북특별자치도 완주군 원암로 82"
   }
  },
  "rating": 2.2,
  "rcount": 6
 },
 {
  "section": "food",
  "name_ko": "슬지제빵소",
  "district": "부안군",
  "category": "카페·베이커리",
  "lat": 35.5947551918,
  "lng": 126.6182757021,
  "phone": "",
  "thumb": "http://tong.visitkorea.or.kr/cms/resource/52/2840152_image3_1.jpg",
  "i18n": {
   "ko": {
    "name": "슬지제빵소",
    "desc": "",
    "address": "전북특별자치도 부안군 청자로 1076 슬지제빵소"
   }
  }
 },
 {
  "section": "food",
  "name_ko": "시골삼계탕전문점",
  "district": "정읍시",
  "category": "한식·백반",
  "lat": 35.5834910915,
  "lng": 126.8580018775,
  "phone": "",
  "thumb": "http://tong.visitkorea.or.kr/cms/resource/39/2905639_image3_1.jpg",
  "i18n": {
   "ko": {
    "name": "시골삼계탕전문점",
    "desc": "",
    "address": "전북특별자치도 정읍시 수성3로 39-7 시골삼계탕전문점"
   }
  },
  "rating": 4.9,
  "rcount": 15
 },
 {
  "section": "food",
  "name_ko": "시장비빔밥",
  "district": "익산시",
  "category": "한식·백반",
  "lat": 36.0059611671,
  "lng": 126.9452665117,
  "phone": "",
  "thumb": "http://tong.visitkorea.or.kr/cms/resource/86/2837886_image3_1.jpg",
  "i18n": {
   "ko": {
    "name": "시장비빔밥",
    "desc": "",
    "address": "전북특별자치도 익산시 황등7길 25 황등시장"
   }
  },
  "rating": 3.7,
  "rcount": 101
 },
 {
  "section": "food",
  "name_ko": "신가네칼국수",
  "district": "군산시",
  "category": "면·국물",
  "lat": 36.014743074,
  "lng": 126.7592440229,
  "phone": "",
  "thumb": "https://postfiles.pstatic.net/MjAyNjA2MTJfMjc5/MDAxNzgxMjYxMjI5OTc4.l5fEUVHDGl6uvMZy5GO7DNX4-A4uC2Udlo8AcCF5b7wg.gER2WYTWqZnxnx1X9q5GnCUfEgy1_Yp8iDkqdfie7w4g.JPEG/KakaoTalk_20260612_191554508_26.jpg?type=w773",
  "i18n": {
   "ko": {
    "name": "신가네칼국수",
    "desc": "",
    "address": "전북특별자치도 군산시 성산면 철새로 31"
   }
  },
  "rating": 3.9,
  "rcount": 8
 },
 {
  "section": "food",
  "name_ko": "신덕식당",
  "district": "고창군",
  "category": "한식·백반",
  "lat": 35.5080786152,
  "lng": 126.599748982,
  "phone": "",
  "thumb": "http://tong.visitkorea.or.kr/cms/resource/78/781878_image3_1.jpg",
  "i18n": {
   "ko": {
    "name": "신덕식당",
    "desc": "",
    "address": "전북특별자치도 고창군 아산면 선운사로 8"
   }
  },
  "rating": 4.1,
  "rcount": 25
 },
 {
  "section": "food",
  "name_ko": "신돈조선별관",
  "district": "전주시",
  "category": "한식·백반",
  "lat": 35.8355983305,
  "lng": 127.1682594248,
  "phone": "",
  "thumb": "http://tong.visitkorea.or.kr/cms/resource/81/2870881_image3_1.jpg",
  "i18n": {
   "ko": {
    "name": "신돈조선별관",
    "desc": "",
    "address": "전북특별자치도 전주시 덕진구 석소로 90-9"
   }
  },
  "rating": 3.5,
  "rcount": 24
 },
 {
  "section": "food",
  "name_ko": "신생반점",
  "district": "부안군",
  "category": "중식",
  "lat": 35.7290252795,
  "lng": 126.7378560759,
  "phone": "",
  "thumb": "http://tong.visitkorea.or.kr/cms/resource/64/2840164_image3_1.jpg",
  "i18n": {
   "ko": {
    "name": "신생반점",
    "desc": "",
    "address": "전북특별자치도 부안군 낭주길 7"
   }
  },
  "rating": 3.4,
  "rcount": 55
 },
 {
  "section": "food",
  "name_ko": "심원첫집",
  "district": "남원시",
  "category": "한식·백반",
  "lat": 35.4105701439,
  "lng": 127.4076964891,
  "phone": "",
  "thumb": "http://tong.visitkorea.or.kr/cms/resource/76/2851476_image3_1.jpg",
  "i18n": {
   "ko": {
    "name": "심원첫집",
    "desc": "",
    "address": "전북특별자치도 남원시 모정길 21-3 심원첫집"
   }
  },
  "rating": 3.5,
  "rcount": 40
 },
 {
  "section": "food",
  "name_ko": "씨아전복",
  "district": "정읍시",
  "category": "한식·백반",
  "lat": 35.5605882362,
  "lng": 126.8638908277,
  "phone": "",
  "thumb": "http://tong.visitkorea.or.kr/cms/resource/04/2847504_image3_1.jpg",
  "i18n": {
   "ko": {
    "name": "씨아전복",
    "desc": "",
    "address": "전북특별자치도 정읍시 상사2길 30"
   }
  },
  "rating": 3.8,
  "rcount": 52
 },
 {
  "section": "food",
  "name_ko": "씨플랫 송천에코점",
  "district": "전주시",
  "category": "카페·베이커리",
  "lat": 35.8706604692,
  "lng": 127.1372862632,
  "phone": "",
  "thumb": "http://tong.visitkorea.or.kr/cms/resource/71/2783671_image2_1.jpg",
  "i18n": {
   "ko": {
    "name": "씨플랫 송천에코점",
    "desc": "",
    "address": "전북특별자치도 전주시 덕진구 화암4길 60 (송천동2가)"
   }
  },
  "rating": 4.0,
  "rcount": 22
 },
 {
  "section": "food",
  "name_ko": "아리랑",
  "district": "군산시",
  "category": "한식·백반",
  "lat": 35.989734031,
  "lng": 126.7132460082,
  "phone": "",
  "thumb": "https://t1.daumcdn.net/local/kakaomapPhoto/review/994bbec908519f53c4d4fd08b09d967305070f98?original",
  "i18n": {
   "ko": {
    "name": "아리랑",
    "desc": "",
    "address": "전북특별자치도 군산시 해망로 224"
   }
  },
  "rating": 2.8,
  "rcount": 22
 },
 {
  "section": "food",
  "name_ko": "아리울해물짬뽕",
  "district": "군산시",
  "category": "해산물·회",
  "lat": 35.9401755227,
  "lng": 126.5337466801,
  "phone": "",
  "thumb": "http://tong.visitkorea.or.kr/cms/resource/69/2923769_image3_1.jpg",
  "i18n": {
   "ko": {
    "name": "아리울해물짬뽕",
    "desc": "",
    "address": "전북특별자치도 군산시 비응동로 65 아리울짜장일번지"
   }
  },
  "rating": 3.2,
  "rcount": 55
 },
 {
  "section": "food",
  "name_ko": "아우어인어스",
  "district": "군산시",
  "category": "카페·베이커리",
  "lat": 35.9647562472,
  "lng": 126.708605403,
  "phone": "",
  "thumb": "http://tong.visitkorea.or.kr/cms/resource/80/2794380_image3_1.JPG",
  "i18n": {
   "ko": {
    "name": "아우어인어스",
    "desc": "",
    "address": "전북특별자치도 군산시 서수송1길 18-3"
   }
  },
  "rating": 4.3,
  "rcount": 6
 },
 {
  "section": "food",
  "name_ko": "아울카페",
  "district": "김제시",
  "category": "카페·베이커리",
  "lat": 35.7834268973,
  "lng": 127.031420188,
  "phone": "",
  "thumb": "http://tong.visitkorea.or.kr/cms/resource/24/2899924_image3_1.jpg",
  "i18n": {
   "ko": {
    "name": "아울카페",
    "desc": "",
    "address": "전북특별자치도 김제시 월전로 62-9"
   }
  },
  "rating": 3.6,
  "rcount": 19
 },
 {
  "section": "food",
  "name_ko": "아중리 육전골 본점",
  "district": "전주시",
  "category": "한식·백반",
  "lat": 35.8289269392,
  "lng": 127.1724036753,
  "phone": "",
  "thumb": "http://tong.visitkorea.or.kr/cms/resource/28/2841828_image3_1.jpg",
  "i18n": {
   "ko": {
    "name": "아중리 육전골 본점",
    "desc": "",
    "address": "전북특별자치도 전주시 덕진구 아중1길 24"
   }
  }
 },
 {
  "section": "food",
  "name_ko": "안마 족욕 카페 전망",
  "district": "전주시",
  "category": "카페·베이커리",
  "lat": 35.814636557,
  "lng": 127.1527724628,
  "phone": "",
  "thumb": "http://tong.visitkorea.or.kr/cms/resource/83/3066283_image3_1.jpg",
  "i18n": {
   "ko": {
    "name": "안마 족욕 카페 전망",
    "desc": "",
    "address": "전북특별자치도 전주시 완산구 은행로 61 (교동)"
   }
  },
  "rating": 2.0,
  "rcount": 28
 },
 {
  "section": "food",
  "name_ko": "알땅카페 (전, 핀아드레 카페)",
  "district": "부안군",
  "category": "카페·베이커리",
  "lat": 35.7452822068,
  "lng": 126.7639033377,
  "phone": "",
  "thumb": "http://tong.visitkorea.or.kr/cms/resource/02/2840502_image3_1.jpg",
  "i18n": {
   "ko": {
    "name": "알땅카페 (전, 핀아드레 카페)",
    "desc": "",
    "address": "전북특별자치도 부안군 동진남로 256-1"
   }
  }
 },
 {
  "section": "food",
  "name_ko": "압강옥",
  "district": "군산시",
  "category": "한식·백반",
  "lat": 35.9580353325,
  "lng": 126.7402027511,
  "phone": "",
  "thumb": "https://t1.daumcdn.net/local/kakaomapPhoto/review/82e06f67b18f9afaf77067e0b6a36c9324165573?original",
  "i18n": {
   "ko": {
    "name": "압강옥",
    "desc": "",
    "address": "전북특별자치도 군산시 삼수길 46"
   }
  },
  "rating": 3.2,
  "rcount": 38
 },
 {
  "section": "food",
  "name_ko": "양자강",
  "district": "정읍시",
  "category": "중식",
  "lat": 35.5667068743,
  "lng": 126.8573190336,
  "phone": "",
  "thumb": "http://tong.visitkorea.or.kr/cms/resource/92/2842192_image3_1.jpg",
  "i18n": {
   "ko": {
    "name": "양자강",
    "desc": "",
    "address": "전북특별자치도 정읍시 우암로 57 양자강 중화식당"
   }
  },
  "rating": 3.8,
  "rcount": 104
 },
 {
  "section": "food",
  "name_ko": "엄가네시골집24시얼큰한뼈해장국",
  "district": "전주시",
  "category": "면·국물",
  "lat": 35.8387084264,
  "lng": 127.1301516239,
  "phone": "",
  "thumb": "http://tong.visitkorea.or.kr/cms/resource/59/2870859_image3_1.jpg",
  "i18n": {
   "ko": {
    "name": "엄가네시골집24시얼큰한뼈해장국",
    "desc": "",
    "address": "전북특별자치도 전주시 덕진구 기린대로 419"
   }
  },
  "rating": 3.6,
  "rcount": 83
 },
 {
  "section": "food",
  "name_ko": "여무누리 한우치즈",
  "district": "임실군",
  "category": "고기·구이",
  "lat": 35.641081093,
  "lng": 127.302288715,
  "phone": "",
  "thumb": "http://tong.visitkorea.or.kr/cms/resource/11/2910711_image3_1.jpg",
  "i18n": {
   "ko": {
    "name": "여무누리 한우치즈",
    "desc": "",
    "address": "전북특별자치도 임실군 치즈마을2길 36-3 여무누리"
   }
  },
  "rating": 3.8,
  "rcount": 5
 },
 {
  "section": "food",
  "name_ko": "연기식당",
  "district": "고창군",
  "category": "한식·백반",
  "lat": 35.5086341069,
  "lng": 126.59970175,
  "phone": "",
  "thumb": "http://tong.visitkorea.or.kr/cms/resource/81/2796981_image2_1.jpg",
  "i18n": {
   "ko": {
    "name": "연기식당",
    "desc": "",
    "address": "전북특별자치도 고창군 아산면 선운대로 2727"
   }
  },
  "rating": 3.4,
  "rcount": 17
 },
 {
  "section": "food",
  "name_ko": "연꽃두부",
  "district": "진안군",
  "category": "한식·백반",
  "lat": 35.7794420266,
  "lng": 127.3963072971,
  "phone": "",
  "thumb": "http://tong.visitkorea.or.kr/cms/resource/90/2844090_image3_1.jpg",
  "i18n": {
   "ko": {
    "name": "연꽃두부",
    "desc": "",
    "address": "전북특별자치도 진안군 진안읍 전진로 3071-21"
   }
  }
 },
 {
  "section": "food",
  "name_ko": "연와미당",
  "district": "전주시",
  "category": "한식·백반",
  "lat": 35.8045038827,
  "lng": 127.1242808184,
  "phone": "",
  "thumb": "http://tong.visitkorea.or.kr/cms/resource/92/2899092_image3_1.jpg",
  "i18n": {
   "ko": {
    "name": "연와미당",
    "desc": "",
    "address": "전북특별자치도 전주시 완산구 백제대로 128 연와미당"
   }
  },
  "rating": 3.5,
  "rcount": 52
 },
 {
  "section": "food",
  "name_ko": "영화원",
  "district": "군산시",
  "category": "중식",
  "lat": 35.9889424116,
  "lng": 126.7107184774,
  "phone": "",
  "thumb": "http://tong.visitkorea.or.kr/cms/resource/76/2877176_image3_1.jpg",
  "i18n": {
   "ko": {
    "name": "영화원",
    "desc": "",
    "address": "전북특별자치도 군산시 구영5길 112 (영화동)"
   }
  },
  "rating": 3.7,
  "rcount": 53
 },
 {
  "section": "food",
  "name_ko": "예촌본가",
  "district": "무주군",
  "category": "한식·백반",
  "lat": 35.9074755135,
  "lng": 127.7563941504,
  "phone": "",
  "thumb": "http://tong.visitkorea.or.kr/cms/resource/39/2796839_image2_1.jpg",
  "i18n": {
   "ko": {
    "name": "예촌본가",
    "desc": "",
    "address": "전북특별자치도 무주군 설천면 만선1로 90"
   }
  },
  "rating": 3.5,
  "rcount": 32
 },
 {
  "section": "food",
  "name_ko": "옛날집 풍천장어본가",
  "district": "고창군",
  "category": "해산물·회",
  "lat": 35.5039151148,
  "lng": 126.5947273112,
  "phone": "",
  "thumb": "http://tong.visitkorea.or.kr/cms/resource/67/2796967_image2_1.jpg",
  "i18n": {
   "ko": {
    "name": "옛날집 풍천장어본가",
    "desc": "",
    "address": "전북특별자치도 고창군 아산면 선운사로 77"
   }
  }
 },
 {
  "section": "food",
  "name_ko": "옛날팥죽집",
  "district": "전주시",
  "category": "한식·백반",
  "lat": 35.8178551249,
  "lng": 127.1233416646,
  "phone": "",
  "thumb": "https://postfiles.pstatic.net/MjAyNDEyMTdfMTQ0/MDAxNzM0NDE3NzAxMTUy.w9BxP43_miBlw_BgPlTQqhvqzh-cES6R92Mu79-EfCYg.JW79jVFQ-k95E8jPIjn664qOuSLcSHSKsWDfnLqK6xwg.JPEG/IMG_6817.jpg?type=w773",
  "i18n": {
   "ko": {
    "name": "옛날팥죽집",
    "desc": "",
    "address": "전북특별자치도 전주시 완산구 백제대로 276"
   }
  },
  "rating": 3.9,
  "rcount": 8
 },
 {
  "section": "food",
  "name_ko": "오늘여기",
  "district": "김제시",
  "category": "카페·베이커리",
  "lat": 35.8125339743,
  "lng": 126.9895537159,
  "phone": "",
  "thumb": "http://tong.visitkorea.or.kr/cms/resource/13/2783613_image3_1.jpg",
  "i18n": {
   "ko": {
    "name": "오늘여기",
    "desc": "",
    "address": "전북특별자치도 김제시 금구면 상사길 50"
   }
  },
  "rating": 3.2,
  "rcount": 48
 },
 {
  "section": "food",
  "name_ko": "오블릭",
  "district": "전주시",
  "category": "양식·세계요리",
  "lat": 35.8489868926,
  "lng": 127.0771199662,
  "phone": "",
  "thumb": "http://tong.visitkorea.or.kr/cms/resource/57/2877657_image3_1.jpg",
  "i18n": {
   "ko": {
    "name": "오블릭",
    "desc": "",
    "address": "전북특별자치도 전주시 덕진구 만성북1길 7"
   }
  }
 },
 {
  "section": "food",
  "name_ko": "오원집",
  "district": "전주시",
  "category": "한식·백반",
  "lat": 35.8260878243,
  "lng": 127.1407732313,
  "phone": "",
  "thumb": "https://t1.daumcdn.net/cfile/193340424F431FE737",
  "i18n": {
   "ko": {
    "name": "오원집",
    "desc": "",
    "address": "전북특별자치도 전주시 완산구 공북로 82 (태평동)"
   }
  },
  "rating": 4.2,
  "rcount": 126
 },
 {
  "section": "food",
  "name_ko": "오장동함흥면옥 숯불갈비",
  "district": "남원시",
  "category": "고기·구이",
  "lat": 35.4173886118,
  "lng": 127.3958473597,
  "phone": "",
  "thumb": "https://postfiles.pstatic.net/MjAyNjA3MTBfMjI2/MDAxNzgzNjkwNTc2MDUy.UPYK5dbGPDNj9hVdSwj1-Z7KL8nkjITMNxd1wUYrUW0g.xs0aeUqPJJUrImJTTGF5RSR4b2evg5ebqF5B7okwYEgg.JPEG/output%EF%BC%BF215266611.jpg?type=w966",
  "i18n": {
   "ko": {
    "name": "오장동함흥면옥 숯불갈비",
    "desc": "",
    "address": "전북특별자치도 남원시 용성로 221-8 (도통동)"
   }
  },
  "rating": 3.6,
  "rcount": 10
 },
 {
  "section": "food",
  "name_ko": "오죽",
  "district": "군산시",
  "category": "일식",
  "lat": 35.9594343631,
  "lng": 126.6928069531,
  "phone": "",
  "thumb": "http://tong.visitkorea.or.kr/cms/resource/32/2866932_image3_1.jpg",
  "i18n": {
   "ko": {
    "name": "오죽",
    "desc": "",
    "address": "전북특별자치도 군산시 한밭로 17 (나운동)"
   }
  },
  "rating": 4.3,
  "rcount": 65
 },
 {
  "section": "food",
  "name_ko": "옥정호산장",
  "district": "임실군",
  "category": "한식·백반",
  "lat": 35.5940024562,
  "lng": 127.1045908121,
  "phone": "",
  "thumb": "http://tong.visitkorea.or.kr/cms/resource/04/2780004_image2_1.jpg",
  "i18n": {
   "ko": {
    "name": "옥정호산장",
    "desc": "",
    "address": "전북특별자치도 임실군 운암면 운정길 7"
   }
  },
  "rating": 4.4,
  "rcount": 106
 },
 {
  "section": "food",
  "name_ko": "옥쭹가든",
  "district": "임실군",
  "category": "카페·베이커리",
  "lat": 35.6186357835,
  "lng": 127.1052206755,
  "phone": "",
  "thumb": "http://tong.visitkorea.or.kr/cms/resource/54/2837954_image3_1.jpg",
  "i18n": {
   "ko": {
    "name": "옥쭹가든",
    "desc": "",
    "address": "전북특별자치도 임실군 국사봉로 10 목정가든"
   }
  },
  "rating": 4.1,
  "rcount": 52
 },
 {
  "section": "food",
  "name_ko": "옥천골한정식",
  "district": "순창군",
  "category": "한식·백반",
  "lat": 35.3709838889,
  "lng": 127.1400489559,
  "phone": "",
  "thumb": "http://tong.visitkorea.or.kr/cms/resource/15/3055915_image3_1.jpg",
  "i18n": {
   "ko": {
    "name": "옥천골한정식",
    "desc": "",
    "address": "전북특별자치도 순창군 순창읍 경천1로 78"
   }
  },
  "rating": 2.6,
  "rcount": 55
 },
 {
  "section": "food",
  "name_ko": "온새미로",
  "district": "군산시",
  "category": "한식·백반",
  "lat": 35.9677195661,
  "lng": 126.6950065429,
  "phone": "",
  "thumb": "https://t1.daumcdn.net/local/kakaomapPhoto/review/f3f39d78dbb43bd22ac4b5b70dba45c4bbb7b66b?original",
  "i18n": {
   "ko": {
    "name": "온새미로",
    "desc": "",
    "address": "전북특별자치도 군산시 신설2길 5-6"
   }
  },
  "rating": 3.0,
  "rcount": 2
 },
 {
  "section": "food",
  "name_ko": "왕산반점",
  "district": "군산시",
  "category": "중식",
  "lat": 35.9735023447,
  "lng": 126.7011863957,
  "phone": "",
  "thumb": "http://tong.visitkorea.or.kr/cms/resource/73/2752473_image2_1.jpg",
  "i18n": {
   "ko": {
    "name": "왕산반점",
    "desc": "",
    "address": "전북특별자치도 군산시 대학로 209"
   }
  }
 },
 {
  "section": "food",
  "name_ko": "우리밀",
  "district": "군산시",
  "category": "중식",
  "lat": 35.9952859456,
  "lng": 126.8618048037,
  "phone": "",
  "thumb": "http://tong.visitkorea.or.kr/cms/resource/21/2924721_image3_1.jpg",
  "i18n": {
   "ko": {
    "name": "우리밀",
    "desc": "",
    "address": "전북특별자치도 군산시 동군산로 863 임피축성한우"
   }
  },
  "rating": 3.4,
  "rcount": 24
 },
 {
  "section": "food",
  "name_ko": "운일암송어횟집",
  "district": "진안군",
  "category": "해산물·회",
  "lat": 35.9674377732,
  "lng": 127.422463875,
  "phone": "",
  "thumb": "https://t1.kakaocdn.net/mystore/D913481F9816444C92F56F5E23DB7887",
  "i18n": {
   "ko": {
    "name": "운일암송어횟집",
    "desc": "",
    "address": "전북특별자치도 진안군 주천면 동상주천로 2094-53"
   }
  },
  "rating": 4.3,
  "rcount": 23
 },
 {
  "section": "food",
  "name_ko": "원조미륵산순두부",
  "district": "익산시",
  "category": "한식·백반",
  "lat": 36.0116063357,
  "lng": 127.0242981949,
  "phone": "",
  "thumb": "http://tong.visitkorea.or.kr/cms/resource/88/2796188_image3_1.jpg",
  "i18n": {
   "ko": {
    "name": "원조미륵산순두부",
    "desc": "",
    "address": "전북특별자치도 익산시 금마면 미륵사지로 397"
   }
  },
  "rating": 3.1,
  "rcount": 62
 },
 {
  "section": "food",
  "name_ko": "원조진안흑돼지",
  "district": "전주시",
  "category": "고기·구이",
  "lat": 35.8317655054,
  "lng": 127.1724008233,
  "phone": "",
  "thumb": "http://tong.visitkorea.or.kr/cms/resource/40/2870840_image3_1.jpg",
  "i18n": {
   "ko": {
    "name": "원조진안흑돼지",
    "desc": "",
    "address": "전북특별자치도 전주시 덕진구 정언신로 173-1"
   }
  },
  "rating": 2.9,
  "rcount": 32
 },
 {
  "section": "food",
  "name_ko": "원평지평선청보리한우촌",
  "district": "김제시",
  "category": "고기·구이",
  "lat": 35.715833974,
  "lng": 126.9960334221,
  "phone": "",
  "thumb": "http://tong.visitkorea.or.kr/cms/resource/68/2877468_image3_1.jpg",
  "i18n": {
   "ko": {
    "name": "원평지평선청보리한우촌",
    "desc": "",
    "address": "전북특별자치도 김제시 모악로 17"
   }
  },
  "rating": 4.2,
  "rcount": 108
 },
 {
  "section": "food",
  "name_ko": "육모정",
  "district": "남원시",
  "category": "한식·백반",
  "lat": 35.4078506652,
  "lng": 127.388028854,
  "phone": "",
  "thumb": "http://tong.visitkorea.or.kr/cms/resource/60/2899760_image3_1.jpg",
  "i18n": {
   "ko": {
    "name": "육모정",
    "desc": "",
    "address": "전북특별자치도 남원시 숲정이1길 4"
   }
  }
 },
 {
  "section": "food",
  "name_ko": "육일식당",
  "district": "전주시",
  "category": "한식·백반",
  "lat": 35.7920522629,
  "lng": 127.1093602485,
  "phone": "",
  "thumb": "https://t1.daumcdn.net/local/kakaomapPhoto/review/e8222dea6db238acded409104c4806f1646bd033?original",
  "i18n": {
   "ko": {
    "name": "육일식당",
    "desc": "",
    "address": "전북특별자치도 전주시 완산구 천잠로 17"
   }
  },
  "rating": 3.3,
  "rcount": 114
 },
 {
  "section": "food",
  "name_ko": "은빛가든",
  "district": "김제시",
  "category": "한식·백반",
  "lat": 35.835104989,
  "lng": 126.9072687964,
  "phone": "",
  "thumb": "http://tong.visitkorea.or.kr/cms/resource/01/1023801_image3_1.jpg",
  "i18n": {
   "ko": {
    "name": "은빛가든",
    "desc": "",
    "address": "전북특별자치도 김제시 하흥로 468-12"
   }
  },
  "rating": 4.5,
  "rcount": 8
 },
 {
  "section": "food",
  "name_ko": "이성당",
  "district": "군산시",
  "category": "카페·베이커리",
  "lat": 35.9870898531,
  "lng": 126.7111823722,
  "phone": "",
  "thumb": "http://tong.visitkorea.or.kr/cms/resource/17/3423117_image3_1.png",
  "i18n": {
   "ko": {
    "name": "이성당",
    "desc": "",
    "address": "전북특별자치도 군산시 중앙로 177"
   }
  },
  "rating": 3.6,
  "rcount": 1131
 },
 {
  "section": "food",
  "name_ko": "이오일스페이스",
  "district": "정읍시",
  "category": "카페·베이커리",
  "lat": 35.5387633243,
  "lng": 126.8867088007,
  "phone": "",
  "thumb": "http://tong.visitkorea.or.kr/cms/resource/85/3423385_image3_1.jpg",
  "i18n": {
   "ko": {
    "name": "이오일스페이스",
    "desc": "",
    "address": "전북특별자치도 정읍시 내장산로 222 (금붕동)"
   }
  },
  "rating": 4.6,
  "rcount": 18
 },
 {
  "section": "food",
  "name_ko": "이즈피자",
  "district": "임실군",
  "category": "양식·세계요리",
  "lat": 35.6124673143,
  "lng": 127.2817162855,
  "phone": "",
  "thumb": "http://tong.visitkorea.or.kr/cms/resource/88/2910788_image3_1.jpg",
  "i18n": {
   "ko": {
    "name": "이즈피자",
    "desc": "",
    "address": "전북특별자치도 임실군 중동로 35"
   }
  },
  "rating": 3.5,
  "rcount": 33
 },
 {
  "section": "food",
  "name_ko": "익산돈가스",
  "district": "익산시",
  "category": "일식",
  "lat": 36.0044852355,
  "lng": 127.0421578985,
  "phone": "",
  "thumb": "http://tong.visitkorea.or.kr/cms/resource/05/2855405_image3_1.jpg",
  "i18n": {
   "ko": {
    "name": "익산돈가스",
    "desc": "",
    "address": "전북특별자치도 익산시 미륵사지로 220"
   }
  },
  "rating": 3.9,
  "rcount": 50
 },
 {
  "section": "food",
  "name_ko": "일송정",
  "district": "전주시",
  "category": "한식·백반",
  "lat": 35.8146803941,
  "lng": 127.1179783359,
  "phone": "",
  "thumb": "http://tong.visitkorea.or.kr/cms/resource/13/2870813_image3_1.jpg",
  "i18n": {
   "ko": {
    "name": "일송정",
    "desc": "",
    "address": "전북특별자치도 전주시 완산구 중화산로 49"
   }
  },
  "rating": 4.4,
  "rcount": 88
 },
 {
  "section": "food",
  "name_ko": "일품회집",
  "district": "군산시",
  "category": "한식·백반",
  "lat": 35.9698032106,
  "lng": 126.7271452812,
  "phone": "",
  "thumb": "http://tong.visitkorea.or.kr/cms/resource/96/2923696_image3_1.jpg",
  "i18n": {
   "ko": {
    "name": "일품회집",
    "desc": "",
    "address": "전북특별자치도 군산시 문화로 194 (미장동)"
   }
  },
  "rating": 4.0,
  "rcount": 51
 },
 {
  "section": "food",
  "name_ko": "일풍식당",
  "district": "군산시",
  "category": "한식·백반",
  "lat": 35.9717498618,
  "lng": 126.7067387221,
  "phone": "",
  "thumb": "https://t1.daumcdn.net/local/kakaomapPhoto/review/a639435d623acc4c5cc9e1efc547c2842c301a61?original",
  "i18n": {
   "ko": {
    "name": "일풍식당",
    "desc": "",
    "address": "전북특별자치도 군산시 서흥1길 9"
   }
  },
  "rating": 4.1,
  "rcount": 18
 },
 {
  "section": "food",
  "name_ko": "일흥옥",
  "district": "군산시",
  "category": "한식·백반",
  "lat": 35.9852400296,
  "lng": 126.7091714895,
  "phone": "",
  "thumb": "http://tong.visitkorea.or.kr/cms/resource/60/2866960_image3_1.jpg",
  "i18n": {
   "ko": {
    "name": "일흥옥",
    "desc": "",
    "address": "전북특별자치도 군산시 구영7길 25 (월명동)"
   }
  },
  "rating": 4.3,
  "rcount": 134
 },
 {
  "section": "food",
  "name_ko": "임실맛소",
  "district": "임실군",
  "category": "한식·백반",
  "lat": 35.6313849683,
  "lng": 127.3021473141,
  "phone": "",
  "thumb": "http://tong.visitkorea.or.kr/cms/resource/74/3423874_image3_1.jpg",
  "i18n": {
   "ko": {
    "name": "임실맛소",
    "desc": "",
    "address": "전북특별자치도 임실군 성수면 도인2길 45"
   }
  },
  "rating": 3.2,
  "rcount": 9
 },
 {
  "section": "food",
  "name_ko": "자매갈비전골",
  "district": "전주시",
  "category": "고기·구이",
  "lat": 35.8198804174,
  "lng": 127.153461153,
  "phone": "",
  "thumb": "http://tong.visitkorea.or.kr/cms/resource/87/2870787_image3_1.jpg",
  "i18n": {
   "ko": {
    "name": "자매갈비전골",
    "desc": "",
    "address": "전북특별자치도 전주시 완산구 기린대로 121"
   }
  }
 },
 {
  "section": "food",
  "name_ko": "자연을 닮은 사람들",
  "district": "남원시",
  "category": "한식·백반",
  "lat": 35.4027741392,
  "lng": 127.4270644252,
  "phone": "",
  "thumb": "https://t1.daumcdn.net/local/kakaomapPhoto/review/cf3bb0c59a579e8a8489bf9b25e0b00656376212?original",
  "i18n": {
   "ko": {
    "name": "자연을 닮은 사람들",
    "desc": "",
    "address": "전북특별자치도 남원시 주천면 원천로 345-33"
   }
  },
  "rating": 4.0,
  "rcount": 16
 },
 {
  "section": "food",
  "name_ko": "작은항구",
  "district": "고창군",
  "category": "한식·백반",
  "lat": 35.5425296954,
  "lng": 126.566287205,
  "phone": "",
  "thumb": "http://tong.visitkorea.or.kr/cms/resource/61/2904261_image3_1.jpg",
  "i18n": {
   "ko": {
    "name": "작은항구",
    "desc": "",
    "address": "전북특별자치도 고창군 상전1길 45 작은항구"
   }
  },
  "rating": 3.9,
  "rcount": 18
 },
 {
  "section": "food",
  "name_ko": "장국명가",
  "district": "군산시",
  "category": "한식·백반",
  "lat": 35.9778527212,
  "lng": 126.7522344957,
  "phone": "",
  "thumb": "https://t1.daumcdn.net/local/kakaomapPhoto/review/637773ed5fa25234929c0b5ef6634500b52c2ec5?original",
  "i18n": {
   "ko": {
    "name": "장국명가",
    "desc": "",
    "address": "전북특별자치도 군산시 새터길 25"
   }
  },
  "rating": 2.8,
  "rcount": 17
 },
 {
  "section": "food",
  "name_ko": "장수농장",
  "district": "전주시",
  "category": "한식·백반",
  "lat": 35.8181797531,
  "lng": 127.1039850456,
  "phone": "",
  "thumb": "https://t1.kakaocdn.net/mystore/A1A9253ABB3C414E8B390658115E0764",
  "i18n": {
   "ko": {
    "name": "장수농장",
    "desc": "",
    "address": "전북특별자치도 전주시 완산구 홍산북로 21-7 (효자동2가)"
   }
  },
  "rating": 4.4,
  "rcount": 30
 },
 {
  "section": "food",
  "name_ko": "장수버섯마을",
  "district": "전주시",
  "category": "한식·백반",
  "lat": 35.8181939964,
  "lng": 127.1245443265,
  "phone": "",
  "thumb": "https://t1.daumcdn.net/local/kakaomapPhoto/review/fbb6d8cb6e755bcd1fc1056e5611a1e672a8a13a?original",
  "i18n": {
   "ko": {
    "name": "장수버섯마을",
    "desc": "",
    "address": "전북특별자치도 전주시 완산구 영경1길 15"
   }
  },
  "rating": 4.0,
  "rcount": 64
 },
 {
  "section": "food",
  "name_ko": "전라도음식이야기",
  "district": "전주시",
  "category": "한식·백반",
  "lat": 35.8329626008,
  "lng": 127.1729146352,
  "phone": "",
  "thumb": "http://tong.visitkorea.or.kr/cms/resource/64/2840564_image3_1.jpg",
  "i18n": {
   "ko": {
    "name": "전라도음식이야기",
    "desc": "",
    "address": "전북특별자치도 전주시 덕진구 아중6길 14-6"
   }
  },
  "rating": 3.5,
  "rcount": 97
 },
 {
  "section": "food",
  "name_ko": "전라회관",
  "district": "전주시",
  "category": "해산물·회",
  "lat": 35.8005905727,
  "lng": 127.1320274536,
  "phone": "",
  "thumb": "https://t1.daumcdn.net/local/kakaomapPhoto/review/1c36118be42690273767b9e0033fc96f3be7b570?original",
  "i18n": {
   "ko": {
    "name": "전라회관",
    "desc": "",
    "address": "전북특별자치도 전주시 완산구 안행4길 5"
   }
  },
  "rating": 4.0,
  "rcount": 4
 },
 {
  "section": "food",
  "name_ko": "전복돌솥밥",
  "district": "정읍시",
  "category": "한식·백반",
  "lat": 35.5553696821,
  "lng": 126.8813755177,
  "phone": "",
  "thumb": "http://tong.visitkorea.or.kr/cms/resource/32/2857332_image3_1.jpg",
  "i18n": {
   "ko": {
    "name": "전복돌솥밥",
    "desc": "",
    "address": "전북특별자치도 정읍시 금붕1길 69-8"
   }
  },
  "rating": 4.4,
  "rcount": 13
 },
 {
  "section": "food",
  "name_ko": "전주밥상다잡수소",
  "district": "전주시",
  "category": "한식·백반",
  "lat": 35.838425096,
  "lng": 127.1284601152,
  "phone": "",
  "thumb": "http://tong.visitkorea.or.kr/cms/resource/71/2930171_image3_1.jpg",
  "i18n": {
   "ko": {
    "name": "전주밥상다잡수소",
    "desc": "",
    "address": "전북특별자치도 전주시 덕진구 백제대로 528 (금암동)"
   }
  },
  "rating": 3.4,
  "rcount": 36
 },
 {
  "section": "food",
  "name_ko": "전주식당",
  "district": "무주군",
  "category": "한식·백반",
  "lat": 35.8984824575,
  "lng": 127.7769564578,
  "phone": "",
  "thumb": "https://t1.kakaocdn.net/mystore/3E01C8CDBF5845A58BC63236B59F0387",
  "i18n": {
   "ko": {
    "name": "전주식당",
    "desc": "",
    "address": "전북특별자치도 무주군 설천면 구천동1로 101"
   }
  },
  "rating": 3.6,
  "rcount": 40
 },
 {
  "section": "food",
  "name_ko": "정원산책",
  "district": "무주군",
  "category": "카페·베이커리",
  "lat": 35.8519973748,
  "lng": 127.694148384,
  "phone": "",
  "thumb": "http://tong.visitkorea.or.kr/cms/resource/51/2877551_image3_1.jpg",
  "i18n": {
   "ko": {
    "name": "정원산책",
    "desc": "",
    "address": "전북특별자치도 무주군 덕유산로 468-37"
   }
  },
  "rating": 4.5,
  "rcount": 49
 },
 {
  "section": "food",
  "name_ko": "정원한정식",
  "district": "정읍시",
  "category": "한식·백반",
  "lat": 35.4941413072,
  "lng": 126.9277090756,
  "phone": "",
  "thumb": "https://t1.daumcdn.net/local/kakaomapPhoto/review/d01f53c842bc8c8cdc7bd759b5f46ddb6e99923e?original",
  "i18n": {
   "ko": {
    "name": "정원한정식",
    "desc": "",
    "address": "전북특별자치도 정읍시 내장산로 925"
   }
  },
  "rating": 3.0,
  "rcount": 23
 },
 {
  "section": "food",
  "name_ko": "정인가든",
  "district": "전주시",
  "category": "한식·백반",
  "lat": 35.8433990583,
  "lng": 127.1012707394,
  "phone": "",
  "thumb": "http://tong.visitkorea.or.kr/cms/resource/26/2870726_image3_1.jpg",
  "i18n": {
   "ko": {
    "name": "정인가든",
    "desc": "",
    "address": "전북특별자치도 전주시 덕진구 추천로 43"
   }
  }
 },
 {
  "section": "food",
  "name_ko": "제이포렛",
  "district": "정읍시",
  "category": "카페·베이커리",
  "lat": 35.5391877662,
  "lng": 126.8567753388,
  "phone": "",
  "thumb": "http://tong.visitkorea.or.kr/cms/resource/38/2859138_image3_1.jpg",
  "i18n": {
   "ko": {
    "name": "제이포렛",
    "desc": "",
    "address": "전북특별자치도 정읍시 정읍사로 388 들꽃마당"
   }
  },
  "rating": 4.6,
  "rcount": 29
 },
 {
  "section": "food",
  "name_ko": "조점례남문피순대",
  "district": "전주시",
  "category": "한식·백반",
  "lat": 35.8126227999,
  "lng": 127.147167459,
  "phone": "",
  "thumb": "http://tong.visitkorea.or.kr/cms/resource/57/2759757_image3_1.jpg",
  "i18n": {
   "ko": {
    "name": "조점례남문피순대",
    "desc": "",
    "address": "전북특별자치도 전주시 완산구 풍남문2길 39 (전동3가)"
   }
  },
  "rating": 3.5,
  "rcount": 533
 },
 {
  "section": "food",
  "name_ko": "족보설렁탕",
  "district": "전주시",
  "category": "면·국물",
  "lat": 35.8495431138,
  "lng": 127.1191856502,
  "phone": "",
  "thumb": "http://tong.visitkorea.or.kr/cms/resource/08/2870708_image3_1.jpg",
  "i18n": {
   "ko": {
    "name": "족보설렁탕",
    "desc": "",
    "address": "전북특별자치도 전주시 덕진구 송천중앙로 25"
   }
  },
  "rating": 4.4,
  "rcount": 45
 },
 {
  "section": "food",
  "name_ko": "종가집",
  "district": "익산시",
  "category": "한식·백반",
  "lat": 35.9521263418,
  "lng": 126.9858170778,
  "phone": "",
  "thumb": "http://tong.visitkorea.or.kr/cms/resource/18/2855418_image3_1.jpg",
  "i18n": {
   "ko": {
    "name": "종가집",
    "desc": "",
    "address": "전북특별자치도 익산시 동서로 477 종가집"
   }
  },
  "rating": 4.0,
  "rcount": 51
 },
 {
  "section": "food",
  "name_ko": "지리산 나물밥",
  "district": "남원시",
  "category": "한식·백반",
  "lat": 35.4573654453,
  "lng": 127.6008171,
  "phone": "",
  "thumb": "https://t1.daumcdn.net/local/kakaomapPhoto/review/f1b8cfce9bb4b08f33f2eaf917d8f844bc1421b9?original",
  "i18n": {
   "ko": {
    "name": "지리산 나물밥",
    "desc": "",
    "address": "전북특별자치도 남원시 인월면 달오름길 22-5"
   }
  },
  "rating": 4.2,
  "rcount": 33
 },
 {
  "section": "food",
  "name_ko": "지리산한우마을/축산물마트",
  "district": "남원시",
  "category": "고기·구이",
  "lat": 35.4609150037,
  "lng": 127.5985088774,
  "phone": "",
  "thumb": "",
  "i18n": {
   "ko": {
    "name": "지리산한우마을/축산물마트",
    "desc": "",
    "address": "전북특별자치도 남원시 인월면 인월2길 99"
   }
  }
 },
 {
  "section": "food",
  "name_ko": "진가진설렁탕",
  "district": "전주시",
  "category": "면·국물",
  "lat": 35.8698244256,
  "lng": 127.1356947603,
  "phone": "",
  "thumb": "http://tong.visitkorea.or.kr/cms/resource/78/2870678_image3_1.jpg",
  "i18n": {
   "ko": {
    "name": "진가진설렁탕",
    "desc": "",
    "address": "전북특별자치도 전주시 덕진구 동부대로 1022"
   }
  },
  "rating": 3.0,
  "rcount": 59
 },
 {
  "section": "food",
  "name_ko": "진갈비",
  "district": "군산시",
  "category": "고기·구이",
  "lat": 35.9894589909,
  "lng": 126.7090630558,
  "phone": "",
  "thumb": "https://t1.kakaocdn.net/fiy_reboot/place/5E3C81B973E3494D817DD19623394C43",
  "i18n": {
   "ko": {
    "name": "진갈비",
    "desc": "",
    "address": "전북특별자치도 군산시 구영1길 108-7"
   }
  },
  "rating": 3.9,
  "rcount": 99
 },
 {
  "section": "food",
  "name_ko": "진미반점",
  "district": "전주시",
  "category": "중식",
  "lat": 35.8433943206,
  "lng": 127.1483970995,
  "phone": "",
  "thumb": "http://tong.visitkorea.or.kr/cms/resource/63/2870663_image3_1.jpg",
  "i18n": {
   "ko": {
    "name": "진미반점",
    "desc": "",
    "address": "전북특별자치도 전주시 덕진구 명주3길 19-2"
   }
  },
  "rating": 3.8,
  "rcount": 61
 },
 {
  "section": "food",
  "name_ko": "진미반점",
  "district": "전주시",
  "category": "중식",
  "lat": 35.8165556212,
  "lng": 127.1433788036,
  "phone": "",
  "thumb": "http://tong.visitkorea.or.kr/cms/resource/52/3444052_image3_1.jpg",
  "i18n": {
   "ko": {
    "name": "진미반점",
    "desc": "",
    "address": "전북특별자치도 전주시 완산구 전라감영3길 12-3 (중앙동2가)"
   }
  }
 },
 {
  "section": "food",
  "name_ko": "진성원",
  "district": "군산시",
  "category": "중식",
  "lat": 35.9813046718,
  "lng": 126.7269227814,
  "phone": "",
  "thumb": "http://tong.visitkorea.or.kr/cms/resource/79/2866979_image3_1.jpg",
  "i18n": {
   "ko": {
    "name": "진성원",
    "desc": "",
    "address": "전북특별자치도 군산시 구암3.1로 70-1 진성원"
   }
  },
  "rating": 3.6,
  "rcount": 78
 },
 {
  "section": "food",
  "name_ko": "진안고원한국관",
  "district": "진안군",
  "category": "한식·백반",
  "lat": 35.773923568,
  "lng": 127.4167750699,
  "phone": "",
  "thumb": "http://tong.visitkorea.or.kr/cms/resource/50/2905750_image3_1.jpg",
  "i18n": {
   "ko": {
    "name": "진안고원한국관",
    "desc": "",
    "address": "전북특별자치도 진안군 마이산로 150"
   }
  },
  "rating": 3.9,
  "rcount": 21
 },
 {
  "section": "food",
  "name_ko": "진안관",
  "district": "진안군",
  "category": "한식·백반",
  "lat": 35.7927717196,
  "lng": 127.4334453143,
  "phone": "",
  "thumb": "http://tong.visitkorea.or.kr/cms/resource/44/219944_image3_1.jpg",
  "i18n": {
   "ko": {
    "name": "진안관",
    "desc": "",
    "address": "전북특별자치도 진안군 진안읍 진장로 21"
   }
  },
  "rating": 4.0,
  "rcount": 13
 },
 {
  "section": "food",
  "name_ko": "차오프라야 전주점",
  "district": "전주시",
  "category": "분식·주점",
  "lat": 35.8550776929,
  "lng": 127.0670929229,
  "phone": "",
  "thumb": "http://tong.visitkorea.or.kr/cms/resource/69/2877669_image3_1.jpg",
  "i18n": {
   "ko": {
    "name": "차오프라야 전주점",
    "desc": "",
    "address": "전북특별자치도 전주시 덕진구 장동길 16 (장동)"
   }
  },
  "rating": 4.0,
  "rcount": 75
 },
 {
  "section": "food",
  "name_ko": "참예우명품프라자 도청점",
  "district": "전주시",
  "category": "한식·백반",
  "lat": 35.8187602397,
  "lng": 127.1038128233,
  "phone": "",
  "thumb": "http://tong.visitkorea.or.kr/cms/resource/80/2877680_image3_1.jpg",
  "i18n": {
   "ko": {
    "name": "참예우명품프라자 도청점",
    "desc": "",
    "address": "전북특별자치도 전주시 완산구 효자로 170 (효자동2가)"
   }
  }
 },
 {
  "section": "food",
  "name_ko": "참치일번가 중화산본점",
  "district": "전주시",
  "category": "한식·백반",
  "lat": 35.8240265757,
  "lng": 127.1193251939,
  "phone": "",
  "thumb": "http://tong.visitkorea.or.kr/cms/resource/06/2899106_image3_1.jpg",
  "i18n": {
   "ko": {
    "name": "참치일번가 중화산본점",
    "desc": "",
    "address": "전북특별자치도 전주시 완산구 메너머3길 32 (중화산동2가)"
   }
  },
  "rating": 3.8,
  "rcount": 11
 },
 {
  "section": "food",
  "name_ko": "천마루",
  "district": "무주군",
  "category": "중식",
  "lat": 35.8329326323,
  "lng": 127.6806389816,
  "phone": "",
  "thumb": "http://tong.visitkorea.or.kr/cms/resource/04/3584004_image3_1.jpg",
  "i18n": {
   "ko": {
    "name": "천마루",
    "desc": "",
    "address": "전북특별자치도 무주군 안성면 원통사로 373-7"
   }
  },
  "rating": 3.5,
  "rcount": 91
 },
 {
  "section": "food",
  "name_ko": "천지가든",
  "district": "무주군",
  "category": "한식·백반",
  "lat": 36.003518844,
  "lng": 127.6832508306,
  "phone": "",
  "thumb": "https://t1.kakaocdn.net/mystore/0A079B15166D4F6E8645E7A810884A2F",
  "i18n": {
   "ko": {
    "name": "천지가든",
    "desc": "",
    "address": "전북특별자치도 무주군 무주읍 괴목로 1313"
   }
  },
  "rating": 2.9,
  "rcount": 65
 },
 {
  "section": "food",
  "name_ko": "청기와한식",
  "district": "무주군",
  "category": "한식·백반",
  "lat": 35.8980575015,
  "lng": 127.7767009369,
  "phone": "",
  "thumb": "https://postfiles.pstatic.net/MjAyNjA3MDlfMjQy/MDAxNzgzNTY5NDI2MDM2.URDLP3pwUouX5dyeflrKL96myPmJ2n6qcHhB8M5affIg.AKZI1OUifp3mbcKFjOyZcxe2zDHbTlgWqmFlmwTK77og.JPEG/20260705_111124.jpg?type=w773",
  "i18n": {
   "ko": {
    "name": "청기와한식",
    "desc": "",
    "address": "전북특별자치도 무주군 설천면 구천동1로 111"
   }
  },
  "rating": 3.9,
  "rcount": 16
 },
 {
  "section": "food",
  "name_ko": "청담횟집 본점",
  "district": "군산시",
  "category": "해산물·회",
  "lat": 35.9632288097,
  "lng": 126.718315685,
  "phone": "",
  "thumb": "http://tong.visitkorea.or.kr/cms/resource/94/2866994_image3_1.jpg",
  "i18n": {
   "ko": {
    "name": "청담횟집 본점",
    "desc": "",
    "address": "전북특별자치도 군산시 수송안7길 36 청담횟집"
   }
  }
 },
 {
  "section": "food",
  "name_ko": "청정임실 성미당",
  "district": "임실군",
  "category": "한식·백반",
  "lat": 35.6123172981,
  "lng": 127.2798164575,
  "phone": "",
  "thumb": "https://t1.daumcdn.net/local/kakaomapPhoto/review/dc0573d5b6f13f1105493c630cc09d9b99e5f72c?original",
  "i18n": {
   "ko": {
    "name": "청정임실 성미당",
    "desc": "",
    "address": "전북특별자치도 임실군 임실읍 중동로 16"
   }
  },
  "rating": 3.7,
  "rcount": 6
 },
 {
  "section": "food",
  "name_ko": "청학동버섯전골",
  "district": "전주시",
  "category": "한식·백반",
  "lat": 35.81946047,
  "lng": 127.1216917694,
  "phone": "",
  "thumb": "http://tong.visitkorea.or.kr/cms/resource/17/2899117_image3_1.jpg",
  "i18n": {
   "ko": {
    "name": "청학동버섯전골",
    "desc": "",
    "address": "전북특별자치도 전주시 완산구 효자로 331"
   }
  },
  "rating": 3.7,
  "rcount": 26
 },
 {
  "section": "food",
  "name_ko": "초원장",
  "district": "임실군",
  "category": "한식·백반",
  "lat": 35.6704050484,
  "lng": 127.2738404737,
  "phone": "",
  "thumb": "https://t1.daumcdn.net/local/kakaomapPhoto/review/7e8a726c839b360d3c335a96c4b00ba0e6788e1a?original",
  "i18n": {
   "ko": {
    "name": "초원장",
    "desc": "",
    "address": "전북특별자치도 임실군 관촌면 사선2길 46-14"
   }
  },
  "rating": 4.3,
  "rcount": 14
 },
 {
  "section": "food",
  "name_ko": "초포가든",
  "district": "완주군",
  "category": "한식·백반",
  "lat": 35.8752297659,
  "lng": 127.1587231229,
  "phone": "",
  "thumb": "https://t1.daumcdn.net/local/kakaomapPhoto/review/63be1dfec67af7264bff3ccfa247542e35b08160?original",
  "i18n": {
   "ko": {
    "name": "초포가든",
    "desc": "",
    "address": "전북특별자치도 완주군 용진읍 구억명덕로 19"
   }
  },
  "rating": 3.4,
  "rcount": 13
 },
 {
  "section": "food",
  "name_ko": "촌집",
  "district": "김제시",
  "category": "한식·백반",
  "lat": 35.7217923091,
  "lng": 127.0354908692,
  "phone": "",
  "thumb": "http://tong.visitkorea.or.kr/cms/resource/38/2851538_image3_1.jpg",
  "i18n": {
   "ko": {
    "name": "촌집",
    "desc": "",
    "address": "전북특별자치도 김제시 금산사로 561"
   }
  },
  "rating": 3.8,
  "rcount": 24
 },
 {
  "section": "food",
  "name_ko": "최동민양푼갈비 군산본점",
  "district": "군산시",
  "category": "고기·구이",
  "lat": 35.9628232861,
  "lng": 126.7174657717,
  "phone": "",
  "thumb": "http://tong.visitkorea.or.kr/cms/resource/19/2871119_image3_1.jpg",
  "i18n": {
   "ko": {
    "name": "최동민양푼갈비 군산본점",
    "desc": "",
    "address": "전북특별자치도 군산시 수송안5길 4"
   }
  },
  "rating": 3.4,
  "rcount": 53
 },
 {
  "section": "food",
  "name_ko": "춘원회관",
  "district": "남원시",
  "category": "해산물·회",
  "lat": 35.4020957248,
  "lng": 127.3859708516,
  "phone": "",
  "thumb": "https://t1.daumcdn.net/local/kakaomapPhoto/review/dd1d917d131bca6315ba0dcbc0cd0ef70b6dd4d0?original",
  "i18n": {
   "ko": {
    "name": "춘원회관",
    "desc": "",
    "address": "전북특별자치도 남원시 양림길 14-10"
   }
  },
  "rating": 4.0,
  "rcount": 50
 },