[
 {
  "section": "food",
  "name_ko": "가고파부치기",
  "district": "평창군",
  "category": "한식·백반",
  "lat": 37.3669090429,
  "lng": 128.3949096743,
  "phone": "",
  "thumb": "http://tong.visitkorea.or.kr/cms/resource/85/2788385_image3_1.jpg",
  "i18n": {
   "ko": {
    "name": "가고파부치기",
    "desc": "",
    "address": "강원특별자치도 평창군 평창읍 평창시장1길 14"
   }
  }
 },
 {
  "section": "food",
  "name_ko": "가람집옹심이",
  "district": "강릉시",
  "category": "한식·백반",
  "lat": 37.7611934162,
  "lng": 128.9393320379,
  "phone": "",
  "thumb": "http://tong.visitkorea.or.kr/cms/resource/29/2868829_image3_1.jpeg",
  "i18n": {
   "ko": {
    "name": "가람집옹심이",
    "desc": "",
    "address": "강원특별자치도 강릉시 공항길30번길 16"
   }
  }
 },
 {
  "section": "food",
  "name_ko": "가리왕산가든",
  "district": "평창군",
  "category": "한식·백반",
  "lat": 37.4546831081,
  "lng": 128.4403251905,
  "phone": "",
  "thumb": "http://tong.visitkorea.or.kr/cms/resource/52/2801752_image3_1.jpg",
  "i18n": {
   "ko": {
    "name": "가리왕산가든",
    "desc": "",
    "address": "강원특별자치도 평창군 대화면 가평로 5"
   }
  }
 },
 {
  "section": "food",
  "name_ko": "가방속커피향기",
  "district": "평창군",
  "category": "카페·베이커리",
  "lat": 37.6156049797,
  "lng": 128.3775010263,
  "phone": "",
  "thumb": "http://tong.visitkorea.or.kr/cms/resource/03/2782503_image3_1.jpg",
  "i18n": {
   "ko": {
    "name": "가방속커피향기",
    "desc": "",
    "address": "강원특별자치도 평창군 봉평면 기풍3길 29"
   }
  }
 },
 {
  "section": "food",
  "name_ko": "가보자순대국",
  "district": "춘천시",
  "category": "한식·백반",
  "lat": 37.9264347789,
  "lng": 127.7461684086,
  "phone": "",
  "thumb": "http://tong.visitkorea.or.kr/cms/resource/95/2891695_image3_1.jpg",
  "i18n": {
   "ko": {
    "name": "가보자순대국",
    "desc": "",
    "address": "강원특별자치도 춘천시 율문2길 11"
   }
  }
 },
 {
  "section": "food",
  "name_ko": "가시머리식당",
  "district": "평창군",
  "category": "한식·백반",
  "lat": 37.6849678755,
  "lng": 128.7438214416,
  "phone": "",
  "thumb": "http://tong.visitkorea.or.kr/cms/resource/14/2795014_image2_1.JPG",
  "i18n": {
   "ko": {
    "name": "가시머리식당",
    "desc": "",
    "address": "강원특별자치도 평창군 대관령면 대관령마루길 369"
   }
  }
 },
 {
  "section": "food",
  "name_ko": "갈매기다방",
  "district": "강릉시",
  "category": "카페·베이커리",
  "lat": 37.870373343,
  "lng": 128.8430040037,
  "phone": "",
  "thumb": "http://tong.visitkorea.or.kr/cms/resource/78/2684778_image2_1.jpg",
  "i18n": {
   "ko": {
    "name": "갈매기다방",
    "desc": "",
    "address": "강원특별자치도 강릉시 연곡면 영진길 63"
   }
  }
 },
 {
  "section": "food",
  "name_ko": "갈매기횟집",
  "district": "고성군",
  "category": "해산물·회",
  "lat": 38.2722044028,
  "lng": 128.556050809,
  "phone": "",
  "thumb": "http://tong.visitkorea.or.kr/cms/resource/64/2874164_image3_1.jpg",
  "i18n": {
   "ko": {
    "name": "갈매기횟집",
    "desc": "",
    "address": "강원특별자치도 고성군 아야진해변길 80 동해활어, 처갓집양념통닭"
   }
  }
 },
 {
  "section": "food",
  "name_ko": "감나무",
  "district": "삼척시",
  "category": "한식·백반",
  "lat": 37.4474951083,
  "lng": 129.1634632686,
  "phone": "",
  "thumb": "http://tong.visitkorea.or.kr/cms/resource/42/2877942_image3_1.jpg",
  "i18n": {
   "ko": {
    "name": "감나무",
    "desc": "",
    "address": "강원특별자치도 삼척시 대학로 74-7 (교동)"
   }
  }
 },
 {
  "section": "food",
  "name_ko": "감로다원",
  "district": "평창군",
  "category": "카페·베이커리",
  "lat": 37.7167114649,
  "lng": 128.6019054887,
  "phone": "",
  "thumb": "http://tong.visitkorea.or.kr/cms/resource/14/2795214_image3_1.jpg",
  "i18n": {
   "ko": {
    "name": "감로다원",
    "desc": "",
    "address": "강원특별자치도 평창군 진부면 오대산로 152"
   }
  }
 },
 {
  "section": "food",
  "name_ko": "감자바우식당",
  "district": "강릉시",
  "category": "한식·백반",
  "lat": 37.7530768644,
  "lng": 128.8970944271,
  "phone": "",
  "thumb": "http://tong.visitkorea.or.kr/cms/resource/12/2670912_image2_1.jpg",
  "i18n": {
   "ko": {
    "name": "감자바우식당",
    "desc": "",
    "address": "강원특별자치도 강릉시 금성로35번길 4"
   }
  }
 },
 {
  "section": "food",
  "name_ko": "감자적1번지",
  "district": "강릉시",
  "category": "한식·백반",
  "lat": 37.7629321065,
  "lng": 128.9394291976,
  "phone": "",
  "thumb": "",
  "i18n": {
   "ko": {
    "name": "감자적1번지",
    "desc": "",
    "address": "강원특별자치도 강릉시 공항길29번길 7 (병산동)"
   }
  }
 },
 {
  "section": "food",
  "name_ko": "감자적본부",
  "district": "강릉시",
  "category": "한식·백반",
  "lat": 37.7620461009,
  "lng": 128.9396208746,
  "phone": "",
  "thumb": "http://tong.visitkorea.or.kr/cms/resource/55/2868855_image3_1.jpg",
  "i18n": {
   "ko": {
    "name": "감자적본부",
    "desc": "",
    "address": "강원특별자치도 강릉시 공항길30번길 5 (병산동)"
   }
  }
 },
 {
  "section": "food",
  "name_ko": "감천골",
  "district": "강릉시",
  "category": "한식·백반",
  "lat": 37.7666922663,
  "lng": 128.9130203491,
  "phone": "",
  "thumb": "",
  "i18n": {
   "ko": {
    "name": "감천골",
    "desc": "",
    "address": "강원특별자치도 강릉시 성덕포남로152번길 16 (포남동)"
   }
  }
 },
 {
  "section": "food",
  "name_ko": "강가촌",
  "district": "홍천군",
  "category": "한식·백반",
  "lat": 37.7014988643,
  "lng": 127.6950463785,
  "phone": "",
  "thumb": "http://tong.visitkorea.or.kr/cms/resource/70/3043070_image3_1.jpg",
  "i18n": {
   "ko": {
    "name": "강가촌",
    "desc": "",
    "address": "강원특별자치도 홍천군 서면 한치골길 1122-54"
   }
  }
 },
 {
  "section": "food",
  "name_ko": "강나루민물장어",
  "district": "강릉시",
  "category": "해산물·회",
  "lat": 37.7648500577,
  "lng": 128.874251676,
  "phone": "",
  "thumb": "",
  "i18n": {
   "ko": {
    "name": "강나루민물장어",
    "desc": "",
    "address": "강원특별자치도 강릉시 교동광장로 88 (교동)"
   }
  }
 },
 {
  "section": "food",
  "name_ko": "강남식당",
  "district": "평창군",
  "category": "한식·백반",
  "lat": 37.3679561882,
  "lng": 128.3972205463,
  "phone": "",
  "thumb": "",
  "i18n": {
   "ko": {
    "name": "강남식당",
    "desc": "",
    "address": "강원특별자치도 평창군 평창읍 노성로 126-27"
   }
  }
 },
 {
  "section": "food",
  "name_ko": "강남흑염소전문점",
  "district": "강릉시",
  "category": "한식·백반",
  "lat": 37.8434350648,
  "lng": 128.8567647081,
  "phone": "",
  "thumb": "",
  "i18n": {
   "ko": {
    "name": "강남흑염소전문점",
    "desc": "",
    "address": "강원특별자치도 강릉시 사천면 해안로 1121-133"
   }
  }
 },
 {
  "section": "food",
  "name_ko": "강릉 빵명장",
  "district": "강릉시",
  "category": "카페·베이커리",
  "lat": 37.7650207722,
  "lng": 128.9403651594,
  "phone": "",
  "thumb": "",
  "i18n": {
   "ko": {
    "name": "강릉 빵명장",
    "desc": "",
    "address": "강원특별자치도 강릉시 성덕로 107 (병산동)"
   }
  }
 },
 {
  "section": "food",
  "name_ko": "강릉 중화짬뽕빵",
  "district": "강릉시",
  "category": "카페·베이커리",
  "lat": 37.7533574475,
  "lng": 128.9001719187,
  "phone": "",
  "thumb": "",
  "i18n": {
   "ko": {
    "name": "강릉 중화짬뽕빵",
    "desc": "",
    "address": "강원특별자치도 강릉시 금성로13번길 17 (성남동)"
   }
  }
 },
 {
  "section": "food",
  "name_ko": "강릉 초당찰떡",
  "district": "강릉시",
  "category": "카페·베이커리",
  "lat": 37.7914644382,
  "lng": 128.9149249652,
  "phone": "",
  "thumb": "http://tong.visitkorea.or.kr/cms/resource/54/2930154_image3_1.JPG",
  "i18n": {
   "ko": {
    "name": "강릉 초당찰떡",
    "desc": "",
    "address": "강원특별자치도 강릉시 초당순두부길77번길 20"
   }
  }
 },
 {
  "section": "food",
  "name_ko": "강릉 한우타운",
  "district": "강릉시",
  "category": "고기·구이",
  "lat": 37.7894287164,
  "lng": 128.9228132064,
  "phone": "",
  "thumb": "",
  "i18n": {
   "ko": {
    "name": "강릉 한우타운",
    "desc": "",
    "address": "강원특별자치도 강릉시 창해로 283 (강문동)"
   }
  }
 },
 {
  "section": "food",
  "name_ko": "강릉79막회",
  "district": "강릉시",
  "category": "한식·백반",
  "lat": 37.7913701078,
  "lng": 128.9202106032,
  "phone": "",
  "thumb": "",
  "i18n": {
   "ko": {
    "name": "강릉79막회",
    "desc": "",
    "address": "강원특별자치도 강릉시 해안로 292 (강문동)"
   }
  }
 },
 {
  "section": "food",
  "name_ko": "강릉가마솥설렁탕",
  "district": "강릉시",
  "category": "면·국물",
  "lat": 37.804373017,
  "lng": 128.8617043626,
  "phone": "",
  "thumb": "",
  "i18n": {
   "ko": {
    "name": "강릉가마솥설렁탕",
    "desc": "",
    "address": "강원특별자치도 강릉시 사천면 동해대로 3566"
   }
  }
 },
 {
  "section": "food",
  "name_ko": "강릉감자옹심 강릉본점",
  "district": "강릉시",
  "category": "한식·백반",
  "lat": 37.7564708737,
  "lng": 128.8949084072,
  "phone": "",
  "thumb": "",
  "i18n": {
   "ko": {
    "name": "강릉감자옹심 강릉본점",
    "desc": "",
    "address": "강원특별자치도 강릉시 토성로 171 (임당동)"
   }
  }
 },
 {
  "section": "food",
  "name_ko": "강릉국시집",
  "district": "강릉시",
  "category": "한식·백반",
  "lat": 37.7598149707,
  "lng": 128.8969303445,
  "phone": "",
  "thumb": "",
  "i18n": {
   "ko": {
    "name": "강릉국시집",
    "desc": "",
    "address": "강원특별자치도 강릉시 강릉대로 244 (교동)"
   }
  }
 },
 {
  "section": "food",
  "name_ko": "강릉궁짬뽕",
  "district": "강릉시",
  "category": "중식",
  "lat": 37.7890065655,
  "lng": 128.9239547835,
  "phone": "",
  "thumb": "http://tong.visitkorea.or.kr/cms/resource/85/2868885_image3_1.jpg",
  "i18n": {
   "ko": {
    "name": "강릉궁짬뽕",
    "desc": "",
    "address": "강원특별자치도 강릉시 창해로 271"
   }
  }
 },
 {
  "section": "food",
  "name_ko": "강릉김군박군횟집",
  "district": "강릉시",
  "category": "해산물·회",
  "lat": 37.7925975964,
  "lng": 128.9126695775,
  "phone": "",
  "thumb": "",
  "i18n": {
   "ko": {
    "name": "강릉김군박군횟집",
    "desc": "",
    "address": "강원특별자치도 강릉시 난설헌로 203-18 (초당동)"
   }
  }
 },
 {
  "section": "food",
  "name_ko": "강릉김밥",
  "district": "강릉시",
  "category": "분식·주점",
  "lat": 37.760034528,
  "lng": 128.9040047003,
  "phone": "",
  "thumb": "",
  "i18n": {
   "ko": {
    "name": "강릉김밥",
    "desc": "",
    "address": "강원특별자치도 강릉시 용지로 121 (옥천동)"
   }
  }
 },
 {
  "section": "food",
  "name_ko": "강릉꼬막비빔밥풍호맛뜨락",
  "district": "강릉시",
  "category": "한식·백반",
  "lat": 37.7433668677,
  "lng": 128.8966392118,
  "phone": "",
  "thumb": "",
  "i18n": {
   "ko": {
    "name": "강릉꼬막비빔밥풍호맛뜨락",
    "desc": "",
    "address": "강원특별자치도 강릉시 임영로 10 (노암동)"
   }
  }
 },
 {
  "section": "food",
  "name_ko": "강릉꼬막집 독도네 본점",
  "district": "강릉시",
  "category": "한식·백반",
  "lat": 37.7593623159,
  "lng": 128.9005411441,
  "phone": "",
  "thumb": "",
  "i18n": {
   "ko": {
    "name": "강릉꼬막집 독도네 본점",
    "desc": "",
    "address": "강원특별자치도 강릉시 옥천로 47 (옥천동)"
   }
  }
 },
 {
  "section": "food",
  "name_ko": "강릉뚝배기",
  "district": "강릉시",
  "category": "한식·백반",
  "lat": 37.7402474791,
  "lng": 128.8809990508,
  "phone": "",
  "thumb": "http://tong.visitkorea.or.kr/cms/resource/55/2684555_image3_1.jpg",
  "i18n": {
   "ko": {
    "name": "강릉뚝배기",
    "desc": "",
    "address": "강원특별자치도 강릉시 남부로 5"
   }
  }
 },
 {
  "section": "food",
  "name_ko": "강릉불고기 초당점",
  "district": "강릉시",
  "category": "고기·구이",
  "lat": 37.7882619117,
  "lng": 128.9088228368,
  "phone": "",
  "thumb": "http://tong.visitkorea.or.kr/cms/resource/37/2845537_image3_1.JPG",
  "i18n": {
   "ko": {
    "name": "강릉불고기 초당점",
    "desc": "",
    "address": "강원특별자치도 강릉시 초당순두부길 2"
   }
  }
 },
 {
  "section": "food",
  "name_ko": "강릉빵다방",
  "district": "강릉시",
  "category": "카페·베이커리",
  "lat": 37.7690615374,
  "lng": 128.9181420362,
  "phone": "",
  "thumb": "http://tong.visitkorea.or.kr/cms/resource/75/3443775_image3_1.JPG",
  "i18n": {
   "ko": {
    "name": "강릉빵다방",
    "desc": "",
    "address": "강원특별자치도 강릉시 남강초교1길 24 (포남동)"
   }
  }
 },
 {
  "section": "food",
  "name_ko": "강릉사임당인절미",
  "district": "강릉시",
  "category": "한식·백반",
  "lat": 37.7944808252,
  "lng": 128.9184939944,
  "phone": "",
  "thumb": "",
  "i18n": {
   "ko": {
    "name": "강릉사임당인절미",
    "desc": "",
    "address": "강원특별자치도 강릉시 창해로 349-2 (강문동)"
   }
  }
 },
 {
  "section": "food",
  "name_ko": "강릉엄지네꼬막집",
  "district": "강릉시",
  "category": "한식·백반",
  "lat": 37.7663533009,
  "lng": 128.9070486753,
  "phone": "",
  "thumb": "http://tong.visitkorea.or.kr/cms/resource/85/2671085_image3_1.jpg",
  "i18n": {
   "ko": {
    "name": "강릉엄지네꼬막집",
    "desc": "",
    "address": "강원특별자치도 강릉시 경강로2255번길 21"
   }
  }
 },
 {
  "section": "food",
  "name_ko": "강릉유환식당",
  "district": "강릉시",
  "category": "한식·백반",
  "lat": 37.7844431324,
  "lng": 128.920291366,
  "phone": "",
  "thumb": "http://tong.visitkorea.or.kr/cms/resource/10/2868910_image3_1.jpg",
  "i18n": {
   "ko": {
    "name": "강릉유환식당",
    "desc": "",
    "address": "강원특별자치도 강릉시 강릉대로587번길 2"
   }
  }
 },
 {
  "section": "food",
  "name_ko": "강릉전복해물뚝배기",
  "district": "강릉시",
  "category": "해산물·회",
  "lat": 37.794897418,
  "lng": 128.9171802111,
  "phone": "",
  "thumb": "http://tong.visitkorea.or.kr/cms/resource/60/3567160_image3_1.jpg",
  "i18n": {
   "ko": {
    "name": "강릉전복해물뚝배기",
    "desc": "",
    "address": "강원특별자치도 강릉시 창해로 361-2 (강문동)"
   }
  }
 },
 {
  "section": "food",
  "name_ko": "강릉짬뽕순두부 동화가든 본점",
  "district": "강릉시",
  "category": "한식·백반",
  "lat": 37.7912255723,
  "lng": 128.9146972153,
  "phone": "",
  "thumb": "http://tong.visitkorea.or.kr/cms/resource/20/3029720_image3_1.jpg",
  "i18n": {
   "ko": {
    "name": "강릉짬뽕순두부 동화가든 본점",
    "desc": "",
    "address": "강원특별자치도 강릉시 초당순두부길77번길 15"
   }
  }
 },
 {
  "section": "food",
  "name_ko": "강릉커피빵 본점",
  "district": "강릉시",
  "category": "카페·베이커리",
  "lat": 37.7966138849,
  "lng": 128.9170884995,
  "phone": "",
  "thumb": "http://tong.visitkorea.or.kr/cms/resource/29/2891829_image3_1.jpg",
  "i18n": {
   "ko": {
    "name": "강릉커피빵 본점",
    "desc": "",
    "address": "강원특별자치도 강릉시 창해로350번길 29 (강문동)"
   }
  }
 },
 {
  "section": "food",
  "name_ko": "강릉풍년갈비",
  "district": "강릉시",
  "category": "고기·구이",
  "lat": 37.7851735851,
  "lng": 128.9193330961,
  "phone": "",
  "thumb": "http://tong.visitkorea.or.kr/cms/resource/59/2845659_image3_1.jpg",
  "i18n": {
   "ko": {
    "name": "강릉풍년갈비",
    "desc": "",
    "address": "강원특별자치도 강릉시 강릉대로587번길 10-5"
   }
  }
 },
 {
  "section": "food",
  "name_ko": "강릉한우마크나인",
  "district": "강릉시",
  "category": "고기·구이",
  "lat": 37.7660339038,
  "lng": 128.9076041907,
  "phone": "",
  "thumb": "http://tong.visitkorea.or.kr/cms/resource/00/2995900_image3_1.JPG",
  "i18n": {
   "ko": {
    "name": "강릉한우마크나인",
    "desc": "",
    "address": "강원특별자치도 강릉시 경강로2255번길 13"
   }
  }
 },
 {
  "section": "food",
  "name_ko": "강릉한우만",
  "district": "강릉시",
  "category": "고기·구이",
  "lat": 37.7646361908,
  "lng": 128.8741211385,
  "phone": "",
  "thumb": "",
  "i18n": {
   "ko": {
    "name": "강릉한우만",
    "desc": "",
    "address": "강원특별자치도 강릉시 정원로 74-23 (교동)"
   }
  }
 },
 {
  "section": "food",
  "name_ko": "강릉한우백화점",
  "district": "강릉시",
  "category": "고기·구이",
  "lat": 37.7231266054,
  "lng": 128.8485497236,
  "phone": "",
  "thumb": "",
  "i18n": {
   "ko": {
    "name": "강릉한우백화점",
    "desc": "",
    "address": "강원특별자치도 강릉시 구정면 회산로 92"
   }
  }
 },
 {
  "section": "food",
  "name_ko": "강문달카페",
  "district": "강릉시",
  "category": "카페·베이커리",
  "lat": 37.7959417503,
  "lng": 128.9176218056,
  "phone": "",
  "thumb": "http://tong.visitkorea.or.kr/cms/resource/07/3458007_image3_1.jpg",
  "i18n": {
   "ko": {
    "name": "강문달카페",
    "desc": "",
    "address": "강원특별자치도 강릉시 창해로350번길 21 (강문동)"
   }
  }
 },
 {
  "section": "food",
  "name_ko": "강변식당",
  "district": "평창군",
  "category": "한식·백반",
  "lat": 37.6071932349,
  "lng": 128.4389429572,
  "phone": "",
  "thumb": "http://tong.visitkorea.or.kr/cms/resource/54/2777854_image2_1.jpg",
  "i18n": {
   "ko": {
    "name": "강변식당",
    "desc": "",
    "address": "강원특별자치도 평창군 용평면 경강로 2017-20"
   }
  }
 },
 {
  "section": "food",
  "name_ko": "강산숯불닭갈비막국수",
  "district": "춘천시",
  "category": "고기·구이",
  "lat": 37.9304293643,
  "lng": 127.778557007,
  "phone": "",
  "thumb": "http://tong.visitkorea.or.kr/cms/resource/66/2919866_image3_1.jpg",
  "i18n": {
   "ko": {
    "name": "강산숯불닭갈비막국수",
    "desc": "",
    "address": "강원특별자치도 춘천시 신북읍 신샘밭로 621"
   }
  }
 },
 {
  "section": "food",
  "name_ko": "강원수산횟집",
  "district": "평창군",
  "category": "해산물·회",
  "lat": 37.3430221851,
  "lng": 128.5031423215,
  "phone": "",
  "thumb": "http://tong.visitkorea.or.kr/cms/resource/79/2787179_image2_1.jpg",
  "i18n": {
   "ko": {
    "name": "강원수산횟집",
    "desc": "",
    "address": "강원특별자치도 평창군 미탄면 송어길 30-4"
   }
  }
 },
 {
  "section": "food",
  "name_ko": "강원한우정육식당",
  "district": "양구군",
  "category": "고기·구이",
  "lat": 38.0791721102,
  "lng": 128.0179335117,
  "phone": "",
  "thumb": "http://tong.visitkorea.or.kr/cms/resource/14/2913414_image3_1.JPG",
  "i18n": {
   "ko": {
    "name": "강원한우정육식당",
    "desc": "",
    "address": "강원특별자치도 양구군 정중앙로 202"
   }
  }
 },
 {
  "section": "food",
  "name_ko": "강촌갈비",
  "district": "평창군",
  "category": "고기·구이",
  "lat": 37.6730324712,
  "lng": 128.7089638364,
  "phone": "",
  "thumb": "http://tong.visitkorea.or.kr/cms/resource/31/2784831_image2_1.jpg",
  "i18n": {
   "ko": {
    "name": "강촌갈비",
    "desc": "",
    "address": "강원특별자치도 평창군 대관령면 횡계2길 9"
   }
  }
 },
 {
  "section": "food",
  "name_ko": "강촌제주산흑돼지",
  "district": "강릉시",
  "category": "고기·구이",
  "lat": 37.7607427988,
  "lng": 128.9050101431,
  "phone": "",
  "thumb": "",
  "i18n": {
   "ko": {
    "name": "강촌제주산흑돼지",
    "desc": "",
    "address": "강원특별자치도 강릉시 용지각길8번길 1 (포남동)"
   }
  }
 },
 {
  "section": "food",
  "name_ko": "개고생",
  "district": "원주시",
  "category": "카페·베이커리",
  "lat": 37.3229501024,
  "lng": 127.9440738019,
  "phone": "",
  "thumb": "http://tong.visitkorea.or.kr/cms/resource/16/2919416_image3_1.jpg",
  "i18n": {
   "ko": {
    "name": "개고생",
    "desc": "",
    "address": "강원특별자치도 원주시 천매봉길 20-9"
   }
  }
 },
 {
  "section": "food",
  "name_ko": "개버랜드",
  "district": "강릉시",
  "category": "카페·베이커리",
  "lat": 37.714108694,
  "lng": 128.8737699532,
  "phone": "",
  "thumb": "http://tong.visitkorea.or.kr/cms/resource/64/2919164_image3_1.jpg",
  "i18n": {
   "ko": {
    "name": "개버랜드",
    "desc": "",
    "address": "강원특별자치도 강릉시 구정면 구정중앙로 155-8"
   }
  }
 },
 {
  "section": "food",
  "name_ko": "개스토랑in위촌길299",
  "district": "강릉시",
  "category": "양식·세계요리",
  "lat": 37.7596277039,
  "lng": 128.8364719082,
  "phone": "",
  "thumb": "http://tong.visitkorea.or.kr/cms/resource/77/2919277_image3_1.jpg",
  "i18n": {
   "ko": {
    "name": "개스토랑in위촌길299",
    "desc": "",
    "address": "강원특별자치도 강릉시 성산면 위촌길 299"
   }
  }
 },
 {
  "section": "food",
  "name_ko": "갤러리밥스",
  "district": "강릉시",
  "category": "카페·베이커리",
  "lat": 37.7872786778,
  "lng": 128.908086822,
  "phone": "",
  "thumb": "http://tong.visitkorea.or.kr/cms/resource/20/2750620_image3_1.jpg",
  "i18n": {
   "ko": {
    "name": "갤러리밥스",
    "desc": "",
    "address": "강원특별자치도 강릉시 난설헌로 144 (포남동)"
   }
  }
 },
 {
  "section": "food",
  "name_ko": "갤러리소풍",
  "district": "강릉시",
  "category": "양식·세계요리",
  "lat": 37.787006641,
  "lng": 128.9159750087,
  "phone": "",
  "thumb": "http://tong.visitkorea.or.kr/cms/resource/89/2684789_image3_1.jpg",
  "i18n": {
   "ko": {
    "name": "갤러리소풍",
    "desc": "",
    "address": "강원특별자치도 강릉시 강릉대로587번길 49-1"
   }
  }
 },
 {
  "section": "food",
  "name_ko": "거동탕수육",
  "district": "동해시",
  "category": "중식",
  "lat": 37.5523904423,
  "lng": 129.1167947716,
  "phone": "",
  "thumb": "http://tong.visitkorea.or.kr/cms/resource/01/2925201_image3_1.jpg",
  "i18n": {
   "ko": {
    "name": "거동탕수육",
    "desc": "",
    "address": "강원특별자치도 동해시 일출로 83"
   }
  }
 },
 {
  "section": "food",
  "name_ko": "거북이서프바",
  "district": "양양군",
  "category": "카페·베이커리",
  "lat": 37.9343620964,
  "lng": 128.7890096704,
  "phone": "",
  "thumb": "http://tong.visitkorea.or.kr/cms/resource/74/2919174_image3_1.jpg",
  "i18n": {
   "ko": {
    "name": "거북이서프바",
    "desc": "",
    "address": "강원특별자치도 양양군 현남면 화상해안길 247"
   }
  }
 },
 {
  "section": "food",
  "name_ko": "건도리",
  "district": "강릉시",
  "category": "한식·백반",
  "lat": 37.7995107058,
  "lng": 128.9137553764,
  "phone": "",
  "thumb": "http://tong.visitkorea.or.kr/cms/resource/46/2684746_image2_1.jpg",
  "i18n": {
   "ko": {
    "name": "건도리",
    "desc": "",
    "address": "강원특별자치도 강릉시 창해로 427"
   }
  }
 },
 {
  "section": "food",
  "name_ko": "게락 회산점",
  "district": "강릉시",
  "category": "카페·베이커리",
  "lat": 37.7422136245,
  "lng": 128.8659197926,
  "phone": "",
  "thumb": "",
  "i18n": {
   "ko": {
    "name": "게락 회산점",
    "desc": "",
    "address": "강원특별자치도 강릉시 회산로383번길 35 (회산동)"
   }
  }
 },
 {
  "section": "food",
  "name_ko": "경강막국수",
  "district": "춘천시",
  "category": "면·국물",
  "lat": 37.8422103958,
  "lng": 127.5509525715,
  "phone": "",
  "thumb": "http://tong.visitkorea.or.kr/cms/resource/39/3046639_image3_1.jpg",
  "i18n": {
   "ko": {
    "name": "경강막국수",
    "desc": "",
    "address": "강원특별자치도 춘천시 남산면 서백길 62-4"
   }
  }
 },
 {
  "section": "food",
  "name_ko": "경기해변횟집",
  "district": "강릉시",
  "category": "해산물·회",
  "lat": 37.8027519269,
  "lng": 128.9101194924,
  "phone": "",
  "thumb": "",
  "i18n": {
   "ko": {
    "name": "경기해변횟집",
    "desc": "",
    "address": "강원특별자치도 강릉시 창해로 473 (강문동)"
   }
  }
 },
 {
  "section": "food",
  "name_ko": "경성포차",
  "district": "강릉시",
  "category": "분식·주점",
  "lat": 37.790600767,
  "lng": 128.9209633368,
  "phone": "",
  "thumb": "",
  "i18n": {
   "ko": {
    "name": "경성포차",
    "desc": "",
    "address": "강원특별자치도 강릉시 해안로 280 (강문동)"
   }
  }
 },
 {
  "section": "food",
  "name_ko": "경포동해횟집",
  "district": "강릉시",
  "category": "해산물·회",
  "lat": 37.803882325,
  "lng": 128.9087556914,
  "phone": "",
  "thumb": "",
  "i18n": {
   "ko": {
    "name": "경포동해횟집",
    "desc": "",
    "address": "강원특별자치도 강릉시 창해로 491 (강문동)"
   }
  }
 },
 {
  "section": "food",
  "name_ko": "경포비치횟집",
  "district": "강릉시",
  "category": "해산물·회",
  "lat": 37.799121874,
  "lng": 128.914344224,
  "phone": "",
  "thumb": "",
  "i18n": {
   "ko": {
    "name": "경포비치횟집",
    "desc": "",
    "address": "강원특별자치도 강릉시 창해로 419 (강문동)"
   }
  }
 },
 {
  "section": "food",
  "name_ko": "경포한미횟집",
  "district": "강릉시",
  "category": "해산물·회",
  "lat": 37.8038545513,
  "lng": 128.9088001327,
  "phone": "",
  "thumb": "http://tong.visitkorea.or.kr/cms/resource/63/2709763_image3_1.jpg",
  "i18n": {
   "ko": {
    "name": "경포한미횟집",
    "desc": "",
    "address": "강원특별자치도 강릉시 창해로 491"
   }
  }
 },
 {
  "section": "food",
  "name_ko": "계륵",
  "district": "춘천시",
  "category": "한식·백반",
  "lat": 37.7435470354,
  "lng": 127.7099215671,
  "phone": "",
  "thumb": "http://tong.visitkorea.or.kr/cms/resource/86/2891986_image3_1.jpg",
  "i18n": {
   "ko": {
    "name": "계륵",
    "desc": "",
    "address": "강원특별자치도 춘천시 남산면 김유정로 351"
   }
  }
 },
 {
  "section": "food",
  "name_ko": "계륵장군 강릉점",
  "district": "강릉시",
  "category": "한식·백반",
  "lat": 37.7573212342,
  "lng": 128.918428485,
  "phone": "",
  "thumb": "",
  "i18n": {
   "ko": {
    "name": "계륵장군 강릉점",
    "desc": "",
    "address": "강원특별자치도 강릉시 입암로148번길 22 (입암동)"
   }
  }
 },
 {
  "section": "food",
  "name_ko": "계방산장",
  "district": "평창군",
  "category": "카페·베이커리",
  "lat": 37.6887565958,
  "lng": 128.4691294344,
  "phone": "",
  "thumb": "http://tong.visitkorea.or.kr/cms/resource/40/2790040_image3_1.jpg",
  "i18n": {
   "ko": {
    "name": "계방산장",
    "desc": "",
    "address": "강원특별자치도 평창군 용평면 운두령로 728-3"
   }
  }
 },
 {
  "section": "food",
  "name_ko": "고기나라",
  "district": "횡성군",
  "category": "고기·구이",
  "lat": 37.483412924,
  "lng": 127.8386508642,
  "phone": "",
  "thumb": "http://tong.visitkorea.or.kr/cms/resource/49/2875549_image3_1.jpg",
  "i18n": {
   "ko": {
    "name": "고기나라",
    "desc": "",
    "address": "강원특별자치도 횡성군 서원로 41"
   }
  }
 },
 {
  "section": "food",
  "name_ko": "고기랑조개랑",
  "district": "강릉시",
  "category": "해산물·회",
  "lat": 37.6863706152,
  "lng": 129.0356784659,
  "phone": "",
  "thumb": "http://tong.visitkorea.or.kr/cms/resource/07/2871107_image3_1.jpg",
  "i18n": {
   "ko": {
    "name": "고기랑조개랑",
    "desc": "",
    "address": "강원특별자치도 강릉시 강동면 헌화로 1029-5"
   }
  }
 },
 {
  "section": "food",
  "name_ko": "고기머꼬 냉면머꼬",
  "district": "평창군",
  "category": "고기·구이",
  "lat": 37.3669229699,
  "lng": 128.3970178176,
  "phone": "",
  "thumb": "http://tong.visitkorea.or.kr/cms/resource/28/2790428_image2_1.JPG",
  "i18n": {
   "ko": {
    "name": "고기머꼬 냉면머꼬",
    "desc": "",
    "address": "강원특별자치도 평창군 평창읍 노산성길 28"
   }
  }
 },
 {
  "section": "food",
  "name_ko": "고단황금막국수 강릉점",
  "district": "강릉시",
  "category": "면·국물",
  "lat": 37.7677330762,
  "lng": 128.8752542745,
  "phone": "",
  "thumb": "",
  "i18n": {
   "ko": {
    "name": "고단황금막국수 강릉점",
    "desc": "",
    "address": "강원특별자치도 강릉시 하슬라로 199 (교동)"
   }
  }
 },
 {
  "section": "food",
  "name_ko": "고려회관",
  "district": "평창군",
  "category": "해산물·회",
  "lat": 37.5850425385,
  "lng": 128.413751452,
  "phone": "",
  "thumb": "http://tong.visitkorea.or.kr/cms/resource/75/2777875_image3_1.jpg",
  "i18n": {
   "ko": {
    "name": "고려회관",
    "desc": "",
    "address": "강원특별자치도 평창군 용평면 금송1길 14"
   }
  }
 },
 {
  "section": "food",
  "name_ko": "고마루",
  "district": "평창군",
  "category": "한식·백반",
  "lat": 37.3419916845,
  "lng": 128.4997732106,
  "phone": "",
  "thumb": "http://tong.visitkorea.or.kr/cms/resource/91/2789891_image3_1.jpg",
  "i18n": {
   "ko": {
    "name": "고마루",
    "desc": "",
    "address": "강원특별자치도 평창군 미탄면 미탄중앙로 45"
   }
  }
 },
 {
  "section": "food",
  "name_ko": "고모네숯불갈비",
  "district": "평창군",
  "category": "고기·구이",
  "lat": 37.5001420494,
  "lng": 128.4562279525,
  "phone": "",
  "thumb": "http://tong.visitkorea.or.kr/cms/resource/97/2783497_image3_1.jpg",
  "i18n": {
   "ko": {
    "name": "고모네숯불갈비",
    "desc": "",
    "address": "강원특별자치도 평창군 대화면 남산1길 11"
   }
  }
 },
 {
  "section": "food",
  "name_ko": "고목",
  "district": "춘천시",
  "category": "양식·세계요리",
  "lat": 37.7901159965,
  "lng": 127.5261035858,
  "phone": "",
  "thumb": "http://tong.visitkorea.or.kr/cms/resource/92/2919892_image3_1.jpg",
  "i18n": {
   "ko": {
    "name": "고목",
    "desc": "",
    "address": "강원특별자치도 춘천시 남산면 남이섬길 1"
   }
  }
 },
 {
  "section": "food",
  "name_ko": "고봉민김밥인 강릉역점",
  "district": "강릉시",
  "category": "분식·주점",
  "lat": 37.7662338052,
  "lng": 128.9037212006,
  "phone": "",
  "thumb": "",
  "i18n": {
   "ko": {
    "name": "고봉민김밥인 강릉역점",
    "desc": "",
    "address": "강원특별자치도 강릉시 강릉대로 337-5 (포남동)"
   }
  }
 },
 {
  "section": "food",
  "name_ko": "고선생 화덕생선구이",
  "district": "강릉시",
  "category": "해산물·회",
  "lat": 37.7909979361,
  "lng": 128.9205911357,
  "phone": "",
  "thumb": "",
  "i18n": {
   "ko": {
    "name": "고선생 화덕생선구이",
    "desc": "",
    "address": "강원특별자치도 강릉시 해안로 286 (강문동)"
   }
  }
 },
 {
  "section": "food",
  "name_ko": "고성생선찜",
  "district": "강릉시",
  "category": "해산물·회",
  "lat": 37.7601514763,
  "lng": 128.9191644424,
  "phone": "",
  "thumb": "http://tong.visitkorea.or.kr/cms/resource/42/2871142_image3_1.jpg",
  "i18n": {
   "ko": {
    "name": "고성생선찜",
    "desc": "",
    "address": "강원특별자치도 강릉시 성덕포남로 56"
   }
  }
 },
 {
  "section": "food",
  "name_ko": "고식당",
  "district": "고성군",
  "category": "한식·백반",
  "lat": 38.2923490724,
  "lng": 128.5454900276,
  "phone": "",
  "thumb": "http://tong.visitkorea.or.kr/cms/resource/99/2874199_image3_1.jpg",
  "i18n": {
   "ko": {
    "name": "고식당",
    "desc": "",
    "address": "강원특별자치도 고성군 교암길 80 사랑만들기"
   }
  }
 },
 {
  "section": "food",
  "name_ko": "고심쌀롱",
  "district": "강릉시",
  "category": "카페·베이커리",
  "lat": 37.8425160591,
  "lng": 128.8737909784,
  "phone": "",
  "thumb": "http://tong.visitkorea.or.kr/cms/resource/56/2919656_image3_1.jpg",
  "i18n": {
   "ko": {
    "name": "고심쌀롱",
    "desc": "",
    "address": "강원특별자치도 강릉시 사천면 진리해변길 131 2층"
   }
  }
 },
 {
  "section": "food",
  "name_ko": "고씨네 동해막국수 강문본점",
  "district": "강릉시",
  "category": "면·국물",
  "lat": 37.7963861364,
  "lng": 128.9172912659,
  "phone": "",
  "thumb": "",
  "i18n": {
   "ko": {
    "name": "고씨네 동해막국수 강문본점",
    "desc": "",
    "address": "강원특별자치도 강릉시 창해로350번길 25 (강문동)"
   }
  }
 },
 {
  "section": "food",
  "name_ko": "고향마을숯불돼지갈비",
  "district": "강릉시",
  "category": "고기·구이",
  "lat": 37.7698307912,
  "lng": 128.9129480356,
  "phone": "",
  "thumb": "",
  "i18n": {
   "ko": {
    "name": "고향마을숯불돼지갈비",
    "desc": "",
    "address": "강원특별자치도 강릉시 성덕포남로182번길 42 (포남동)"
   }
  }
 },
 {
  "section": "food",
  "name_ko": "고향집",
  "district": "인제군",
  "category": "한식·백반",
  "lat": 37.9456602339,
  "lng": 128.3290648523,
  "phone": "",
  "thumb": "http://tong.visitkorea.or.kr/cms/resource/21/2925221_image3_1.jpg",
  "i18n": {
   "ko": {
    "name": "고향집",
    "desc": "",
    "address": "강원특별자치도 인제군 조침령로 115"
   }
  }
 },
 {
  "section": "food",
  "name_ko": "고향촌중화요리",
  "district": "강릉시",
  "category": "중식",
  "lat": 37.6892507776,
  "lng": 129.0325814328,
  "phone": "",
  "thumb": "",
  "i18n": {
   "ko": {
    "name": "고향촌중화요리",
    "desc": "",
    "address": "강원특별자치도 강릉시 강동면 헌화로 1080"
   }
  }
 },
 {
  "section": "food",
  "name_ko": "고향횟집",
  "district": "강릉시",
  "category": "해산물·회",
  "lat": 37.741121617,
  "lng": 128.9843286096,
  "phone": "",
  "thumb": "",
  "i18n": {
   "ko": {
    "name": "고향횟집",
    "desc": "",
    "address": "강원특별자치도 강릉시 강동면 염전길 155"
   }
  }
 },
 {
  "section": "food",
  "name_ko": "곰배령",
  "district": "춘천시",
  "category": "한식·백반",
  "lat": 37.8669495701,
  "lng": 127.7213057735,
  "phone": "",
  "thumb": "",
  "i18n": {
   "ko": {
    "name": "곰배령",
    "desc": "",
    "address": "강원특별자치도 춘천시 춘천로 19"
   }
  }
 },
 {
  "section": "food",
  "name_ko": "곰이네닭갈비",
  "district": "평창군",
  "category": "고기·구이",
  "lat": 37.3673479475,
  "lng": 128.3983843482,
  "phone": "",
  "thumb": "http://tong.visitkorea.or.kr/cms/resource/62/2796162_image2_1.jpg",
  "i18n": {
   "ko": {
    "name": "곰이네닭갈비",
    "desc": "",
    "address": "강원특별자치도 평창군 평창읍 백오로 146-8"
   }
  }
 },
 {
  "section": "food",
  "name_ko": "곱창전골명가도계물닭갈비",
  "district": "강릉시",
  "category": "고기·구이",
  "lat": 37.7147438288,
  "lng": 128.8273213379,
  "phone": "",
  "thumb": "",
  "i18n": {
   "ko": {
    "name": "곱창전골명가도계물닭갈비",
    "desc": "",
    "address": "강원특별자치도 강릉시 성산면 구산길 92"
   }
  }
 },
 {
  "section": "food",
  "name_ko": "곳",
  "district": "강릉시",
  "category": "카페·베이커리",
  "lat": 37.8434325973,
  "lng": 128.8726549418,
  "phone": "",
  "thumb": "http://tong.visitkorea.or.kr/cms/resource/68/2837768_image3_1.JPG",
  "i18n": {
   "ko": {
    "name": "곳",
    "desc": "",
    "address": "강원특별자치도 강릉시 진리해변길 143"
   }
  }
 },
 {
  "section": "food",
  "name_ko": "공가네감자옹심이",
  "district": "양양군",
  "category": "한식·백반",
  "lat": 38.0754119409,
  "lng": 128.6232286255,
  "phone": "",
  "thumb": "http://tong.visitkorea.or.kr/cms/resource/19/2837919_image3_1.jpg",
  "i18n": {
   "ko": {
    "name": "공가네감자옹심이",
    "desc": "",
    "address": "강원특별자치도 양양군 남문5길 5-17"
   }
  }
 },
 {
  "section": "food",
  "name_ko": "공대카페 2호점",
  "district": "강릉시",
  "category": "카페·베이커리",
  "lat": 37.77339627,
  "lng": 128.8731876188,
  "phone": "",
  "thumb": "",
  "i18n": {
   "ko": {
    "name": "공대카페 2호점",
    "desc": "",
    "address": "강원특별자치도 강릉시 지변길 16 (지변동)"
   }
  }
 },
 {
  "section": "food",
  "name_ko": "관동닭갈비",
  "district": "강릉시",
  "category": "고기·구이",
  "lat": 37.764383589,
  "lng": 128.8816482463,
  "phone": "",
  "thumb": "",
  "i18n": {
   "ko": {
    "name": "관동닭갈비",
    "desc": "",
    "address": "강원특별자치도 강릉시 원대로 105 (교동)"
   }
  }
 },
 {
  "section": "food",
  "name_ko": "광덕 별아래",
  "district": "화천군",
  "category": "카페·베이커리",
  "lat": 38.1029668976,
  "lng": 127.4431463786,
  "phone": "",
  "thumb": "http://tong.visitkorea.or.kr/cms/resource/16/2844116_image3_1.JPG",
  "i18n": {
   "ko": {
    "name": "광덕 별아래",
    "desc": "",
    "address": "강원특별자치도 화천군 천문대길 8"
   }
  }
 },
 {
  "section": "food",
  "name_ko": "광덕고개쉼터",
  "district": "화천군",
  "category": "한식·백반",
  "lat": 38.099581197,
  "lng": 127.4439491832,
  "phone": "",
  "thumb": "http://tong.visitkorea.or.kr/cms/resource/09/2844109_image3_1.JPG",
  "i18n": {
   "ko": {
    "name": "광덕고개쉼터",
    "desc": "",
    "address": "강원특별자치도 화천군 사내면 포화로 2"
   }
  }
 },
 {
  "section": "food",
  "name_ko": "광덕식당",
  "district": "강릉시",
  "category": "한식·백반",
  "lat": 37.7724973406,
  "lng": 128.922744293,
  "phone": "",
  "thumb": "http://tong.visitkorea.or.kr/cms/resource/62/2871162_image3_1.jpg",
  "i18n": {
   "ko": {
    "name": "광덕식당",
    "desc": "",
    "address": "강원특별자치도 강릉시 경강로 2403 (송정동)"
   }
  }
 },
 {
  "section": "food",
  "name_ko": "광명식당",
  "district": "평창군",
  "category": "한식·백반",
  "lat": 37.5870461222,
  "lng": 128.3222346505,
  "phone": "",
  "thumb": "http://tong.visitkorea.or.kr/cms/resource/62/2787362_image2_1.jpg",
  "i18n": {
   "ko": {
    "name": "광명식당",
    "desc": "",
    "address": "강원특별자치도 평창군 봉평면 태기로 104"
   }
  }
 },
 {
  "section": "food",
  "name_ko": "광주빛고을식당",
  "district": "양양군",
  "category": "한식·백반",
  "lat": 38.1218011317,
  "lng": 128.6303682008,
  "phone": "",
  "thumb": "http://tong.visitkorea.or.kr/cms/resource/35/2903535_image3_1.jpg",
  "i18n": {
   "ko": {
    "name": "광주빛고을식당",
    "desc": "",
    "address": "강원특별자치도 양양군 낙산사로 47"
   }
  }
 },
 {
  "section": "food",
  "name_ko": "광천막국수 본점",
  "district": "태백시",
  "category": "면·국물",
  "lat": 37.1804054473,
  "lng": 128.9725995826,
  "phone": "",
  "thumb": "http://tong.visitkorea.or.kr/cms/resource/34/2892434_image3_1.jpg",
  "i18n": {
   "ko": {
    "name": "광천막국수 본점",
    "desc": "",
    "address": "강원특별자치도 태백시 수아밭길 108"
   }
  }
 },
 {
  "section": "food",
  "name_ko": "광화문갈비 원주점",
  "district": "원주시",
  "category": "고기·구이",
  "lat": 37.3344151829,
  "lng": 127.9299691841,
  "phone": "",
  "thumb": "http://tong.visitkorea.or.kr/cms/resource/86/3421686_image3_1.jpg",
  "i18n": {
   "ko": {
    "name": "광화문갈비 원주점",
    "desc": "",
    "address": "강원특별자치도 원주시 능라동길 48 (무실동)"
   }
  }
 },
 {
  "section": "food",
  "name_ko": "교동마카롱 낙산점",
  "district": "양양군",
  "category": "카페·베이커리",
  "lat": 38.1234842767,
  "lng": 128.6307431149,
  "phone": "",
  "thumb": "http://tong.visitkorea.or.kr/cms/resource/52/3427952_image3_1.jpg",
  "i18n": {
   "ko": {
    "name": "교동마카롱 낙산점",
    "desc": "",
    "address": "강원특별자치도 양양군 강현면 낙산사로 73"
   }
  }
 },
 {
  "section": "food",
  "name_ko": "교동반점",
  "district": "강릉시",
  "category": "중식",
  "lat": 37.758353952,
  "lng": 128.8930029659,
  "phone": "",
  "thumb": "http://tong.visitkorea.or.kr/cms/resource/77/2786477_image2_1.jpg",
  "i18n": {
   "ko": {
    "name": "교동반점",
    "desc": "",
    "address": "강원특별자치도 강릉시 강릉대로 205"
   }
  }
 },
 {
  "section": "food",
  "name_ko": "교동짬뽕",
  "district": "평창군",
  "category": "중식",
  "lat": 37.6735601866,
  "lng": 128.7088999373,
  "phone": "",
  "thumb": "",
  "i18n": {
   "ko": {
    "name": "교동짬뽕",
    "desc": "",
    "address": "강원특별자치도 평창군 대관령면 횡계길 30"
   }
  }
 },
 {
  "section": "food",
  "name_ko": "교동짬뽕강릉본점",
  "district": "강릉시",
  "category": "중식",
  "lat": 37.7574011769,
  "lng": 128.8874923801,
  "phone": "",
  "thumb": "",
  "i18n": {
   "ko": {
    "name": "교동짬뽕강릉본점",
    "desc": "",
    "address": "강원특별자치도 강릉시 강릉대로 155 (교동)"
   }
  }
 },
 {
  "section": "food",
  "name_ko": "교암막국수",
  "district": "고성군",
  "category": "면·국물",
  "lat": 38.2916102486,
  "lng": 128.5444345914,
  "phone": "",
  "thumb": "http://tong.visitkorea.or.kr/cms/resource/39/2874239_image3_1.jpg",
  "i18n": {
   "ko": {
    "name": "교암막국수",
    "desc": "",
    "address": "강원특별자치도 고성군 교암1길 42"
   }
  }
 },
 {
  "section": "food",
  "name_ko": "국일관",
  "district": "평창군",
  "category": "한식·백반",
  "lat": 37.6376364675,
  "lng": 128.5596255968,
  "phone": "",
  "thumb": "http://tong.visitkorea.or.kr/cms/resource/61/2784961_image2_1.JPG",
  "i18n": {
   "ko": {
    "name": "국일관",
    "desc": "",
    "address": "강원특별자치도 평창군 진부면 진부중앙로 74-5"
   }
  }
 },
 {
  "section": "food",
  "name_ko": "군자숯불닭갈비",
  "district": "춘천시",
  "category": "고기·구이",
  "lat": 37.748566175,
  "lng": 127.7248645066,
  "phone": "",
  "thumb": "http://tong.visitkorea.or.kr/cms/resource/65/2776965_image3_1.JPG",
  "i18n": {
   "ko": {
    "name": "군자숯불닭갈비",
    "desc": "",
    "address": "강원특별자치도 춘천시 동산면 종자리로 148-8"
   }
  }
 },
 {
  "section": "food",
  "name_ko": "굴뚝촌",
  "district": "동해시",
  "category": "한식·백반",
  "lat": 37.4744869353,
  "lng": 129.0463534845,
  "phone": "",
  "thumb": "http://tong.visitkorea.or.kr/cms/resource/89/3070189_image3_1.jpg",
  "i18n": {
   "ko": {
    "name": "굴뚝촌",
    "desc": "",
    "address": "강원특별자치도 동해시 삼화로 253-6"
   }
  }
 },
 {
  "section": "food",
  "name_ko": "굴리아케이크",
  "district": "강릉시",
  "category": "카페·베이커리",
  "lat": 37.7536601839,
  "lng": 128.8998469385,
  "phone": "",
  "thumb": "",
  "i18n": {
   "ko": {
    "name": "굴리아케이크",
    "desc": "",
    "address": "강원특별자치도 강릉시 금성로13번길 13-1 (성남동)"
   }
  }
 },
 {
  "section": "food",
  "name_ko": "굴사랑 교동택지점",
  "district": "강릉시",
  "category": "한식·백반",
  "lat": 37.7691773992,
  "lng": 128.8775845752,
  "phone": "",
  "thumb": "",
  "i18n": {
   "ko": {
    "name": "굴사랑 교동택지점",
    "desc": "",
    "address": "강원특별자치도 강릉시 가작로 16-1 (교동)"
   }
  }
 },
 {
  "section": "food",
  "name_ko": "굿후랜드",
  "district": "평창군",
  "category": "한식·백반",
  "lat": 37.6160049418,
  "lng": 128.3779620837,
  "phone": "",
  "thumb": "http://tong.visitkorea.or.kr/cms/resource/33/2777733_image3_1.jpg",
  "i18n": {
   "ko": {
    "name": "굿후랜드",
    "desc": "",
    "address": "강원특별자치도 평창군 봉평면 기풍로 151"
   }
  }
 },
 {
  "section": "food",
  "name_ko": "그다이마잇",
  "district": "강릉시",
  "category": "카페·베이커리",
  "lat": 37.7723472265,
  "lng": 128.9160087932,
  "phone": "",
  "thumb": "http://tong.visitkorea.or.kr/cms/resource/47/2891847_image3_1.jpg",
  "i18n": {
   "ko": {
    "name": "그다이마잇",
    "desc": "",
    "address": "강원특별자치도 강릉시 하평4길 32 (포남동)"
   }
  }
 },
 {
  "section": "food",
  "name_ko": "그리운보리밥",
  "district": "속초시",
  "category": "한식·백반",
  "lat": 38.2140785728,
  "lng": 128.5937547561,
  "phone": "",
  "thumb": "http://tong.visitkorea.or.kr/cms/resource/34/2892334_image3_1.jpeg",
  "i18n": {
   "ko": {
    "name": "그리운보리밥",
    "desc": "",
    "address": "강원특별자치도 속초시 법대로 34"
   }
  }
 },
 {
  "section": "food",
  "name_ko": "그린식당",
  "district": "평창군",
  "category": "한식·백반",
  "lat": 37.3672006567,
  "lng": 128.3939097549,
  "phone": "",
  "thumb": "http://tong.visitkorea.or.kr/cms/resource/46/2788146_image2_1.jpg",
  "i18n": {
   "ko": {
    "name": "그린식당",
    "desc": "",
    "address": "강원특별자치도 평창군 평창읍 백오1길 25-5"
   }
  }
 },
 {
  "section": "food",
  "name_ko": "그집앞",
  "district": "평창군",
  "category": "한식·백반",
  "lat": 37.6623661867,
  "lng": 128.6648542478,
  "phone": "",
  "thumb": "http://tong.visitkorea.or.kr/cms/resource/53/2771453_image2_1.jpg",
  "i18n": {
   "ko": {
    "name": "그집앞",
    "desc": "",
    "address": "강원특별자치도 평창군 대관령면 솔봉로 296"
   }
  }
 },
 {
  "section": "food",
  "name_ko": "글라스하우스",
  "district": "고성군",
  "category": "카페·베이커리",
  "lat": 38.2606724874,
  "lng": 128.5598869325,
  "phone": "",
  "thumb": "http://tong.visitkorea.or.kr/cms/resource/71/2793071_image3_1.jpg",
  "i18n": {
   "ko": {
    "name": "글라스하우스",
    "desc": "",
    "address": "강원특별자치도 고성군 토성면 천진해변길 43"
   }
  }
 },
 {
  "section": "food",
  "name_ko": "금강숯불닭갈비 메밀막국수",
  "district": "평창군",
  "category": "고기·구이",
  "lat": 37.6697578448,
  "lng": 128.7087056264,
  "phone": "",
  "thumb": "http://tong.visitkorea.or.kr/cms/resource/30/2874430_image3_1.png",
  "i18n": {
   "ko": {
    "name": "금강숯불닭갈비 메밀막국수",
    "desc": "",
    "address": "강원특별자치도 평창군 대관령면 강변길 87"
   }
  }
 },
 {
  "section": "food",
  "name_ko": "금당계곡블루마운틴",
  "district": "평창군",
  "category": "카페·베이커리",
  "lat": 37.5618282642,
  "lng": 128.3983868693,
  "phone": "",
  "thumb": "http://tong.visitkorea.or.kr/cms/resource/63/2789063_image2_1.jpg",
  "i18n": {
   "ko": {
    "name": "금당계곡블루마운틴",
    "desc": "",
    "address": "강원특별자치도 평창군 봉평면 금당계곡로 1883"
   }
  }
 },
 {
  "section": "food",
  "name_ko": "금수강산막국수",
  "district": "홍천군",
  "category": "면·국물",
  "lat": 37.6806541042,
  "lng": 127.6973078962,
  "phone": "",
  "thumb": "http://tong.visitkorea.or.kr/cms/resource/41/2837941_image2_1.jpg",
  "i18n": {
   "ko": {
    "name": "금수강산막국수",
    "desc": "",
    "address": "강원특별자치도 홍천군 서면 한치골길 785"
   }
  }
 },
 {
  "section": "food",
  "name_ko": "금이야옥이야",
  "district": "속초시",
  "category": "한식·백반",
  "lat": 38.1867180759,
  "lng": 128.6044379738,
  "phone": "",
  "thumb": "http://tong.visitkorea.or.kr/cms/resource/44/2892344_image3_1.jpg",
  "i18n": {
   "ko": {
    "name": "금이야옥이야",
    "desc": "",
    "address": "강원특별자치도 속초시 새마을길 53"
   }
  }
 },
 {
  "section": "food",
  "name_ko": "금천칼국수",
  "district": "강릉시",
  "category": "면·국물",
  "lat": 37.7733720342,
  "lng": 128.9122229911,
  "phone": "",
  "thumb": "http://tong.visitkorea.or.kr/cms/resource/87/2871187_image3_1.jpg",
  "i18n": {
   "ko": {
    "name": "금천칼국수",
    "desc": "",
    "address": "강원특별자치도 강릉시 강릉대로 445-1"
   }
  }
 },
 {
  "section": "food",
  "name_ko": "금천회관",
  "district": "평창군",
  "category": "해산물·회",
  "lat": 37.6726296909,
  "lng": 128.7064307434,
  "phone": "",
  "thumb": "http://tong.visitkorea.or.kr/cms/resource/51/2874451_image3_1.jpg",
  "i18n": {
   "ko": {
    "name": "금천회관",
    "desc": "",
    "address": "강원특별자치도 평창군 대관령면 대관령로 92"
   }
  }
 },
 {
  "section": "food",
  "name_ko": "금학칼국수",
  "district": "평창군",
  "category": "면·국물",
  "lat": 37.6172575623,
  "lng": 128.3772843298,
  "phone": "",
  "thumb": "http://tong.visitkorea.or.kr/cms/resource/16/2780216_image3_1.jpg",
  "i18n": {
   "ko": {
    "name": "금학칼국수",
    "desc": "",
    "address": "강원특별자치도 평창군 봉평면 기풍로 166-1"
   }
  }
 },
 {
  "section": "food",
  "name_ko": "금화정막국수",
  "district": "고성군",
  "category": "면·국물",
  "lat": 38.2858886865,
  "lng": 128.5440736925,
  "phone": "",
  "thumb": "http://tong.visitkorea.or.kr/cms/resource/58/2874258_image3_1.jpg",
  "i18n": {
   "ko": {
    "name": "금화정막국수",
    "desc": "",
    "address": "강원특별자치도 고성군 화원길 42-21 금화정막국수"
   }
  }
 },
 {
  "section": "food",
  "name_ko": "기둥참하누",
  "district": "강릉시",
  "category": "한식·백반",
  "lat": 37.7610232587,
  "lng": 128.90176876,
  "phone": "",
  "thumb": "",
  "i18n": {
   "ko": {
    "name": "기둥참하누",
    "desc": "",
    "address": "강원특별자치도 강릉시 옥가로58번길 18-2 (옥천동)"
   }
  }
 },
 {
  "section": "food",
  "name_ko": "기사문&강릉락강정",
  "district": "강릉시",
  "category": "한식·백반",
  "lat": 37.7646639618,
  "lng": 128.8739600416,
  "phone": "",
  "thumb": "",
  "i18n": {
   "ko": {
    "name": "기사문&강릉락강정",
    "desc": "",
    "address": "강원특별자치도 강릉시 정원로 78-22 (교동)"
   }
  }
 },
 {
  "section": "food",
  "name_ko": "길까페",
  "district": "원주시",
  "category": "카페·베이커리",
  "lat": 37.3447460431,
  "lng": 128.010483842,
  "phone": "",
  "thumb": "http://tong.visitkorea.or.kr/cms/resource/65/3546165_image3_1.jpg",
  "i18n": {
   "ko": {
    "name": "길까페",
    "desc": "",
    "address": "강원특별자치도 원주시 행구로 493"
   }
  }
 },
 {
  "section": "food",
  "name_ko": "길매식당",
  "district": "홍천군",
  "category": "한식·백반",
  "lat": 37.7544143806,
  "lng": 127.962526089,
  "phone": "",
  "thumb": "http://tong.visitkorea.or.kr/cms/resource/40/2892240_image3_1.jpeg",
  "i18n": {
   "ko": {
    "name": "길매식당",
    "desc": "",
    "address": "강원특별자치도 홍천군 구룡령로 214-3"
   }
  }
 },
 {
  "section": "food",
  "name_ko": "길목풍천장어",
  "district": "강릉시",
  "category": "해산물·회",
  "lat": 37.7723436671,
  "lng": 128.8759124057,
  "phone": "",
  "thumb": "",
  "i18n": {
   "ko": {
    "name": "길목풍천장어",
    "desc": "",
    "address": "강원특별자치도 강릉시 경포로15번길 3 (지변동)"
   }
  }
 },
 {
  "section": "food",
  "name_ko": "김가네원주추어탕",
  "district": "원주시",
  "category": "면·국물",
  "lat": 37.3161844554,
  "lng": 127.9568811763,
  "phone": "",
  "thumb": "http://tong.visitkorea.or.kr/cms/resource/25/2892325_image3_1.jpg",
  "i18n": {
   "ko": {
    "name": "김가네원주추어탕",
    "desc": "",
    "address": "강원특별자치도 원주시 단관공원길 90-3"
   }
  }
 },
 {
  "section": "food",
  "name_ko": "김박사봉평막국수",
  "district": "평창군",
  "category": "면·국물",
  "lat": 37.6158049486,
  "lng": 128.3770677257,
  "phone": "",
  "thumb": "http://tong.visitkorea.or.kr/cms/resource/74/2790474_image3_1.jpg",
  "i18n": {
   "ko": {
    "name": "김박사봉평막국수",
    "desc": "",
    "address": "강원특별자치도 평창군 봉평면 허생원장터길 17-1"
   }
  }
 },
 {
  "section": "food",
  "name_ko": "김밥소풍",
  "district": "평창군",
  "category": "분식·주점",
  "lat": 37.3666035106,
  "lng": 128.3942569637,
  "phone": "",
  "thumb": "http://tong.visitkorea.or.kr/cms/resource/31/2789431_image2_1.jpg",
  "i18n": {
   "ko": {
    "name": "김밥소풍",
    "desc": "",
    "address": "강원특별자치도 평창군 평창읍 평창시장2길 1"
   }
  }
 },
 {
  "section": "food",
  "name_ko": "김밥친구",
  "district": "평창군",
  "category": "분식·주점",
  "lat": 37.6160049418,
  "lng": 128.3779620837,
  "phone": "",
  "thumb": "http://tong.visitkorea.or.kr/cms/resource/81/2788981_image3_1.jpg",
  "i18n": {
   "ko": {
    "name": "김밥친구",
    "desc": "",
    "address": "강원특별자치도 평창군 봉평면 기풍로 151"
   }
  }
 },
 {
  "section": "food",
  "name_ko": "김삿갓회막국수",
  "district": "속초시",
  "category": "면·국물",
  "lat": 38.2065474555,
  "lng": 128.5197422719,
  "phone": "",
  "thumb": "http://tong.visitkorea.or.kr/cms/resource/47/2892347_image3_1.jpg",
  "i18n": {
   "ko": {
    "name": "김삿갓회막국수",
    "desc": "",
    "address": "강원특별자치도 속초시 원암학사평길 109"
   }
  }
 },
 {
  "section": "food",
  "name_ko": "김여사네",
  "district": "강릉시",
  "category": "한식·백반",
  "lat": 37.7584373836,
  "lng": 128.8985219101,
  "phone": "",
  "thumb": "",
  "i18n": {
   "ko": {
    "name": "김여사네",
    "desc": "",
    "address": "강원특별자치도 강릉시 옥가로19번길 6 (옥천동)"
   }
  }
 },
 {
  "section": "food",
  "name_ko": "김영애할머니순두부 본점",
  "district": "속초시",
  "category": "한식·백반",
  "lat": 38.2060282334,
  "lng": 128.5280831963,
  "phone": "",
  "thumb": "http://tong.visitkorea.or.kr/cms/resource/86/2839786_image3_1.JPG",
  "i18n": {
   "ko": {
    "name": "김영애할머니순두부 본점",
    "desc": "",
    "address": "강원특별자치도 속초시 원암학사평길 183"
   }
  }
 },
 {
  "section": "food",
  "name_ko": "김우정초당짬뽕순두부",
  "district": "강릉시",
  "category": "한식·백반",
  "lat": 37.7916422269,
  "lng": 128.9165442582,
  "phone": "",
  "thumb": "http://tong.visitkorea.or.kr/cms/resource/98/2871198_image3_1.jpg",
  "i18n": {
   "ko": {
    "name": "김우정초당짬뽕순두부",
    "desc": "",
    "address": "강원특별자치도 강릉시 초당순두부길 102 (초당동)"
   }
  }
 },
 {
  "section": "food",
  "name_ko": "김윤식케익부띠끄회산점",
  "district": "강릉시",
  "category": "카페·베이커리",
  "lat": 37.7393806205,
  "lng": 128.8659865407,
  "phone": "",
  "thumb": "",
  "i18n": {
   "ko": {
    "name": "김윤식케익부띠끄회산점",
    "desc": "",
    "address": "강원특별자치도 강릉시 회산로 344 (회산동, 강릉서희스타힐스리버파크)"
   }
  }
 },
 {
  "section": "food",
  "name_ko": "김정옥할머니순두부 본점",
  "district": "속초시",
  "category": "한식·백반",
  "lat": 38.2059282527,
  "lng": 128.5284720534,
  "phone": "",
  "thumb": "http://tong.visitkorea.or.kr/cms/resource/53/2892353_image3_1.jpg",
  "i18n": {
   "ko": {
    "name": "김정옥할머니순두부 본점",
    "desc": "",
    "address": "강원특별자치도 속초시 원암학사평길 187"
   }
  }
 },
 {
  "section": "food",
  "name_ko": "까치둥지",
  "district": "원주시",
  "category": "한식·백반",
  "lat": 37.3369459331,
  "lng": 127.9561834122,
  "phone": "",
  "thumb": "http://tong.visitkorea.or.kr/cms/resource/81/3374381_image3_1.jpg",
  "i18n": {
   "ko": {
    "name": "까치둥지",
    "desc": "",
    "address": "강원특별자치도 원주시 치악로 1731"
   }
  }
 },
 {
  "section": "food",
  "name_ko": "까치장칼국수",
  "district": "강릉시",
  "category": "면·국물",
  "lat": 37.7686363338,
  "lng": 128.9052237686,
  "phone": "",
  "thumb": "http://tong.visitkorea.or.kr/cms/resource/41/2871241_image3_1.jpg",
  "i18n": {
   "ko": {
    "name": "까치장칼국수",
    "desc": "",
    "address": "강원특별자치도 강릉시 강릉대로313번길 62"
   }
  }
 },
 {
  "section": "food",
  "name_ko": "까페지수인봉평",
  "district": "평창군",
  "category": "카페·베이커리",
  "lat": 37.6157048641,
  "lng": 128.3720292948,
  "phone": "",
  "thumb": "http://tong.visitkorea.or.kr/cms/resource/01/2782101_image2_1.jpg",
  "i18n": {
   "ko": {
    "name": "까페지수인봉평",
    "desc": "",
    "address": "강원특별자치도 평창군 봉평면 메밀꽃길 10-8"
   }
  }
 },
 {
  "section": "food",
  "name_ko": "깐숙이네",
  "district": "강릉시",
  "category": "한식·백반",
  "lat": 37.7607597263,
  "lng": 128.9184922618,
  "phone": "",
  "thumb": "",
  "i18n": {
   "ko": {
    "name": "깐숙이네",
    "desc": "",
    "address": "강원특별자치도 강릉시 성덕포남로 66 (입암동)"
   }
  }
 },
 {
  "section": "food",
  "name_ko": "꺼먹돼지",
  "district": "강릉시",
  "category": "고기·구이",
  "lat": 37.7724020582,
  "lng": 128.8792259942,
  "phone": "",
  "thumb": "",
  "i18n": {
   "ko": {
    "name": "꺼먹돼지",
    "desc": "",
    "address": "강원특별자치도 강릉시 경포로 47-7 (지변동)"
   }
  }
 },
 {
  "section": "food",
  "name_ko": "꼭지네식당",
  "district": "강릉시",
  "category": "한식·백반",
  "lat": 37.7256705013,
  "lng": 128.9779991025,
  "phone": "",
  "thumb": "",
  "i18n": {
   "ko": {
    "name": "꼭지네식당",
    "desc": "",
    "address": "강원특별자치도 강릉시 강동면 대동안길 15"
   }
  }
 },
 {
  "section": "food",
  "name_ko": "꿀꺽",
  "district": "강릉시",
  "category": "한식·백반",
  "lat": 37.7913701078,
  "lng": 128.9202106032,
  "phone": "",
  "thumb": "",
  "i18n": {
   "ko": {
    "name": "꿀꺽",
    "desc": "",
    "address": "강원특별자치도 강릉시 해안로 292 (강문동)"
   }
  }
 },
 {
  "section": "food",
  "name_ko": "꿈꾸는달카페",
  "district": "평창군",
  "category": "카페·베이커리",
  "lat": 37.6116274543,
  "lng": 128.366577132,
  "phone": "",
  "thumb": "http://tong.visitkorea.or.kr/cms/resource/28/3421728_image3_1.jpg",
  "i18n": {
   "ko": {
    "name": "꿈꾸는달카페",
    "desc": "",
    "address": "강원특별자치도 평창군 봉평면 이효석길 99"
   }
  }
 },
 {
  "section": "food",
  "name_ko": "나나 Dog",
  "district": "속초시",
  "category": "카페·베이커리",
  "lat": 38.18268397,
  "lng": 128.5405327923,
  "phone": "",
  "thumb": "http://tong.visitkorea.or.kr/cms/resource/36/2919536_image3_1.jpg",
  "i18n": {
   "ko": {
    "name": "나나 Dog",
    "desc": "",
    "address": "강원특별자치도 속초시 관광로 250-20"
   }
  }
 },
 {
  "section": "food",
  "name_ko": "나라스시",
  "district": "강릉시",
  "category": "일식",
  "lat": 37.765681065,
  "lng": 128.9023935593,
  "phone": "",
  "thumb": "",
  "i18n": {
   "ko": {
    "name": "나라스시",
    "desc": "",
    "address": "강원특별자치도 강릉시 강릉대로313번길 20 (포남동)"
   }
  }
 },
 {
  "section": "food",
  "name_ko": "나봄",
  "district": "강릉시",
  "category": "카페·베이커리",
  "lat": 37.7578178886,
  "lng": 128.8922724924,
  "phone": "",
  "thumb": "http://tong.visitkorea.or.kr/cms/resource/64/2891864_image3_1.jpg",
  "i18n": {
   "ko": {
    "name": "나봄",
    "desc": "",
    "address": "강원특별자치도 강릉시 강릉대로 198"
   }
  }
 },
 {
  "section": "food",
  "name_ko": "나뽕남 본점",
  "district": "양양군",
  "category": "양식·세계요리",
  "lat": 37.9716183452,
  "lng": 128.7612526877,
  "phone": "",
  "thumb": "http://tong.visitkorea.or.kr/cms/resource/56/2919856_image3_1.jpg",
  "i18n": {
   "ko": {
    "name": "나뽕남 본점",
    "desc": "",
    "address": "강원특별자치도 양양군 현남면 새나루길 9-8"
   }
  }
 },
 {
  "section": "food",
  "name_ko": "낙산바다회마을",
  "district": "양양군",
  "category": "한식·백반",
  "lat": 38.1206568192,
  "lng": 128.6303099086,
  "phone": "",
  "thumb": "http://tong.visitkorea.or.kr/cms/resource/30/2919830_image3_1.jpg",
  "i18n": {
   "ko": {
    "name": "낙산바다회마을",
    "desc": "",
    "address": "강원특별자치도 양양군 강현면 해맞이길 4"
   }
  }
 },
 {
  "section": "food",
  "name_ko": "난설헌메밀촌",
  "district": "강릉시",
  "category": "한식·백반",
  "lat": 37.7852954912,
  "lng": 128.9038289338,
  "phone": "",
  "thumb": "",
  "i18n": {
   "ko": {
    "name": "난설헌메밀촌",
    "desc": "",
    "address": "강원특별자치도 강릉시 난설헌로 105 (포남동)"
   }
  }
 },
 {
  "section": "food",
  "name_ko": "남경막국수",
  "district": "속초시",
  "category": "면·국물",
  "lat": 38.172866948,
  "lng": 128.6063910063,
  "phone": "",
  "thumb": "http://tong.visitkorea.or.kr/cms/resource/98/2891798_image3_1.jpg",
  "i18n": {
   "ko": {
    "name": "남경막국수",
    "desc": "",
    "address": "강원특별자치도 속초시 대포항희망길 47 (대포동)"
   }
  }
 },
 {
  "section": "food",
  "name_ko": "남다르게",
  "district": "속초시",
  "category": "한식·백반",
  "lat": 38.1740612424,
  "lng": 128.6058299088,
  "phone": "",
  "thumb": "http://tong.visitkorea.or.kr/cms/resource/46/2919546_image3_1.jpg",
  "i18n": {
   "ko": {
    "name": "남다르게",
    "desc": "",
    "address": "강원특별자치도 속초시 대포항희망길 59"
   }
  }
 },
 {
  "section": "food",
  "name_ko": "남부막국수본관",
  "district": "춘천시",
  "category": "면·국물",
  "lat": 37.8723545539,
  "lng": 127.7243747786,
  "phone": "",
  "thumb": "http://tong.visitkorea.or.kr/cms/resource/16/2892816_image3_1.jpg",
  "i18n": {
   "ko": {
    "name": "남부막국수본관",
    "desc": "",
    "address": "강원특별자치도 춘천시 춘천로81번길 16"
   }
  }
 },
 {
  "section": "food",
  "name_ko": "남북면옥",
  "district": "강릉시",
  "category": "한식·백반",
  "lat": 37.8825826198,
  "lng": 128.8214694569,
  "phone": "",
  "thumb": "",
  "i18n": {
   "ko": {
    "name": "남북면옥",
    "desc": "",
    "address": "강원특별자치도 강릉시 주문진읍 신리천로 90"
   }
  }
 },
 {
  "section": "food",
  "name_ko": "남산골",
  "district": "평창군",
  "category": "한식·백반",
  "lat": 37.5020945907,
  "lng": 128.4556168376,
  "phone": "",
  "thumb": "http://tong.visitkorea.or.kr/cms/resource/71/2792671_image2_1.jpg",
  "i18n": {
   "ko": {
    "name": "남산골",
    "desc": "",
    "address": "강원특별자치도 평창군 대화면 남산길 127"
   }
  }
 },
 {
  "section": "food",
  "name_ko": "남산막국수",
  "district": "강릉시",
  "category": "면·국물",
  "lat": 37.7480579219,
  "lng": 128.8930866098,
  "phone": "",
  "thumb": "http://tong.visitkorea.or.kr/cms/resource/24/2684524_image2_1.jpg",
  "i18n": {
   "ko": {
    "name": "남산막국수",
    "desc": "",
    "address": "강원특별자치도 강릉시 강변로 222"
   }
  }
 },
 {
  "section": "food",
  "name_ko": "남우수산횟집",
  "district": "평창군",
  "category": "해산물·회",
  "lat": 37.6876678507,
  "lng": 128.4700516063,
  "phone": "",
  "thumb": "http://tong.visitkorea.or.kr/cms/resource/70/2787270_image2_1.jpg",
  "i18n": {
   "ko": {
    "name": "남우수산횟집",
    "desc": "",
    "address": "강원특별자치도 평창군 용평면 운두령로 714-52"
   }
  }
 },
 {
  "section": "food",
  "name_ko": "남원식당",
  "district": "평창군",
  "category": "한식·백반",
  "lat": 37.673293553,
  "lng": 128.7090166011,
  "phone": "",
  "thumb": "http://tong.visitkorea.or.kr/cms/resource/18/2796218_image3_1.JPG",
  "i18n": {
   "ko": {
    "name": "남원식당",
    "desc": "",
    "address": "강원특별자치도 평창군 대관령면 횡계2길 11-1"
   }
  }
 },
 {
  "section": "food",
  "name_ko": "남이아일랜드북까페",
  "district": "춘천시",
  "category": "카페·베이커리",
  "lat": 37.7963208193,
  "lng": 127.5255090138,
  "phone": "",
  "thumb": "http://tong.visitkorea.or.kr/cms/resource/72/3555372_image3_1.jpg",
  "i18n": {
   "ko": {
    "name": "남이아일랜드북까페",
    "desc": "",
    "address": "강원특별자치도 춘천시 남산면 남이섬길 1"
   }
  }
 },
 {
  "section": "food",
  "name_ko": "남촌가든",
  "district": "춘천시",
  "category": "한식·백반",
  "lat": 37.7386377849,
  "lng": 127.6297206679,
  "phone": "",
  "thumb": "http://tong.visitkorea.or.kr/cms/resource/42/2892842_image3_1.jpg",
  "i18n": {
   "ko": {
    "name": "남촌가든",
    "desc": "",
    "address": "강원특별자치도 춘천시 충효로 799-34"
   }
  }
 },
 {
  "section": "food",
  "name_ko": "남항진어촌식당",
  "district": "강릉시",
  "category": "한식·백반",
  "lat": 37.7670568639,
  "lng": 128.9514529873,
  "phone": "",
  "thumb": "http://tong.visitkorea.or.kr/cms/resource/59/2871259_image3_1.jpg",
  "i18n": {
   "ko": {
    "name": "남항진어촌식당",
    "desc": "",
    "address": "강원특별자치도 강릉시 공항길127번길 35-7"
   }
  }
 },
 {
  "section": "food",
  "name_ko": "낭만포차",
  "district": "강릉시",
  "category": "분식·주점",
  "lat": 37.7726582118,
  "lng": 128.9114064205,
  "phone": "",
  "thumb": "",
  "i18n": {
   "ko": {
    "name": "낭만포차",
    "desc": "",
    "address": "강원특별자치도 강릉시 강릉대로 435 (포남동)"
   }
  }
 },
 {
  "section": "food",
  "name_ko": "내마음에찜 강릉본점",
  "district": "강릉시",
  "category": "한식·백반",
  "lat": 37.7557820972,
  "lng": 128.8965943876,
  "phone": "",
  "thumb": "",
  "i18n": {
   "ko": {
    "name": "내마음에찜 강릉본점",
    "desc": "",
    "address": "강원특별자치도 강릉시 경강로 2107 (임당동)"
   }
  }
 },
 {
  "section": "food",
  "name_ko": "너울가지",
  "district": "삼척시",
  "category": "양식·세계요리",
  "lat": 37.4646708793,
  "lng": 129.1619739841,
  "phone": "",
  "thumb": "",
  "i18n": {
   "ko": {
    "name": "너울가지",
    "desc": "",
    "address": "강원특별자치도 삼척시 새천년도로 629-27 (갈천동)"
   }
  }
 },
 {
  "section": "food",
  "name_ko": "너울집",
  "district": "속초시",
  "category": "카페·베이커리",
  "lat": 38.2021343835,
  "lng": 128.5353354365,
  "phone": "",
  "thumb": "http://tong.visitkorea.or.kr/cms/resource/93/2925393_image3_1.jpg",
  "i18n": {
   "ko": {
    "name": "너울집",
    "desc": "",
    "address": "강원특별자치도 속초시 신흥2길 38"
   }
  }
 },
 {
  "section": "food",
  "name_ko": "넉살집",
  "district": "강릉시",
  "category": "한식·백반",
  "lat": 37.7641862993,
  "lng": 128.8770014492,
  "phone": "",
  "thumb": "",
  "i18n": {
   "ko": {
    "name": "넉살집",
    "desc": "",
    "address": "강원특별자치도 강릉시 솔올로5번길 51 (교동)"
   }
  }
 },
 {
  "section": "food",
  "name_ko": "넘버85가든(No.85 garden)",
  "district": "평창군",
  "category": "한식·백반",
  "lat": 37.369894972,
  "lng": 128.4034810363,
  "phone": "",
  "thumb": "http://tong.visitkorea.or.kr/cms/resource/43/2795343_image2_1.jpg",
  "i18n": {
   "ko": {
    "name": "넘버85가든(No.85 garden)",
    "desc": "",
    "address": "강원특별자치도 평창군 평창읍 노성로 225-19"
   }
  }
 },
 {
  "section": "food",
  "name_ko": "넘버나인정육식당",
  "district": "평창군",
  "category": "고기·구이",
  "lat": 37.6714188107,
  "lng": 128.7111331341,
  "phone": "",
  "thumb": "http://tong.visitkorea.or.kr/cms/resource/18/2790218_image2_1.jpg",
  "i18n": {
   "ko": {
    "name": "넘버나인정육식당",
    "desc": "",
    "address": "강원특별자치도 평창군 대관령면 송천3길 10"
   }
  }
 },
 {
  "section": "food",
  "name_ko": "노다지",
  "district": "평창군",
  "category": "한식·백반",
  "lat": 37.6685996494,
  "lng": 128.708936196,
  "phone": "",
  "thumb": "",
  "i18n": {
   "ko": {
    "name": "노다지",
    "desc": "",
    "address": "강원특별자치도 평창군 대관령면 올림픽로 153"
   }
  }
 },
 {
  "section": "food",
  "name_ko": "노다지한우",
  "district": "평창군",
  "category": "고기·구이",
  "lat": 37.6690690391,
  "lng": 128.7088778538,
  "phone": "",
  "thumb": "http://tong.visitkorea.or.kr/cms/resource/78/2776478_image3_1.jpg",
  "i18n": {
   "ko": {
    "name": "노다지한우",
    "desc": "",
    "address": "강원특별자치도 평창군 대관령면 올림픽로 155"
   }
  }
 },
 {
  "section": "food",
  "name_ko": "노랑공장",
  "district": "횡성군",
  "category": "카페·베이커리",
  "lat": 37.5131296637,
  "lng": 128.027016292,
  "phone": "",
  "thumb": "http://tong.visitkorea.or.kr/cms/resource/06/2929606_image3_1.JPG",
  "i18n": {
   "ko": {
    "name": "노랑공장",
    "desc": "",
    "address": "강원특별자치도 횡성군 태기로 488"
   }
  }
 },
 {
  "section": "food",
  "name_ko": "노래곡막국수",
  "district": "강릉시",
  "category": "면·국물",
  "lat": 37.7398865104,
  "lng": 128.8861680405,
  "phone": "",
  "thumb": "",
  "i18n": {
   "ko": {
    "name": "노래곡막국수",
    "desc": "",
    "address": "강원특별자치도 강릉시 남부로 54-6 (내곡동)"
   }
  }
 },
 {
  "section": "food",
  "name_ko": "노브랜드버거 강릉송정DI점",
  "district": "강릉시",
  "category": "양식·세계요리",
  "lat": 37.7737029816,
  "lng": 128.934259885,
  "phone": "",
  "thumb": "",
  "i18n": {
   "ko": {
    "name": "노브랜드버거 강릉송정DI점",
    "desc": "",
    "address": "강원특별자치도 강릉시 경강로 2518 (송정동)"
   }
  }
 },
 {
  "section": "food",
  "name_ko": "노이마레",
  "district": "삼척시",
  "category": "양식·세계요리",
  "lat": 37.4428235997,
  "lng": 129.1724403865,
  "phone": "",
  "thumb": "",
  "i18n": {
   "ko": {
    "name": "노이마레",
    "desc": "",
    "address": "강원특별자치도 삼척시 봉황로 49 (남양동, 노이마레)"
   }
  }
 },
 {
  "section": "food",
  "name_ko": "녹원식당",
  "district": "고성군",
  "category": "한식·백반",
  "lat": 38.2905715209,
  "lng": 128.54649277,
  "phone": "",
  "thumb": "http://tong.visitkorea.or.kr/cms/resource/74/2874274_image3_1.jpg",
  "i18n": {
   "ko": {
    "name": "녹원식당",
    "desc": "",
    "address": "강원특별자치도 고성군 교암길 60 녹원식당"
   }
  }
 },
 {
  "section": "food",
  "name_ko": "농가",
  "district": "원주시",
  "category": "한식·백반",
  "lat": 37.3262059878,
  "lng": 127.9820425041,
  "phone": "",
  "thumb": "http://tong.visitkorea.or.kr/cms/resource/42/3566442_image3_1.jpg",
  "i18n": {
   "ko": {
    "name": "농가",
    "desc": "",
    "address": "강원특별자치도 원주시 양지뜰3길 11 (반곡동)"
   }
  }
 },
 {
  "section": "food",
  "name_ko": "농가",
  "district": "춘천시",
  "category": "한식·백반",
  "lat": 37.9298044422,
  "lng": 127.778832001,
  "phone": "",
  "thumb": "",
  "i18n": {
   "ko": {
    "name": "농가",
    "desc": "",
    "address": "강원특별자치도 춘천시 신북읍 신샘밭로 622-5"
   }
  }
 },
 {
  "section": "food",
  "name_ko": "누나네 부대찌개",
  "district": "평창군",
  "category": "한식·백반",
  "lat": 37.3674840236,
  "lng": 128.397401099,
  "phone": "",
  "thumb": "http://tong.visitkorea.or.kr/cms/resource/70/2789570_image3_1.jpg",
  "i18n": {
   "ko": {
    "name": "누나네 부대찌개",
    "desc": "",
    "address": "강원특별자치도 평창군 평창읍 백오로 134"
   }
  }
 },
 {
  "section": "food",
  "name_ko": "늘봄카페",
  "district": "평창군",
  "category": "카페·베이커리",
  "lat": 37.6130802985,
  "lng": 128.3789065313,
  "phone": "",
  "thumb": "http://tong.visitkorea.or.kr/cms/resource/94/2782294_image3_1.jpg",
  "i18n": {
   "ko": {
    "name": "늘봄카페",
    "desc": "",
    "address": "강원특별자치도 평창군 봉평면 장촌길 3"
   }
  }
 },
 {
  "section": "food",
  "name_ko": "다경횟집",
  "district": "강릉시",
  "category": "해산물·회",
  "lat": 37.8859268228,
  "lng": 128.8289436783,
  "phone": "",
  "thumb": "",
  "i18n": {
   "ko": {
    "name": "다경횟집",
    "desc": "",
    "address": "강원특별자치도 강릉시 주문진읍 신리천로 11-1"
   }
  }
 },
 {
  "section": "food",
  "name_ko": "다래순대",
  "district": "평창군",
  "category": "한식·백반",
  "lat": 37.6364615459,
  "lng": 128.5566342353,
  "phone": "",
  "thumb": "http://tong.visitkorea.or.kr/cms/resource/99/2794999_image3_1.jpg",
  "i18n": {
   "ko": {
    "name": "다래순대",
    "desc": "",
    "address": "강원특별자치도 평창군 진부면 청송로 90-8"
   }
  }
 },
 {
  "section": "food",
  "name_ko": "다래횟집",
  "district": "양양군",
  "category": "해산물·회",
  "lat": 38.0786597305,
  "lng": 128.6717880118,
  "phone": "",
  "thumb": "http://tong.visitkorea.or.kr/cms/resource/80/2903580_image3_1.jpeg",
  "i18n": {
   "ko": {
    "name": "다래횟집",
    "desc": "",
    "address": "강원특별자치도 양양군 수산2길 17"
   }
  }
 },
 {
  "section": "food",
  "name_ko": "다모아식당",
  "district": "강릉시",
  "category": "한식·백반",
  "lat": 37.7921227817,
  "lng": 128.9193634337,
  "phone": "",
  "thumb": "",
  "i18n": {
   "ko": {
    "name": "다모아식당",
    "desc": "",
    "address": "강원특별자치도 강릉시 해안로 298-5 (강문동)"
   }
  }
 },
 {
  "section": "food",
  "name_ko": "다이닝조개",
  "district": "강릉시",
  "category": "해산물·회",
  "lat": 37.790600767,
  "lng": 128.9209633368,
  "phone": "",
  "thumb": "",
  "i18n": {
   "ko": {
    "name": "다이닝조개",
    "desc": "",
    "address": "강원특별자치도 강릉시 해안로 280 (강문동)"
   }
  }
 },
 {
  "section": "food",
  "name_ko": "단계동황태해장국",
  "district": "원주시",
  "category": "면·국물",
  "lat": 37.3172617063,
  "lng": 127.9352580956,
  "phone": "",
  "thumb": "http://tong.visitkorea.or.kr/cms/resource/10/3573410_image3_1.jpg",
  "i18n": {
   "ko": {
    "name": "단계동황태해장국",
    "desc": "",
    "address": "강원특별자치도 원주시 판부면 남원로 329"
   }
  }
 },
 {
  "section": "food",
  "name_ko": "단오길설렁탕",
  "district": "강릉시",
  "category": "면·국물",
  "lat": 37.7469191299,
  "lng": 128.8912812521,
  "phone": "",
  "thumb": "",
  "i18n": {
   "ko": {
    "name": "단오길설렁탕",
    "desc": "",
    "address": "강원특별자치도 강릉시 남산초교길11번길 11 (내곡동)"
   }
  }
 },
 {
  "section": "food",
  "name_ko": "단우물카페",
  "district": "춘천시",
  "category": "카페·베이커리",
  "lat": 37.9529594756,
  "lng": 127.7465092538,
  "phone": "",
  "thumb": "http://tong.visitkorea.or.kr/cms/resource/64/2918964_image3_1.jpg",
  "i18n": {
   "ko": {
    "name": "단우물카페",
    "desc": "",
    "address": "강원특별자치도 춘천시 신북읍 신북로 323"
   }
  }
 },
 {
  "section": "food",
  "name_ko": "달래촌",
  "district": "양양군",
  "category": "한식·백반",
  "lat": 37.9244703973,
  "lng": 128.7284237867,
  "phone": "",
  "thumb": "",
  "i18n": {
   "ko": {
    "name": "달래촌",
    "desc": "",
    "address": "강원특별자치도 양양군 현남면 화상천로 634"
   }
  }
 },
 {
  "section": "food",
  "name_ko": "달리는커피 포남점",
  "district": "강릉시",
  "category": "카페·베이커리",
  "lat": 37.7662338052,
  "lng": 128.9037212006,
  "phone": "",
  "thumb": "",
  "i18n": {
   "ko": {
    "name": "달리는커피 포남점",
    "desc": "",
    "address": "강원특별자치도 강릉시 강릉대로 337-5 (포남동)"
   }
  }
 },
 {
  "section": "food",
  "name_ko": "대게왕국",
  "district": "강릉시",
  "category": "해산물·회",
  "lat": 37.8945425171,
  "lng": 128.8302988442,
  "phone": "",
  "thumb": "",
  "i18n": {
   "ko": {
    "name": "대게왕국",
    "desc": "",
    "address": "강원특별자치도 강릉시 주문진읍 해안로 1789-1"
   }
  }
 },
 {
  "section": "food",
  "name_ko": "대관령 마실",
  "district": "평창군",
  "category": "카페·베이커리",
  "lat": 37.6646863586,
  "lng": 128.7164745257,
  "phone": "",
  "thumb": "http://tong.visitkorea.or.kr/cms/resource/97/2796197_image3_1.jpg",
  "i18n": {
   "ko": {
    "name": "대관령 마실",
    "desc": "",
    "address": "강원특별자치도 평창군 대관령면 오목길 43-58"
   }
  }
 },
 {
  "section": "food",
  "name_ko": "대관령 오삼불고기",
  "district": "평창군",
  "category": "고기·구이",
  "lat": 37.672782493,
  "lng": 128.7086027647,
  "phone": "",
  "thumb": "http://tong.visitkorea.or.kr/cms/resource/47/2793847_image2_1.JPG",
  "i18n": {
   "ko": {
    "name": "대관령 오삼불고기",
    "desc": "",
    "address": "강원특별자치도 평창군 대관령면 횡계2길 3-8"
   }
  }
 },
 {
  "section": "food",
  "name_ko": "대관령 한우실비식당",
  "district": "평창군",
  "category": "고기·구이",
  "lat": 37.6720131454,
  "lng": 128.7090055299,
  "phone": "",
  "thumb": "http://tong.visitkorea.or.kr/cms/resource/25/2773325_image2_1.jpg",
  "i18n": {
   "ko": {
    "name": "대관령 한우실비식당",
    "desc": "",
    "address": "강원특별자치도 평창군 대관령면 대관령로 116"
   }
  }
 },
 {
  "section": "food",
  "name_ko": "대관령감자옹심이",
  "district": "평창군",
  "category": "한식·백반",
  "lat": 37.6801009271,
  "lng": 128.7001338602,
  "phone": "",
  "thumb": "http://tong.visitkorea.or.kr/cms/resource/81/2874481_image3_1.jpg",
  "i18n": {
   "ko": {
    "name": "대관령감자옹심이",
    "desc": "",
    "address": "강원특별자치도 평창군 대관령면 경강로 5193"
   }
  }
 },
 {
  "section": "food",
  "name_ko": "대관령김치찌개집",
  "district": "평창군",
  "category": "한식·백반",
  "lat": 37.6868861689,
  "lng": 128.6957340493,
  "phone": "",
  "thumb": "http://tong.visitkorea.or.kr/cms/resource/88/2796888_image3_1.JPG",
  "i18n": {
   "ko": {
    "name": "대관령김치찌개집",
    "desc": "",
    "address": "강원특별자치도 평창군 대관령면 경강로 5103"
   }
  }
 },
 {
  "section": "food",
  "name_ko": "대관령옛길127",
  "district": "강릉시",
  "category": "카페·베이커리",
  "lat": 37.7109186795,
  "lng": 128.7968436456,
  "phone": "",
  "thumb": "",
  "i18n": {
   "ko": {
    "name": "대관령옛길127",
    "desc": "",
    "address": "강원특별자치도 강릉시 성산면 대관령옛길 127"
   }
  }
 },
 {
  "section": "food",
  "name_ko": "대관령한우",
  "district": "평창군",
  "category": "고기·구이",
  "lat": 37.5789416837,
  "lng": 128.331697928,
  "phone": "",
  "thumb": "http://tong.visitkorea.or.kr/cms/resource/71/2789971_image3_1.jpg",
  "i18n": {
   "ko": {
    "name": "대관령한우",
    "desc": "",
    "address": "강원특별자치도 평창군 봉평면 태기로 228-33"
   }
  }
 },
 {
  "section": "food",
  "name_ko": "대관령한우국밥타운",
  "district": "평창군",
  "category": "고기·구이",
  "lat": 37.6668415415,
  "lng": 128.7100528159,
  "phone": "",
  "thumb": "http://tong.visitkorea.or.kr/cms/resource/67/2776567_image2_1.jpg",
  "i18n": {
   "ko": {
    "name": "대관령한우국밥타운",
    "desc": "",
    "address": "강원특별자치도 평창군 대관령면 올림픽로 183"
   }
  }
 },
 {
  "section": "food",
  "name_ko": "대관령한우타운",
  "district": "평창군",
  "category": "고기·구이",
  "lat": 37.6754181304,
  "lng": 128.6998618055,
  "phone": "",
  "thumb": "http://tong.visitkorea.or.kr/cms/resource/73/2926673_image3_1.jpg",
  "i18n": {
   "ko": {
    "name": "대관령한우타운",
    "desc": "",
    "address": "강원특별자치도 평창군 대관령면 올림픽로 38"
   }
  }
 },
 {
  "section": "food",
  "name_ko": "대관령한우프라자",
  "district": "평창군",
  "category": "고기·구이",
  "lat": 37.6034668084,
  "lng": 128.3413935394,
  "phone": "",
  "thumb": "http://tong.visitkorea.or.kr/cms/resource/34/2919134_image3_1.jpg",
  "i18n": {
   "ko": {
    "name": "대관령한우프라자",
    "desc": "",
    "address": "강원특별자치도 평창군 봉평면 무이진등길 37"
   }
  }
 },
 {
  "section": "food",
  "name_ko": "대동면옥",
  "district": "강릉시",
  "category": "한식·백반",
  "lat": 37.8912872302,
  "lng": 128.8247216706,
  "phone": "",
  "thumb": "http://tong.visitkorea.or.kr/cms/resource/02/2871302_image3_1.jpg",
  "i18n": {
   "ko": {
    "name": "대동면옥",
    "desc": "",
    "address": "강원특별자치도 강릉시 연주로 438"
   }
  }
 },
 {
  "section": "food",
  "name_ko": "대동면옥 강릉점",
  "district": "강릉시",
  "category": "한식·백반",
  "lat": 37.7738632316,
  "lng": 128.8910859917,
  "phone": "",
  "thumb": "http://tong.visitkorea.or.kr/cms/resource/78/2871278_image3_1.jpg",
  "i18n": {
   "ko": {
    "name": "대동면옥 강릉점",
    "desc": "",
    "address": "강원특별자치도 강릉시 종합운동장길 26-8"
   }
  }
 },
 {
  "section": "food",
  "name_ko": "대박식당",
  "district": "평창군",
  "category": "한식·백반",
  "lat": 37.6720075984,
  "lng": 128.7094221592,
  "phone": "",
  "thumb": "http://tong.visitkorea.or.kr/cms/resource/30/2801730_image3_1.jpg",
  "i18n": {
   "ko": {
    "name": "대박식당",
    "desc": "",
    "address": "강원특별자치도 평창군 대관령면 대관령로 122"
   }
  }
 },
 {
  "section": "food",
  "name_ko": "대박집",
  "district": "정선군",
  "category": "한식·백반",
  "lat": 37.3808375725,
  "lng": 128.6644961407,
  "phone": "",
  "thumb": "http://tong.visitkorea.or.kr/cms/resource/26/2363526_image3_1.jpg",
  "i18n": {
   "ko": {
    "name": "대박집",
    "desc": "",
    "address": "강원특별자치도 정선군 정선읍 5일장길 37-5"
   }
  }
 },
 {
  "section": "food",
  "name_ko": "대박집",
  "district": "평창군",
  "category": "한식·백반",
  "lat": 37.5001225811,
  "lng": 128.4548558543,
  "phone": "",
  "thumb": "http://tong.visitkorea.or.kr/cms/resource/44/2784044_image2_1.jpg",
  "i18n": {
   "ko": {
    "name": "대박집",
    "desc": "",
    "address": "강원특별자치도 평창군 대화면 대화시장2길 8"
   }
  }
 },
 {
  "section": "food",
  "name_ko": "대봉식당",
  "district": "평창군",
  "category": "한식·백반",
  "lat": 37.6509988422,
  "lng": 128.7055814809,
  "phone": "",
  "thumb": "http://tong.visitkorea.or.kr/cms/resource/18/2796018_image3_1.jpg",
  "i18n": {
   "ko": {
    "name": "대봉식당",
    "desc": "",
    "address": "강원특별자치도 평창군 대관령면 올림픽로 715"
   }
  }
 },
 {
  "section": "food",
  "name_ko": "대영매운탕",
  "district": "영월군",
  "category": "한식·백반",
  "lat": 37.129777915,
  "lng": 128.5359762633,
  "phone": "",
  "thumb": "",
  "i18n": {
   "ko": {
    "name": "대영매운탕",
    "desc": "",
    "address": "강원특별자치도 영월군 김삿갓면 영월동로 1131-21"
   }
  }
 },
 {
  "section": "food",
  "name_ko": "대찬맛집",
  "district": "강릉시",
  "category": "한식·백반",
  "lat": 37.8927815571,
  "lng": 128.8275852549,
  "phone": "",
  "thumb": "",
  "i18n": {
   "ko": {
    "name": "대찬맛집",
    "desc": "",
    "address": "강원특별자치도 강릉시 주문진읍 시장길 55-1"
   }
  }
 },
 {
  "section": "food",
  "name_ko": "대청감자탕 내곡점",
  "district": "강릉시",
  "category": "면·국물",
  "lat": 37.743561002,
  "lng": 128.8818905346,
  "phone": "",
  "thumb": "",
  "i18n": {
   "ko": {
    "name": "대청감자탕 내곡점",
    "desc": "",
    "address": "강원특별자치도 강릉시 범일로 631 (내곡동)"
   }
  }
 },
 {
  "section": "food",
  "name_ko": "대청마루",
  "district": "속초시",
  "category": "한식·백반",
  "lat": 38.1982181996,
  "lng": 128.5367520966,
  "phone": "",
  "thumb": "http://tong.visitkorea.or.kr/cms/resource/35/2891835_image3_1.jpg",
  "i18n": {
   "ko": {
    "name": "대청마루",
    "desc": "",
    "address": "강원특별자치도 속초시 관광로 430 (노학동)"
   }
  }
 },
 {
  "section": "food",
  "name_ko": "대포대게회직판장",
  "district": "속초시",
  "category": "해산물·회",
  "lat": 38.173222453,
  "lng": 128.6059215938,
  "phone": "",
  "thumb": "http://tong.visitkorea.or.kr/cms/resource/07/3588707_image3_1.jpg",
  "i18n": {
   "ko": {
    "name": "대포대게회직판장",
    "desc": "",
    "address": "강원특별자치도 속초시 대포항희망길 51"
   }
  }
 },
 {
  "section": "food",
  "name_ko": "댄싱카페인",
  "district": "춘천시",
  "category": "카페·베이커리",
  "lat": 37.873712317,
  "lng": 127.7022628621,
  "phone": "",
  "thumb": "http://tong.visitkorea.or.kr/cms/resource/67/1919167_image3_1.jpg",
  "i18n": {
   "ko": {
    "name": "댄싱카페인",
    "desc": "",
    "address": "강원특별자치도 춘천시 스포츠타운길399번길 25"
   }
  }
 },
 {
  "section": "food",
  "name_ko": "댕댕클럽",
  "district": "강릉시",
  "category": "카페·베이커리",
  "lat": 37.757350754,
  "lng": 128.8654888085,
  "phone": "",
  "thumb": "http://tong.visitkorea.or.kr/cms/resource/76/2919676_image3_1.jpg",
  "i18n": {
   "ko": {
    "name": "댕댕클럽",
    "desc": "",
    "address": "강원특별자치도 강릉시 사임당로 141 4층"
   }
  }
 },
 {
  "section": "food",
  "name_ko": "더덕향",
  "district": "평창군",
  "category": "한식·백반",
  "lat": 37.6108664855,
  "lng": 128.3694268977,
  "phone": "",
  "thumb": "http://tong.visitkorea.or.kr/cms/resource/04/2781604_image2_1.jpg",
  "i18n": {
   "ko": {
    "name": "더덕향",
    "desc": "",
    "address": "강원특별자치도 평창군 봉평면 이효석길 122"
   }
  }
 },
 {
  "section": "food",
  "name_ko": "더카페 강릉중앙점",
  "district": "강릉시",
  "category": "카페·베이커리",
  "lat": 37.7526241399,
  "lng": 128.8971333263,
  "phone": "",
  "thumb": "",
  "i18n": {
   "ko": {
    "name": "더카페 강릉중앙점",
    "desc": "",
    "address": "강원특별자치도 강릉시 중앙시장2길 19 (성남동)"
   }
  }
 },
 {
  "section": "food",
  "name_ko": "덕포리국수",
  "district": "원주시",
  "category": "면·국물",
  "lat": 37.3259478085,
  "lng": 127.9887169095,
  "phone": "",
  "thumb": "http://tong.visitkorea.or.kr/cms/resource/40/2652840_image3_1.jpg",
  "i18n": {
   "ko": {
    "name": "덕포리국수",
    "desc": "",
    "address": "강원특별자치도 원주시 건강로 17-3"
   }
  }
 },
 {
  "section": "food",
  "name_ko": "도그스테이블",
  "district": "춘천시",
  "category": "카페·베이커리",
  "lat": 37.8439526939,
  "lng": 127.7454237053,
  "phone": "",
  "thumb": "http://tong.visitkorea.or.kr/cms/resource/94/2918994_image3_1.jpg",
  "i18n": {
   "ko": {
    "name": "도그스테이블",
    "desc": "",
    "address": "강원특별자치도 춘천시 안마산로 294-30"
   }
  }
 },
 {
  "section": "food",
  "name_ko": "도깨비시장",
  "district": "강릉시",
  "category": "카페·베이커리",
  "lat": 37.8814829471,
  "lng": 128.8317074559,
  "phone": "",
  "thumb": "http://tong.visitkorea.or.kr/cms/resource/68/2928268_image3_1.JPG",
  "i18n": {
   "ko": {
    "name": "도깨비시장",
    "desc": "",
    "address": "강원특별자치도 강릉시 학교담길 32-8"
   }
  }
 },
 {
  "section": "food",
  "name_ko": "도깨비젤라또",
  "district": "강릉시",
  "category": "카페·베이커리",
  "lat": 37.8795082163,
  "lng": 128.8337851075,
  "phone": "",
  "thumb": "http://tong.visitkorea.or.kr/cms/resource/41/3586741_image3_1.jpg",
  "i18n": {
   "ko": {
    "name": "도깨비젤라또",
    "desc": "",
    "address": "강원특별자치도 강릉시 해안로 1605"
   }
  }
 },
 {
  "section": "food",
  "name_ko": "도깨비젤라또",
  "district": "강릉시",
  "category": "카페·베이커리",
  "lat": 37.8795082163,
  "lng": 128.8337851075,
  "phone": "",
  "thumb": "",
  "i18n": {
   "ko": {
    "name": "도깨비젤라또",
    "desc": "",
    "address": "강원특별자치도 강릉시 주문진읍 해안로 1605"
   }
  }
 },
 {
  "section": "food",
  "name_ko": "도원",
  "district": "춘천시",
  "category": "중식",
  "lat": 37.8082242654,
  "lng": 127.6364346779,
  "phone": "",
  "thumb": "http://tong.visitkorea.or.kr/cms/resource/66/2892866_image3_1.jpg",
  "i18n": {
   "ko": {
    "name": "도원",
    "desc": "",
    "address": "강원특별자치도 춘천시 강촌로 128"
   }
  }
 },
 {
  "section": "food",
  "name_ko": "도자기카페 안다미로",
  "district": "강릉시",
  "category": "카페·베이커리",
  "lat": 37.6984136585,
  "lng": 128.8928714943,
  "phone": "",
  "thumb": "",
  "i18n": {
   "ko": {
    "name": "도자기카페 안다미로",
    "desc": "",
    "address": "강원특별자치도 강릉시 구정면 구정옥봉길 175"
   }
  }
 },
 {
  "section": "food",
  "name_ko": "돈감자탕",
  "district": "평창군",
  "category": "면·국물",
  "lat": 37.6724325383,
  "lng": 128.7088583084,
  "phone": "",
  "thumb": "http://tong.visitkorea.or.kr/cms/resource/92/2782192_image2_1.jpg",
  "i18n": {
   "ko": {
    "name": "돈감자탕",
    "desc": "",
    "address": "강원특별자치도 평창군 대관령면 대관령로 113"
   }
  }
 },
 {
  "section": "food",
  "name_ko": "돈미소",
  "district": "강릉시",
  "category": "한식·백반",
  "lat": 37.7674136678,
  "lng": 128.8751765139,
  "phone": "",
  "thumb": "",
  "i18n": {
   "ko": {
    "name": "돈미소",
    "desc": "",
    "address": "강원특별자치도 강릉시 하슬라로 195 (교동)"
   }
  }
 },
 {
  "section": "food",
  "name_ko": "돈우마을",
  "district": "강릉시",
  "category": "한식·백반",
  "lat": 37.8747448005,
  "lng": 128.829766173,
  "phone": "",
  "thumb": "",
  "i18n": {
   "ko": {
    "name": "돈우마을",
    "desc": "",
    "address": "강원특별자치도 강릉시 주문진읍 연주로 245-3"
   }
  }
 },
 {
  "section": "food",
  "name_ko": "돌체테리아",
  "district": "강릉시",
  "category": "카페·베이커리",
  "lat": 37.7677608695,
  "lng": 128.8761847449,
  "phone": "",
  "thumb": "",
  "i18n": {
   "ko": {
    "name": "돌체테리아",
    "desc": "",
    "address": "강원특별자치도 강릉시 하슬라로206번길 4-3 (교동)"
   }
  }
 },
 {
  "section": "food",
  "name_ko": "동강의아침",
  "district": "영월군",
  "category": "한식·백반",
  "lat": 37.1917256957,
  "lng": 128.5017302779,
  "phone": "",
  "thumb": "http://tong.visitkorea.or.kr/cms/resource/55/2892555_image3_1.jpg",
  "i18n": {
   "ko": {
    "name": "동강의아침",
    "desc": "",
    "address": "강원특별자치도 영월군 동강로 100"
   }
  }
 },
 {
  "section": "food",
  "name_ko": "동궁염소탕",
  "district": "강릉시",
  "category": "한식·백반",
  "lat": 37.7725220644,
  "lng": 128.9087399987,
  "phone": "",
  "thumb": "http://tong.visitkorea.or.kr/cms/resource/41/2670741_image3_1.jpg",
  "i18n": {
   "ko": {
    "name": "동궁염소탕",
    "desc": "",
    "address": "강원특별자치도 강릉시 강릉대로419번길 17"
   }
  }
 },
 {
  "section": "food",
  "name_ko": "동궁염소탕 중앙",
  "district": "강릉시",
  "category": "한식·백반",
  "lat": 37.7562431367,
  "lng": 128.8956472365,
  "phone": "",
  "thumb": "http://tong.visitkorea.or.kr/cms/resource/19/2670919_image3_1.jpg",
  "i18n": {
   "ko": {
    "name": "동궁염소탕 중앙",
    "desc": "",
    "address": "강원특별자치도 강릉시 경강로2103번길 15"
   }
  }
 },
 {
  "section": "food",
  "name_ko": "동대산식당",
  "district": "평창군",
  "category": "한식·백반",
  "lat": 37.7167114649,
  "lng": 128.6019054887,
  "phone": "",
  "thumb": "http://tong.visitkorea.or.kr/cms/resource/80/590980_image3_1.jpg",
  "i18n": {
   "ko": {
    "name": "동대산식당",
    "desc": "",
    "address": "강원특별자치도 평창군 진부면 오대산로 152"
   }
  }
 },
 {
  "section": "food",
  "name_ko": "동루골막국수",
  "district": "고성군",
  "category": "면·국물",
  "lat": 38.254624988,
  "lng": 128.5093611611,
  "phone": "",
  "thumb": "http://tong.visitkorea.or.kr/cms/resource/17/2839417_image3_1.JPG",
  "i18n": {
   "ko": {
    "name": "동루골막국수",
    "desc": "",
    "address": "강원특별자치도 고성군 성대로 188"
   }
  }
 },
 {
  "section": "food",
  "name_ko": "동막막국수",
  "district": "삼척시",
  "category": "면·국물",
  "lat": 37.3371370765,
  "lng": 129.2398376083,
  "phone": "",
  "thumb": "http://tong.visitkorea.or.kr/cms/resource/45/2892145_image3_1.jpg",
  "i18n": {
   "ko": {
    "name": "동막막국수",
    "desc": "",
    "address": "강원특별자치도 삼척시 문의재로 3777-12"
   }
  }
 },
 {
  "section": "food",
  "name_ko": "동보성",
  "district": "강릉시",
  "category": "중식",
  "lat": 37.7804796616,
  "lng": 128.9181666803,
  "phone": "",
  "thumb": "",
  "i18n": {
   "ko": {
    "name": "동보성",
    "desc": "",
    "address": "강원특별자치도 강릉시 산양큰길22번길 49 (포남동)"
   }
  }
 },
 {
  "section": "food",
  "name_ko": "동부감자옹심이",
  "district": "강릉시",
  "category": "한식·백반",
  "lat": 37.7595789584,
  "lng": 128.9006050204,
  "phone": "",
  "thumb": "",
  "i18n": {
   "ko": {
    "name": "동부감자옹심이",
    "desc": "",
    "address": "강원특별자치도 강릉시 옥천로 48 (옥천동)"
   }
  }
 },
 {
  "section": "food",
  "name_ko": "동산항물회",
  "district": "강릉시",
  "category": "일식",
  "lat": 37.7672032219,
  "lng": 128.9080763334,
  "phone": "",
  "thumb": "http://tong.visitkorea.or.kr/cms/resource/20/2684820_image3_1.jpg",
  "i18n": {
   "ko": {
    "name": "동산항물회",
    "desc": "",
    "address": "강원특별자치도 강릉시 경강로2267번길 22"
   }
  }
 },
 {
  "section": "food",
  "name_ko": "동승루",
  "district": "원주시",
  "category": "중식",
  "lat": 37.3402534466,
  "lng": 127.9326271076,
  "phone": "",
  "thumb": "http://tong.visitkorea.or.kr/cms/resource/15/2892315_image3_1.jpg",
  "i18n": {
   "ko": {
    "name": "동승루",
    "desc": "",
    "address": "강원특별자치도 원주시 이화4길 30"
   }
  }
 },
 {
  "section": "food",
  "name_ko": "동원막국수",
  "district": "평창군",
  "category": "면·국물",
  "lat": 37.3398058729,
  "lng": 128.5022869387,
  "phone": "",
  "thumb": "http://tong.visitkorea.or.kr/cms/resource/02/2789902_image3_1.jpg",
  "i18n": {
   "ko": {
    "name": "동원막국수",
    "desc": "",
    "address": "강원특별자치도 평창군 미탄면 미탄중앙로 114"
   }
  }
 },
 {
  "section": "food",
  "name_ko": "동일식당",
  "district": "양양군",
  "category": "한식·백반",
  "lat": 38.0758091353,
  "lng": 128.6241701943,
  "phone": "",
  "thumb": "http://tong.visitkorea.or.kr/cms/resource/29/2785929_image2_1.jpg",
  "i18n": {
   "ko": {
    "name": "동일식당",
    "desc": "",
    "address": "강원특별자치도 양양군 양양읍 남문3길 11-9"
   }
  }
 },
 {
  "section": "food",
  "name_ko": "동일장칼국수",
  "district": "강릉시",
  "category": "면·국물",
  "lat": 37.7659703348,
  "lng": 128.9236166386,
  "phone": "",
  "thumb": "http://tong.visitkorea.or.kr/cms/resource/81/2868981_image3_1.jpg",
  "i18n": {
   "ko": {
    "name": "동일장칼국수",
    "desc": "",
    "address": "강원특별자치도 강릉시 강변로534번길 61"
   }
  }
 },
 {
  "section": "food",
  "name_ko": "동해바다샾1971",
  "district": "강릉시",
  "category": "한식·백반",
  "lat": 37.7704474937,
  "lng": 128.9184391887,
  "phone": "",
  "thumb": "",
  "i18n": {
   "ko": {
    "name": "동해바다샾1971",
    "desc": "",
    "address": "강원특별자치도 강릉시 하평5길 2 (포남동)"
   }
  }
 },
 {
  "section": "food",
  "name_ko": "동해반점",
  "district": "고성군",
  "category": "한식·백반",
  "lat": 38.4932761299,
  "lng": 128.4286776974,
  "phone": "",
  "thumb": "http://tong.visitkorea.or.kr/cms/resource/86/2874286_image3_1.jpg",
  "i18n": {
   "ko": {
    "name": "동해반점",
    "desc": "",
    "address": "강원특별자치도 고성군 현내면 한나루로 52"
   }
  }
 },
 {
  "section": "food",
  "name_ko": "동해순대국집",
  "district": "속초시",
  "category": "한식·백반",
  "lat": 38.2045962485,
  "lng": 128.5889027151,
  "phone": "",
  "thumb": "http://tong.visitkorea.or.kr/cms/resource/10/2711310_image3_1.jpg",
  "i18n": {
   "ko": {
    "name": "동해순대국집",
    "desc": "",
    "address": "강원특별자치도 속초시 중앙로129번길 35-17 (금호동)"
   }
  }
 },
 {
  "section": "food",
  "name_ko": "동해안붉은대게",
  "district": "속초시",
  "category": "해산물·회",
  "lat": 38.1922034839,
  "lng": 128.6011186592,
  "phone": "",
  "thumb": "http://tong.visitkorea.or.kr/cms/resource/64/2892364_image3_1.jpg",
  "i18n": {
   "ko": {
    "name": "동해안붉은대게",
    "desc": "",
    "address": "강원특별자치도 속초시 해오름로188번길 17"
   }
  }
 },
 {
  "section": "food",
  "name_ko": "동해횟집",
  "district": "강릉시",
  "category": "해산물·회",
  "lat": 37.7966694298,
  "lng": 128.9169162911,
  "phone": "",
  "thumb": "",
  "i18n": {
   "ko": {
    "name": "동해횟집",
    "desc": "",
    "address": "강원특별자치도 강릉시 창해로350번길 31 (강문동)"
   }
  }
 },
 {
  "section": "food",
  "name_ko": "두꺼비막국수",
  "district": "평창군",
  "category": "면·국물",
  "lat": 37.6165186265,
  "lng": 128.3703266465,
  "phone": "",
  "thumb": "http://tong.visitkorea.or.kr/cms/resource/97/2781897_image3_1.jpg",
  "i18n": {
   "ko": {
    "name": "두꺼비막국수",
    "desc": "",
    "address": "강원특별자치도 평창군 봉평면 메밀꽃길 36"
   }
  }
 },
 {
  "section": "food",
  "name_ko": "두동서닭갈비",
  "district": "평창군",
  "category": "고기·구이",
  "lat": 37.3668951352,
  "lng": 128.3938236613,
  "phone": "",
  "thumb": "http://tong.visitkorea.or.kr/cms/resource/52/2781552_image3_1.jpg",
  "i18n": {
   "ko": {
    "name": "두동서닭갈비",
    "desc": "",
    "address": "강원특별자치도 평창군 평창읍 문화길 72"
   }
  }
 },
 {
  "section": "food",
  "name_ko": "두딩",
  "district": "강릉시",
  "category": "카페·베이커리",
  "lat": 37.7581650685,
  "lng": 128.8921641583,
  "phone": "",
  "thumb": "",
  "i18n": {
   "ko": {
    "name": "두딩",
    "desc": "",
    "address": "강원특별자치도 강릉시 강릉대로 197 (교동)"
   }
  }
 },
 {
  "section": "food",
  "name_ko": "두메산골",
  "district": "속초시",
  "category": "한식·백반",
  "lat": 38.200778945,
  "lng": 128.5332551123,
  "phone": "",
  "thumb": "",
  "i18n": {
   "ko": {
    "name": "두메산골",
    "desc": "",
    "address": "강원특별자치도 속초시 관광로 457-11 (노학동)"
   }
  }
 },
 {
  "section": "food",
  "name_ko": "두부메밀촌",
  "district": "평창군",
  "category": "한식·백반",
  "lat": 37.6591686162,
  "lng": 128.4828429817,
  "phone": "",
  "thumb": "http://tong.visitkorea.or.kr/cms/resource/09/2790009_image3_1.jpg",
  "i18n": {
   "ko": {
    "name": "두부메밀촌",
    "desc": "",
    "address": "강원특별자치도 평창군 용평면 운두령로 274"
   }
  }
 },
 {
  "section": "food",
  "name_ko": "두에시스",
  "district": "강릉시",
  "category": "양식·세계요리",
  "lat": 37.754937784,
  "lng": 128.8983109263,
  "phone": "",
  "thumb": "http://tong.visitkorea.or.kr/cms/resource/95/2868995_image3_1.jpg",
  "i18n": {
   "ko": {
    "name": "두에시스",
    "desc": "",
    "address": "강원특별자치도 강릉시 금성로14번길 7"
   }
  }
 },
 {
  "section": "food",
  "name_ko": "두일막국수",
  "district": "평창군",
  "category": "면·국물",
  "lat": 37.6855337466,
  "lng": 128.5618156109,
  "phone": "",
  "thumb": "http://tong.visitkorea.or.kr/cms/resource/75/2794375_image3_1.jpg",
  "i18n": {
   "ko": {
    "name": "두일막국수",
    "desc": "",
    "address": "강원특별자치도 평창군 진부면 방아다리로 324"
   }
  }
 },
 {
  "section": "food",
  "name_ko": "둔내막국수",
  "district": "횡성군",
  "category": "면·국물",
  "lat": 37.5125999083,
  "lng": 128.2140688576,
  "phone": "",
  "thumb": "http://tong.visitkorea.or.kr/cms/resource/70/2875570_image3_1.jpg",
  "i18n": {
   "ko": {
    "name": "둔내막국수",
    "desc": "",
    "address": "강원특별자치도 횡성군 둔내로 30"
   }
  }
 },
 {
  "section": "food",
  "name_ko": "둔내민속촌",
  "district": "횡성군",
  "category": "한식·백반",
  "lat": 37.5158384895,
  "lng": 128.2176156638,
  "phone": "",
  "thumb": "",
  "i18n": {
   "ko": {
    "name": "둔내민속촌",
    "desc": "",
    "address": "강원특별자치도 횡성군 둔내면 둔내로47번길 47"
   }
  }
 },
 {
  "section": "food",
  "name_ko": "둔내역한우 본관",
  "district": "횡성군",
  "category": "고기·구이",
  "lat": 37.5105807937,
  "lng": 128.2191823455,
  "phone": "",
  "thumb": "http://tong.visitkorea.or.kr/cms/resource/54/2875654_image3_1.jpeg",
  "i18n": {
   "ko": {
    "name": "둔내역한우 본관",
    "desc": "",
    "address": "강원특별자치도 횡성군 둔내면 고원로 117"
   }
  }
 },
 {
  "section": "food",
  "name_ko": "둥개둥개",
  "district": "속초시",
  "category": "카페·베이커리",
  "lat": 38.1873344707,
  "lng": 128.5941472226,
  "phone": "",
  "thumb": "http://tong.visitkorea.or.kr/cms/resource/26/2919726_image3_1.jpg",
  "i18n": {
   "ko": {
    "name": "둥개둥개",
    "desc": "",
    "address": "강원특별자치도 속초시 선사로2길 14"
   }
  }
 },
 {
  "section": "food",
  "name_ko": "둥근닭갈비 막국수 닭보쌈",
  "district": "춘천시",
  "category": "고기·구이",
  "lat": 37.9223903446,
  "lng": 127.721492999,
  "phone": "",
  "thumb": "http://tong.visitkorea.or.kr/cms/resource/85/3046185_image3_1.jpg",
  "i18n": {
   "ko": {
    "name": "둥근닭갈비 막국수 닭보쌈",
    "desc": "",
    "address": "강원특별자치도 춘천시 동내면 춘천순환로72번길 54"
   }
  }
 },
 {
  "section": "food",
  "name_ko": "드림야식",
  "district": "평창군",
  "category": "한식·백반",
  "lat": 37.6729685965,
  "lng": 128.7093249168,
  "phone": "",
  "thumb": "http://tong.visitkorea.or.kr/cms/resource/23/2794123_image2_1.JPG",
  "i18n": {
   "ko": {
    "name": "드림야식",
    "desc": "",
    "address": "강원특별자치도 평창군 대관령면 횡계2길 8-1"
   }
  }
 },
 {
  "section": "food",
  "name_ko": "들꽃가든",
  "district": "원주시",
  "category": "한식·백반",
  "lat": 37.4061719168,
  "lng": 127.8416528468,
  "phone": "",
  "thumb": "http://tong.visitkorea.or.kr/cms/resource/04/2892304_image3_1.jpg",
  "i18n": {
   "ko": {
    "name": "들꽃가든",
    "desc": "",
    "address": "강원특별자치도 원주시 월송석화로 488"
   }
  }
 },
 {
  "section": "food",
  "name_ko": "들꽃가든",
  "district": "홍천군",
  "category": "한식·백반",
  "lat": 37.6233434948,
  "lng": 127.665262484,
  "phone": "",
  "thumb": "http://tong.visitkorea.or.kr/cms/resource/08/2892308_image3_1.jpg",
  "i18n": {
   "ko": {
    "name": "들꽃가든",
    "desc": "",
    "address": "강원특별자치도 홍천군 서면 한서로 2045"
   }
  }
 },
 {
  "section": "food",
  "name_ko": "들꽃이야기",
  "district": "원주시",
  "category": "카페·베이커리",
  "lat": 37.2717252207,
  "lng": 128.08039912,
  "phone": "",
  "thumb": "http://tong.visitkorea.or.kr/cms/resource/60/3557060_image3_1.jpg",
  "i18n": {
   "ko": {
    "name": "들꽃이야기",
    "desc": "",
    "address": "강원특별자치도 원주시 신림면 성남로 323-12"
   }
  }
 },
 {
  "section": "food",
  "name_ko": "등대생선구이",
  "district": "속초시",
  "category": "해산물·회",
  "lat": 38.2021410807,
  "lng": 128.5941189843,
  "phone": "",
  "thumb": "http://tong.visitkorea.or.kr/cms/resource/85/3421485_image3_1.jpg",
  "i18n": {
   "ko": {
    "name": "등대생선구이",
    "desc": "",
    "address": "강원특별자치도 속초시 아바이마을길 4 (청호동)"
   }
  }
 },
 {
  "section": "food",
  "name_ko": "등불가든",
  "district": "양양군",
  "category": "한식·백반",
  "lat": 38.10364491,
  "lng": 128.6304048744,
  "phone": "",
  "thumb": "http://tong.visitkorea.or.kr/cms/resource/82/3071582_image3_1.jpg",
  "i18n": {
   "ko": {
    "name": "등불가든",
    "desc": "",
    "address": "강원특별자치도 양양군 양양읍 포월나들길 23"
   }
  }
 },
 {
  "section": "food",
  "name_ko": "딥버거",
  "district": "평창군",
  "category": "양식·세계요리",
  "lat": 37.5857963317,
  "lng": 128.3256538231,
  "phone": "",
  "thumb": "http://tong.visitkorea.or.kr/cms/resource/09/2782409_image3_1.jpg",
  "i18n": {
   "ko": {
    "name": "딥버거",
    "desc": "",
    "address": "강원특별자치도 평창군 봉평면 태기로 137"
   }
  }
 },
 {
  "section": "food",
  "name_ko": "딴지펍 (PIZZA&PASTA)",
  "district": "춘천시",
  "category": "양식·세계요리",
  "lat": 37.7901159965,
  "lng": 127.5261035858,
  "phone": "",
  "thumb": "http://tong.visitkorea.or.kr/cms/resource/81/2845681_image3_1.jpg",
  "i18n": {
   "ko": {
    "name": "딴지펍 (PIZZA&PASTA)",
    "desc": "",
    "address": "강원특별자치도 춘천시 남산면 남이섬길 1"
   }
  }
 },
 {
  "section": "food",
  "name_ko": "똥고집",
  "district": "강릉시",
  "category": "한식·백반",
  "lat": 37.7604153442,
  "lng": 128.9196421688,
  "phone": "",
  "thumb": "",
  "i18n": {
   "ko": {
    "name": "똥고집",
    "desc": "",
    "address": "강원특별자치도 강릉시 월대산로 85-8 (입암동)"
   }
  }
 },
 {
  "section": "food",
  "name_ko": "뚜레한우 홍천본점",
  "district": "홍천군",
  "category": "고기·구이",
  "lat": 37.8066338763,
  "lng": 127.9922135033,
  "phone": "",
  "thumb": "http://tong.visitkorea.or.kr/cms/resource/28/2839728_image3_1.JPG",
  "i18n": {
   "ko": {
    "name": "뚜레한우 홍천본점",
    "desc": "",
    "address": "강원특별자치도 홍천군 두촌면 한계길 110"
   }
  }
 },
 {
  "section": "food",
  "name_ko": "뚝배기양평해장국 포남점",
  "district": "강릉시",
  "category": "면·국물",
  "lat": 37.7670588018,
  "lng": 128.9084207517,
  "phone": "",
  "thumb": "",
  "i18n": {
   "ko": {
    "name": "뚝배기양평해장국 포남점",
    "desc": "",
    "address": "강원특별자치도 강릉시 경강로2267번길 18 (포남동, 수계 상가아파트)"
   }
  }
 },
 {
  "section": "food",
  "name_ko": "뚱보냉면",
  "district": "강릉시",
  "category": "면·국물",
  "lat": 37.7553404251,
  "lng": 128.8936835525,
  "phone": "",
  "thumb": "",
  "i18n": {
   "ko": {
    "name": "뚱보냉면",
    "desc": "",
    "address": "강원특별자치도 강릉시 토성로 156-2 (임당동)"
   }
  }
 },
 {
  "section": "food",
  "name_ko": "뚱할머니순두부",
  "district": "강릉시",
  "category": "한식·백반",
  "lat": 37.7871092505,
  "lng": 128.9079646164,
  "phone": "",
  "thumb": "",
  "i18n": {
   "ko": {
    "name": "뚱할머니순두부",
    "desc": "",
    "address": "강원특별자치도 강릉시 난설헌로 142 (포남동)"
   }
  }
 },
 {
  "section": "food",
  "name_ko": "라몬타냐",
  "district": "강릉시",
  "category": "양식·세계요리",
  "lat": 37.7387418481,
  "lng": 128.8681808072,
  "phone": "",
  "thumb": "http://tong.visitkorea.or.kr/cms/resource/14/2869014_image3_1.jpg",
  "i18n": {
   "ko": {
    "name": "라몬타냐",
    "desc": "",
    "address": "강원특별자치도 강릉시 관솔길 22-10"
   }
  }
 },
 {
  "section": "food",
  "name_ko": "라보엠",
  "district": "강릉시",
  "category": "양식·세계요리",
  "lat": 37.7148937574,
  "lng": 128.824521586,
  "phone": "",
  "thumb": "",
  "i18n": {
   "ko": {
    "name": "라보엠",
    "desc": "",
    "address": "강원특별자치도 강릉시 성산면 백두대간로 2775-19"
   }
  }
 },
 {
  "section": "food",
  "name_ko": "라티엔다",
  "district": "강릉시",
  "category": "카페·베이커리",
  "lat": 37.8020402102,
  "lng": 128.8748782472,
  "phone": "",
  "thumb": "http://tong.visitkorea.or.kr/cms/resource/96/2891896_image3_1.jpg",
  "i18n": {
   "ko": {
    "name": "라티엔다",
    "desc": "",
    "address": "강원특별자치도 강릉시 난곡길 219"
   }
  }
 },
 {
  "section": "food",
  "name_ko": "래원",
  "district": "강릉시",
  "category": "중식",
  "lat": 37.7588401427,
  "lng": 128.8999717671,
  "phone": "",
  "thumb": "",
  "i18n": {
   "ko": {
    "name": "래원",
    "desc": "",
    "address": "강원특별자치도 강릉시 동부시장길 9 (옥천동)"
   }
  }
 },
 {
  "section": "food",
  "name_ko": "러스틱라이프",
  "district": "홍천군",
  "category": "카페·베이커리",
  "lat": 37.6819142743,
  "lng": 127.9526902466,
  "phone": "",
  "thumb": "http://tong.visitkorea.or.kr/cms/resource/26/3555326_image3_1.jpg",
  "i18n": {
   "ko": {
    "name": "러스틱라이프",
    "desc": "",
    "address": "강원특별자치도 홍천군 영귀미면 속새길 70"
   }
  }
 },
 {
  "section": "food",
  "name_ko": "로스터리 카페 더웨이",
  "district": "춘천시",
  "category": "카페·베이커리",
  "lat": 37.8162193874,
  "lng": 127.7228987978,
  "phone": "",
  "thumb": "http://tong.visitkorea.or.kr/cms/resource/53/2919953_image3_1.jpg",
  "i18n": {
   "ko": {
    "name": "로스터리 카페 더웨이",
    "desc": "",
    "address": "강원특별자치도 춘천시 신동면 풍류1길 72"
   }
  }
 },
 {
  "section": "food",
  "name_ko": "로지커피",
  "district": "강릉시",
  "category": "카페·베이커리",
  "lat": 37.770800846,
  "lng": 128.9499446736,
  "phone": "",
  "thumb": "http://tong.visitkorea.or.kr/cms/resource/79/2927579_image3_1.JPG",
  "i18n": {
   "ko": {
    "name": "로지커피",
    "desc": "",
    "address": "강원특별자치도 강릉시 창해로14번길 52"
   }
  }
 },
 {
  "section": "food",
  "name_ko": "롯데리아 강릉내곡점",
  "district": "강릉시",
  "category": "양식·세계요리",
  "lat": 37.745491389,
  "lng": 128.8846874454,
  "phone": "",
  "thumb": "",
  "i18n": {
   "ko": {
    "name": "롯데리아 강릉내곡점",
    "desc": "",
    "address": "강원특별자치도 강릉시 범일로 663 (내곡동)"
   }
  }
 },
 {
  "section": "food",
  "name_ko": "롯데리아 강릉입암점",
  "district": "강릉시",
  "category": "양식·세계요리",
  "lat": 37.7594043589,
  "lng": 128.9200866046,
  "phone": "",
  "thumb": "",
  "i18n": {
   "ko": {
    "name": "롯데리아 강릉입암점",
    "desc": "",
    "address": "강원특별자치도 강릉시 성덕포남로 46 (입암동)"
   }
  }
 },
 {
  "section": "food",
  "name_ko": "롱블랙",
  "district": "강릉시",
  "category": "카페·베이커리",
  "lat": 37.7956334557,
  "lng": 128.9177884667,
  "phone": "",
  "thumb": "http://tong.visitkorea.or.kr/cms/resource/18/2891918_image3_1.jpg",
  "i18n": {
   "ko": {
    "name": "롱블랙",
    "desc": "",
    "address": "강원특별자치도 강릉시 창해로362번길 12"
   }
  }
 },
 {
  "section": "food",
  "name_ko": "루체",
  "district": "원주시",
  "category": "양식·세계요리",
  "lat": 37.3211891644,
  "lng": 127.9424489991,
  "phone": "",
  "thumb": "http://tong.visitkorea.or.kr/cms/resource/56/2919456_image3_1.jpg",
  "i18n": {
   "ko": {
    "name": "루체",
    "desc": "",
    "address": "강원특별자치도 원주시 판부면 매봉길 16-4 1층"
   }
  }
 },
 {
  "section": "food",
  "name_ko": "륭도객잔",
  "district": "춘천시",
  "category": "중식",
  "lat": 37.873695823,
  "lng": 127.7114175845,
  "phone": "",
  "thumb": "http://tong.visitkorea.or.kr/cms/resource/36/3421636_image3_1.jpg",
  "i18n": {
   "ko": {
    "name": "륭도객잔",
    "desc": "",
    "address": "강원특별자치도 춘천시 이디오피아길 7 (근화동)"
   }
  }
 },
 {
  "section": "food",
  "name_ko": "르 블루",
  "district": "강릉시",
  "category": "카페·베이커리",
  "lat": 37.7505465614,
  "lng": 128.8950196918,
  "phone": "",
  "thumb": "http://tong.visitkorea.or.kr/cms/resource/38/2891938_image3_1.jpeg",
  "i18n": {
   "ko": {
    "name": "르 블루",
    "desc": "",
    "address": "강원특별자치도 강릉시 임영로 99-6"
   }
  }
 },
 {
  "section": "food",
  "name_ko": "르봉마젤",
  "district": "강릉시",
  "category": "카페·베이커리",
  "lat": 37.7570152258,
  "lng": 128.8934001928,
  "phone": "",
  "thumb": "http://tong.visitkorea.or.kr/cms/resource/63/2891963_image3_1.jpg",
  "i18n": {
   "ko": {
    "name": "르봉마젤",
    "desc": "",
    "address": "강원특별자치도 강릉시 임영로180번길 16"
   }
  }
 },
 {
  "section": "food",
  "name_ko": "리틀다이너",
  "district": "강릉시",
  "category": "양식·세계요리",
  "lat": 37.7652124193,
  "lng": 128.9405151402,
  "phone": "",
  "thumb": "http://tong.visitkorea.or.kr/cms/resource/23/2868723_image3_1.jpg",
  "i18n": {
   "ko": {
    "name": "리틀다이너",
    "desc": "",
    "address": "강원특별자치도 강릉시 성덕로 105 (병산동)"
   }
  }
 },
 {
  "section": "food",
  "name_ko": "마마타타",
  "district": "강릉시",
  "category": "양식·세계요리",
  "lat": 37.773790778,
  "lng": 128.8787898796,
  "phone": "",
  "thumb": "http://tong.visitkorea.or.kr/cms/resource/86/2919586_image3_1.jpg",
  "i18n": {
   "ko": {
    "name": "마마타타",
    "desc": "",
    "address": "강원특별자치도 강릉시 경포로 33-25 2층"
   }
  }
 },
 {
  "section": "food",
  "name_ko": "마망스",
  "district": "원주시",
  "category": "카페·베이커리",
  "lat": 37.3223281654,
  "lng": 127.9555533395,
  "phone": "",
  "thumb": "http://tong.visitkorea.or.kr/cms/resource/89/3444189_image3_1.jpg",
  "i18n": {
   "ko": {
    "name": "마망스",
    "desc": "",
    "address": "강원특별자치도 원주시 단관길 67-3 (단구동)"
   }
  }
 },
 {
  "section": "food",
  "name_ko": "마시와 본점",
  "district": "강릉시",
  "category": "카페·베이커리",
  "lat": 37.8362134348,
  "lng": 128.8442410617,
  "phone": "",
  "thumb": "http://tong.visitkorea.or.kr/cms/resource/95/2891995_image3_1.jpg",
  "i18n": {
   "ko": {
    "name": "마시와 본점",
    "desc": "",
    "address": "강원특별자치도 강릉시 사천면 동해대로 3957"
   }
  }
 },
 {
  "section": "food",
  "name_ko": "마지식당",
  "district": "평창군",
  "category": "한식·백반",
  "lat": 37.3668534891,
  "lng": 128.3946791406,
  "phone": "",
  "thumb": "http://tong.visitkorea.or.kr/cms/resource/60/2790160_image2_1.jpg",
  "i18n": {
   "ko": {
    "name": "마지식당",
    "desc": "",
    "address": "강원특별자치도 평창군 평창읍 평창시장1길 10"
   }
  }
 },
 {
  "section": "food",
  "name_ko": "마카 카페",
  "district": "평창군",
  "category": "카페·베이커리",
  "lat": 37.6162353619,
  "lng": 128.3722237059,
  "phone": "",
  "thumb": "http://tong.visitkorea.or.kr/cms/resource/79/2789479_image2_1.jpg",
  "i18n": {
   "ko": {
    "name": "마카 카페",
    "desc": "",
    "address": "강원특별자치도 평창군 봉평면 메밀꽃길 10-16"
   }
  }
 },
 {
  "section": "food",
  "name_ko": "만나정 오크밸리본점",
  "district": "원주시",
  "category": "한식·백반",
  "lat": 37.4139125492,
  "lng": 127.834158854,
  "phone": "",
  "thumb": "http://tong.visitkorea.or.kr/cms/resource/98/2892298_image3_1.jpg",
  "i18n": {
   "ko": {
    "name": "만나정 오크밸리본점",
    "desc": "",
    "address": "강원특별자치도 원주시 월송석화로 604"
   }
  }
 },
 {
  "section": "food",
  "name_ko": "만동면옥",
  "district": "강릉시",
  "category": "한식·백반",
  "lat": 37.7635459593,
  "lng": 128.9412317945,
  "phone": "",
  "thumb": "",
  "i18n": {
   "ko": {
    "name": "만동면옥",
    "desc": "",
    "address": "강원특별자치도 강릉시 공항길43번길 8 (병산동)"
   }
  }
 },
 {
  "section": "food",
  "name_ko": "만동제과",
  "district": "강릉시",
  "category": "카페·베이커리",
  "lat": 37.7552099985,
  "lng": 128.8995302524,
  "phone": "",
  "thumb": "http://tong.visitkorea.or.kr/cms/resource/61/2892061_image3_1.png",
  "i18n": {
   "ko": {
    "name": "만동제과",
    "desc": "",
    "address": "강원특별자치도 강릉시 금성로 6 (옥천동)"
   }
  }
 },
 {
  "section": "food",
  "name_ko": "만선감자옹심이",
  "district": "강릉시",
  "category": "한식·백반",
  "lat": 37.7629821355,
  "lng": 128.9412040361,
  "phone": "",
  "thumb": "",
  "i18n": {
   "ko": {
    "name": "만선감자옹심이",
    "desc": "",
    "address": "강원특별자치도 강릉시 공항길 46 (병산동)"
   }
  }
 },
 {
  "section": "food",
  "name_ko": "만성횟집",
  "district": "고성군",
  "category": "해산물·회",
  "lat": 38.3273890873,
  "lng": 128.5277544329,
  "phone": "",
  "thumb": "http://tong.visitkorea.or.kr/cms/resource/74/2895174_image3_1.png",
  "i18n": {
   "ko": {
    "name": "만성횟집",
    "desc": "",
    "address": "강원특별자치도 고성군 심층수길 33 만성횟집"
   }
  }
 },
 {
  "section": "food",
  "name_ko": "맘스터치 강릉내곡점",
  "district": "강릉시",
  "category": "양식·세계요리",
  "lat": 37.7427833156,
  "lng": 128.8819516643,
  "phone": "",
  "thumb": "",
  "i18n": {
   "ko": {
    "name": "맘스터치 강릉내곡점",
    "desc": "",
    "address": "강원특별자치도 강릉시 남부로17번길 33 (내곡동)"
   }
  }
 },
 {
  "section": "food",
  "name_ko": "맛드린",
  "district": "강릉시",
  "category": "한식·백반",
  "lat": 37.7774430544,
  "lng": 128.8747540195,
  "phone": "",
  "thumb": "http://tong.visitkorea.or.kr/cms/resource/62/2868662_image3_1.jpg",
  "i18n": {
   "ko": {
    "name": "맛드린",
    "desc": "",
    "address": "강원특별자치도 강릉시 죽헌길85번길 6"
   }
  }
 },
 {
  "section": "food",
  "name_ko": "맛마루부대찌개",
  "district": "강릉시",
  "category": "한식·백반",
  "lat": 37.7921227817,
  "lng": 128.9193634337,
  "phone": "",
  "thumb": "",
  "i18n": {
   "ko": {
    "name": "맛마루부대찌개",
    "desc": "",
    "address": "강원특별자치도 강릉시 해안로 298-5 (강문동)"
   }
  }
 },
 {
  "section": "food",
  "name_ko": "맛있는대게 홍게",
  "district": "강릉시",
  "category": "해산물·회",
  "lat": 37.8926149302,
  "lng": 128.8286407201,
  "phone": "",
  "thumb": "",
  "i18n": {
   "ko": {
    "name": "맛있는대게 홍게",
    "desc": "",
    "address": "강원특별자치도 강릉시 주문진읍 항구로 66"
   }
  }
 },
 {
  "section": "food",
  "name_ko": "매자식당",
  "district": "속초시",
  "category": "양식·세계요리",
  "lat": 38.2102788741,
  "lng": 128.5865388634,
  "phone": "",
  "thumb": "http://tong.visitkorea.or.kr/cms/resource/75/2891875_image3_1.jpg",
  "i18n": {
   "ko": {
    "name": "매자식당",
    "desc": "",
    "address": "강원특별자치도 속초시 번영로105번길 17"
   }
  }
 },