[
 {
  "section": "sights",
  "name_ko": "가곡유황온천&스파",
  "district": "삼척시",
  "category": "온천",
  "lat": 37.1509022547,
  "lng": 129.2064490523,
  "phone": "",
  "thumb": "http://tong.visitkorea.or.kr/cms/resource/54/2994054_image3_1.jpg",
  "i18n": {
   "ko": {
    "name": "가곡유황온천&스파",
    "desc": "",
    "address": "강원특별자치도 삼척시 가곡면 가곡천로 1510"
   }
  }
 },
 {
  "section": "sights",
  "name_ko": "가람리조트",
  "district": "홍천군",
  "category": "관광단지",
  "lat": 37.8364309102,
  "lng": 128.0184630062,
  "phone": "",
  "thumb": "http://tong.visitkorea.or.kr/cms/resource/68/2762468_image2_1.JPG",
  "i18n": {
   "ko": {
    "name": "가람리조트",
    "desc": "",
    "address": "강원특별자치도 홍천군 두촌면 부채들길 29"
   }
  }
 },
 {
  "section": "sights",
  "name_ko": "가리왕산케이블카",
  "district": "정선군",
  "category": "이색체험",
  "lat": 37.4742535268,
  "lng": 128.6097538017,
  "phone": "",
  "thumb": "http://tong.visitkorea.or.kr/cms/resource/30/3533330_image3_1.jpg",
  "i18n": {
   "ko": {
    "name": "가리왕산케이블카",
    "desc": "",
    "address": "강원특별자치도 정선군 북평면 중봉길 41-35"
   }
  }
 },
 {
  "section": "sights",
  "name_ko": "가원습지 생태자연공원",
  "district": "동해시",
  "category": "자연생태관광지",
  "lat": 37.4736521046,
  "lng": 129.1070564038,
  "phone": "",
  "thumb": "http://tong.visitkorea.or.kr/cms/resource/61/3344961_image3_1.jpg",
  "i18n": {
   "ko": {
    "name": "가원습지 생태자연공원",
    "desc": "",
    "address": "강원특별자치도 동해시 지가동 77-6"
   }
  }
 },
 {
  "section": "sights",
  "name_ko": "간현관광지",
  "district": "원주시",
  "category": "공원",
  "lat": 37.3646293574,
  "lng": 127.8340575195,
  "phone": "",
  "thumb": "http://tong.visitkorea.or.kr/cms/resource/72/3388672_image3_1.JPG",
  "i18n": {
   "ko": {
    "name": "간현관광지",
    "desc": "",
    "address": "강원특별자치도 원주시 소금산길 12"
   }
  }
 },
 {
  "section": "sights",
  "name_ko": "갈남항",
  "district": "삼척시",
  "category": "항구·포구",
  "lat": 37.2807757781,
  "lng": 129.3251150597,
  "phone": "",
  "thumb": "http://tong.visitkorea.or.kr/cms/resource/12/3394112_image3_1.JPG",
  "i18n": {
   "ko": {
    "name": "갈남항",
    "desc": "",
    "address": "강원특별자치도 삼척시 원덕읍 갈남리 99-20"
   }
  }
 },
 {
  "section": "sights",
  "name_ko": "갈천약수터",
  "district": "양양군",
  "category": "약수터",
  "lat": 37.9058931889,
  "lng": 128.5029086488,
  "phone": "",
  "thumb": "http://tong.visitkorea.or.kr/cms/resource/61/3374861_image3_1.JPG",
  "i18n": {
   "ko": {
    "name": "갈천약수터",
    "desc": "",
    "address": "강원특별자치도 양양군 서면 구룡령로 1103-66"
   }
  }
 },
 {
  "section": "sights",
  "name_ko": "감성공작소",
  "district": "삼척시",
  "category": "이색체험",
  "lat": 37.4423790237,
  "lng": 129.1631079016,
  "phone": "",
  "thumb": "http://tong.visitkorea.or.kr/cms/resource/70/2820170_image3_1.jpg",
  "i18n": {
   "ko": {
    "name": "감성공작소",
    "desc": "",
    "address": "강원특별자치도 삼척시 대학로 13-1 (당저동)"
   }
  }
 },
 {
  "section": "sights",
  "name_ko": "감추사",
  "district": "동해시",
  "category": "사찰",
  "lat": 37.5148310688,
  "lng": 129.1262895236,
  "phone": "",
  "thumb": "http://tong.visitkorea.or.kr/cms/resource/98/3569498_image3_1.jpg",
  "i18n": {
   "ko": {
    "name": "감추사",
    "desc": "",
    "address": "강원특별자치도 동해시 해안로 120 (용정동)"
   }
  }
 },
 {
  "section": "sights",
  "name_ko": "강릉 굴산사지",
  "district": "강릉시",
  "category": "유적지",
  "lat": 37.7072681694,
  "lng": 128.8918046506,
  "phone": "",
  "thumb": "http://tong.visitkorea.or.kr/cms/resource/22/3025022_image3_1.jpg",
  "i18n": {
   "ko": {
    "name": "강릉 굴산사지",
    "desc": "",
    "address": "강원특별자치도 강릉시 구정면 학산리"
   }
  }
 },
 {
  "section": "sights",
  "name_ko": "강릉 복사꽃마을",
  "district": "강릉시",
  "category": "농어촌체험",
  "lat": 37.8801348222,
  "lng": 128.7773762919,
  "phone": "",
  "thumb": "http://tong.visitkorea.or.kr/cms/resource/42/3383742_image3_1.JPG",
  "i18n": {
   "ko": {
    "name": "강릉 복사꽃마을",
    "desc": "",
    "address": "강원특별자치도 강릉시 신리천로 527-3 복사꽃정보마을센타"
   }
  }
 },
 {
  "section": "sights",
  "name_ko": "강릉 오금집",
  "district": "강릉시",
  "category": "고택",
  "lat": 37.7563708685,
  "lng": 128.8940418219,
  "phone": "",
  "thumb": "http://tong.visitkorea.or.kr/cms/resource/31/3378331_image3_1.JPG",
  "i18n": {
   "ko": {
    "name": "강릉 오금집",
    "desc": "",
    "address": "강원특별자치도 강릉시 강릉대로210번길 23-9 (임당동)"
   }
  }
 },
 {
  "section": "sights",
  "name_ko": "강릉 한울타리마을",
  "district": "강릉시",
  "category": "농어촌체험",
  "lat": 37.6128390281,
  "lng": 128.9747778772,
  "phone": "",
  "thumb": "http://tong.visitkorea.or.kr/cms/resource/99/3378399_image3_1.JPG",
  "i18n": {
   "ko": {
    "name": "강릉 한울타리마을",
    "desc": "",
    "address": "강원특별자치도 강릉시 옥계면 북동용소길 137"
   }
  }
 },
 {
  "section": "sights",
  "name_ko": "강릉 해살이마을",
  "district": "강릉시",
  "category": "농어촌체험",
  "lat": 37.7929261321,
  "lng": 128.8109759564,
  "phone": "",
  "thumb": "http://tong.visitkorea.or.kr/cms/resource/60/3383760_image3_1.JPG",
  "i18n": {
   "ko": {
    "name": "강릉 해살이마을",
    "desc": "",
    "address": "강원특별자치도 강릉시 사천면 중앙서로 557-1"
   }
  }
 },
 {
  "section": "sights",
  "name_ko": "강릉교회",
  "district": "강릉시",
  "category": "종교성지",
  "lat": 37.7939586275,
  "lng": 128.9166441773,
  "phone": "",
  "thumb": "",
  "i18n": {
   "ko": {
    "name": "강릉교회",
    "desc": "",
    "address": "강원특별자치도 강릉시 해안로 333 (강문동)"
   }
  }
 },
 {
  "section": "sights",
  "name_ko": "강릉아트센터",
  "district": "강릉시",
  "category": "이색체험",
  "lat": 37.7716996777,
  "lng": 128.8954273345,
  "phone": "",
  "thumb": "http://tong.visitkorea.or.kr/cms/resource/95/3531895_image3_1.jpg",
  "i18n": {
   "ko": {
    "name": "강릉아트센터",
    "desc": "",
    "address": "강원특별자치도 강릉시 종합운동장길 84"
   }
  }
 },
 {
  "section": "sights",
  "name_ko": "강릉종합사회복지관",
  "district": "강릉시",
  "category": "이색체험",
  "lat": 37.7647425538,
  "lng": 128.9161479051,
  "phone": "",
  "thumb": "",
  "i18n": {
   "ko": {
    "name": "강릉종합사회복지관",
    "desc": "",
    "address": "강원특별자치도 강릉시 강변로 510 (입암동, 입암3주공아파트)"
   }
  }
 },
 {
  "section": "sights",
  "name_ko": "강릉통일공원안보전시관",
  "district": "강릉시",
  "category": "안보관광지",
  "lat": 37.7204603916,
  "lng": 128.9984085388,
  "phone": "",
  "thumb": "",
  "i18n": {
   "ko": {
    "name": "강릉통일공원안보전시관",
    "desc": "",
    "address": "강원특별자치도 강릉시 강동면 율곡로 1715-38"
   }
  }
 },
 {
  "section": "sights",
  "name_ko": "강릉항여객터미널",
  "district": "강릉시",
  "category": "유람선",
  "lat": 37.7728923281,
  "lng": 128.9528860105,
  "phone": "",
  "thumb": "",
  "i18n": {
   "ko": {
    "name": "강릉항여객터미널",
    "desc": "",
    "address": "강원특별자치도 강릉시 창해로14번길 51-26 (견소동)"
   }
  }
 },
 {
  "section": "sights",
  "name_ko": "강릉향교",
  "district": "강릉시",
  "category": "유적지",
  "lat": 37.7635561721,
  "lng": 128.8952470467,
  "phone": "",
  "thumb": "http://tong.visitkorea.or.kr/cms/resource/99/3374199_image3_1.JPG",
  "i18n": {
   "ko": {
    "name": "강릉향교",
    "desc": "",
    "address": "강원특별자치도 강릉시 명륜로 29"
   }
  }
 },
 {
  "section": "sights",
  "name_ko": "강문해변화장실",
  "district": "강릉시",
  "category": "유명건물",
  "lat": 37.7942253168,
  "lng": 128.919396699,
  "phone": "",
  "thumb": "",
  "i18n": {
   "ko": {
    "name": "강문해변화장실",
    "desc": "",
    "address": "강원특별자치도 강릉시 창해로 344-1 (강문동)"
   }
  }
 },
 {
  "section": "sights",
  "name_ko": "강변저류지",
  "district": "영월군",
  "category": "강",
  "lat": 37.1802648936,
  "lng": 128.4483742907,
  "phone": "",
  "thumb": "http://tong.visitkorea.or.kr/cms/resource/53/3388553_image3_1.JPG",
  "i18n": {
   "ko": {
    "name": "강변저류지",
    "desc": "",
    "address": "강원특별자치도 영월군 영월읍 방절리 263-4"
   }
  }
 },
 {
  "section": "sights",
  "name_ko": "강원 경찰충혼탑",
  "district": "춘천시",
  "category": "기념탑·기념비",
  "lat": 37.9167408445,
  "lng": 127.7130161606,
  "phone": "",
  "thumb": "http://tong.visitkorea.or.kr/cms/resource/36/3381636_image3_1.JPG",
  "i18n": {
   "ko": {
    "name": "강원 경찰충혼탑",
    "desc": "",
    "address": "강원특별자치도 춘천시 서면 신매리"
   }
  }
 },
 {
  "section": "sights",
  "name_ko": "강원 영월 김삿갓면 [슬로시티]",
  "district": "영월군",
  "category": "민속마을",
  "lat": 37.1256151474,
  "lng": 128.569898348,
  "phone": "",
  "thumb": "http://tong.visitkorea.or.kr/cms/resource/26/3585026_image3_1.jpg",
  "i18n": {
   "ko": {
    "name": "강원 영월 김삿갓면 [슬로시티]",
    "desc": "",
    "address": "강원특별자치도 영월군 김삿갓면 옥동장터길 36"
   }
  }
 },
 {
  "section": "sights",
  "name_ko": "강원숲체험장",
  "district": "춘천시",
  "category": "이색체험",
  "lat": 37.9630563077,
  "lng": 127.6397214646,
  "phone": "",
  "thumb": "http://tong.visitkorea.or.kr/cms/resource/11/2739711_image3_1.jpg",
  "i18n": {
   "ko": {
    "name": "강원숲체험장",
    "desc": "",
    "address": "강원특별자치도 춘천시 서면 납실길 107-64"
   }
  }
 },
 {
  "section": "sights",
  "name_ko": "강원특별자치도 자연환경연구공원",
  "district": "홍천군",
  "category": "기타 산업관광지",
  "lat": 37.7543734234,
  "lng": 127.851872243,
  "phone": "",
  "thumb": "http://tong.visitkorea.or.kr/cms/resource/14/3465514_image3_1.JPG",
  "i18n": {
   "ko": {
    "name": "강원특별자치도 자연환경연구공원",
    "desc": "",
    "address": "강원특별자치도 홍천군 북방면 생태공원길 319"
   }
  }
 },
 {
  "section": "sights",
  "name_ko": "강원특별자치도 탄광문화촌",
  "district": "영월군",
  "category": "기타 산업관광지",
  "lat": 37.2631362582,
  "lng": 128.4669118411,
  "phone": "",
  "thumb": "http://tong.visitkorea.or.kr/cms/resource/84/3379284_image3_1.JPG",
  "i18n": {
   "ko": {
    "name": "강원특별자치도 탄광문화촌",
    "desc": "",
    "address": "강원특별자치도 영월군 북면 밤재로 351"
   }
  }
 },
 {
  "section": "sights",
  "name_ko": "강재구공원",
  "district": "홍천군",
  "category": "공원",
  "lat": 37.7285545094,
  "lng": 127.8684937219,
  "phone": "",
  "thumb": "http://tong.visitkorea.or.kr/cms/resource/72/3584672_image3_1.jpg",
  "i18n": {
   "ko": {
    "name": "강재구공원",
    "desc": "",
    "address": "강원특별자치도 홍천군 북방면 성동로 275"
   }
  }
 },
 {
  "section": "sights",
  "name_ko": "강촌 출렁다리공원",
  "district": "춘천시",
  "category": "공원",
  "lat": 37.813601407,
  "lng": 127.6358095763,
  "phone": "",
  "thumb": "http://tong.visitkorea.or.kr/cms/resource/96/3382296_image3_1.JPG",
  "i18n": {
   "ko": {
    "name": "강촌 출렁다리공원",
    "desc": "",
    "address": "강원특별자치도 춘천시 남산면 강촌리"
   }
  }
 },
 {
  "section": "sights",
  "name_ko": "강촌유원지",
  "district": "춘천시",
  "category": "공원",
  "lat": 37.8157038798,
  "lng": 127.6325486998,
  "phone": "",
  "thumb": "http://tong.visitkorea.or.kr/cms/resource/64/3533864_image3_1.jpg",
  "i18n": {
   "ko": {
    "name": "강촌유원지",
    "desc": "",
    "address": "강원특별자치도 춘천시 남산면 일원"
   }
  }
 },
 {
  "section": "sights",
  "name_ko": "개미들마을",
  "district": "정선군",
  "category": "농어촌체험",
  "lat": 37.3190202362,
  "lng": 128.6927565739,
  "phone": "",
  "thumb": "http://tong.visitkorea.or.kr/cms/resource/95/2731295_image3_1.jpg",
  "i18n": {
   "ko": {
    "name": "개미들마을",
    "desc": "",
    "address": "강원특별자치도 정선군 남면 광락로 354"
   }
  }
 },
 {
  "section": "sights",
  "name_ko": "개야리유원지",
  "district": "홍천군",
  "category": "공원",
  "lat": 37.6898877996,
  "lng": 127.624741994,
  "phone": "",
  "thumb": "",
  "i18n": {
   "ko": {
    "name": "개야리유원지",
    "desc": "",
    "address": "강원특별자치도 홍천군 서면 개야리 154-9"
   }
  }
 },
 {
  "section": "sights",
  "name_ko": "갯마을해변",
  "district": "양양군",
  "category": "해수욕장",
  "lat": 37.9448496992,
  "lng": 128.785448555,
  "phone": "",
  "thumb": "http://tong.visitkorea.or.kr/cms/resource/76/3387376_image3_1.JPG",
  "i18n": {
   "ko": {
    "name": "갯마을해변",
    "desc": "",
    "address": "강원특별자치도 양양군 현남면 안남애길 48"
   }
  }
 },
 {
  "section": "sights",
  "name_ko": "거례리 수목공원&반지교",
  "district": "화천군",
  "category": "공원",
  "lat": 38.0760051882,
  "lng": 127.6897357562,
  "phone": "",
  "thumb": "http://tong.visitkorea.or.kr/cms/resource/59/3484959_image3_1.jpg",
  "i18n": {
   "ko": {
    "name": "거례리 수목공원&반지교",
    "desc": "",
    "address": "강원특별자치도 화천군 하남면 거례리 514-1"
   }
  }
 },
 {
  "section": "sights",
  "name_ko": "거례리사랑나무",
  "district": "화천군",
  "category": "자연생태관광지",
  "lat": 38.0744192401,
  "lng": 127.6885470236,
  "phone": "",
  "thumb": "http://tong.visitkorea.or.kr/cms/resource/74/3538874_image3_1.jpg",
  "i18n": {
   "ko": {
    "name": "거례리사랑나무",
    "desc": "",
    "address": "강원특별자치도 화천군 하남면 거례리 484-2"
   }
  }
 },
 {
  "section": "sights",
  "name_ko": "거진1리해변",
  "district": "고성군",
  "category": "해수욕장",
  "lat": 38.4408494282,
  "lng": 128.4547464127,
  "phone": "",
  "thumb": "",
  "i18n": {
   "ko": {
    "name": "거진1리해변",
    "desc": "",
    "address": "강원특별자치도 고성군 거진읍 거진1리"
   }
  }
 },
 {
  "section": "sights",
  "name_ko": "거진어촌체험휴양마을",
  "district": "고성군",
  "category": "농어촌체험",
  "lat": 38.4476432361,
  "lng": 128.4628176843,
  "phone": "",
  "thumb": "",
  "i18n": {
   "ko": {
    "name": "거진어촌체험휴양마을",
    "desc": "",
    "address": "강원특별자치도 고성군 거진읍 거진리"
   }
  }
 },
 {
  "section": "sights",
  "name_ko": "건봉령승호대",
  "district": "춘천시",
  "category": "유명건물",
  "lat": 37.9555307882,
  "lng": 127.8621819771,
  "phone": "",
  "thumb": "",
  "i18n": {
   "ko": {
    "name": "건봉령승호대",
    "desc": "",
    "address": "강원특별자치도 춘천시 북산면 부귀리 산59-8"
   }
  }
 },
 {
  "section": "sights",
  "name_ko": "건봉사",
  "district": "고성군",
  "category": "사찰",
  "lat": 38.4014998662,
  "lng": 128.3837485682,
  "phone": "",
  "thumb": "http://tong.visitkorea.or.kr/cms/resource/15/3558715_image3_1.JPG",
  "i18n": {
   "ko": {
    "name": "건봉사",
    "desc": "",
    "address": "강원특별자치도 고성군 거진읍 건봉사로 723"
   }
  }
 },
 {
  "section": "sights",
  "name_ko": "경천묘",
  "district": "원주시",
  "category": "유적지",
  "lat": 37.1837757965,
  "lng": 127.8641739277,
  "phone": "",
  "thumb": "http://tong.visitkorea.or.kr/cms/resource/56/3379256_image3_1.JPG",
  "i18n": {
   "ko": {
    "name": "경천묘",
    "desc": "",
    "address": "강원특별자치도 원주시 귀래면 미륵산길 200"
   }
  }
 },
 {
  "section": "sights",
  "name_ko": "경포호수광장",
  "district": "강릉시",
  "category": "공원",
  "lat": 37.7977913781,
  "lng": 128.9095224784,
  "phone": "",
  "thumb": "http://tong.visitkorea.or.kr/cms/resource/60/3460260_image3_1.jpg",
  "i18n": {
   "ko": {
    "name": "경포호수광장",
    "desc": "",
    "address": "강원특별자치도 강릉시 해안로 415 (초당동)"
   }
  }
 },
 {
  "section": "sights",
  "name_ko": "계방산(평창)",
  "district": "평창군",
  "category": "산",
  "lat": 37.707151218,
  "lng": 128.444544986,
  "phone": "",
  "thumb": "http://tong.visitkorea.or.kr/cms/resource/37/3535037_image3_1.jpg",
  "i18n": {
   "ko": {
    "name": "계방산(평창)",
    "desc": "",
    "address": "강원특별자치도 평창군 용평면 운두령로 1243"
   }
  }
 },
 {
  "section": "sights",
  "name_ko": "고라데이마을",
  "district": "횡성군",
  "category": "농어촌체험",
  "lat": 37.6488466228,
  "lng": 128.1396326366,
  "phone": "",
  "thumb": "http://tong.visitkorea.or.kr/cms/resource/41/3331541_image3_1.jpg",
  "i18n": {
   "ko": {
    "name": "고라데이마을",
    "desc": "",
    "address": "강원특별자치도 횡성군 청일면 봉명로 375-1"
   }
  }
 },
 {
  "section": "sights",
  "name_ko": "고랭길",
  "district": "평창군",
  "category": "자연생태관광지",
  "lat": 37.5802666171,
  "lng": 128.3362530327,
  "phone": "",
  "thumb": "http://tong.visitkorea.or.kr/cms/resource/90/3585090_image3_1.jpg",
  "i18n": {
   "ko": {
    "name": "고랭길",
    "desc": "",
    "address": "강원특별자치도 평창군 봉평면 태기로 254-1"
   }
  }
 },
 {
  "section": "sights",
  "name_ko": "고랭지만두마을",
  "district": "평창군",
  "category": "농어촌체험",
  "lat": 37.69032181,
  "lng": 128.6919648396,
  "phone": "",
  "thumb": "http://tong.visitkorea.or.kr/cms/resource/74/3388874_image3_1.JPG",
  "i18n": {
   "ko": {
    "name": "고랭지만두마을",
    "desc": "",
    "address": "강원특별자치도 평창군 대관령면 갈골길 33-5"
   }
  }
 },
 {
  "section": "sights",
  "name_ko": "고로쇠마을(미산마을)",
  "district": "인제군",
  "category": "농어촌체험",
  "lat": 37.864655744,
  "lng": 128.328728461,
  "phone": "",
  "thumb": "http://tong.visitkorea.or.kr/cms/resource/31/3397331_image3_1.JPG",
  "i18n": {
   "ko": {
    "name": "고로쇠마을(미산마을)",
    "desc": "",
    "address": "강원특별자치도 인제군 상남면 내린천로 1484"
   }
  }
 },
 {
  "section": "sights",
  "name_ko": "고마루 카르스트",
  "district": "평창군",
  "category": "자연생태관광지",
  "lat": 37.29969389,
  "lng": 128.5054628488,
  "phone": "",
  "thumb": "http://tong.visitkorea.or.kr/cms/resource/48/3388848_image3_1.JPG",
  "i18n": {
   "ko": {
    "name": "고마루 카르스트",
    "desc": "",
    "address": "강원특별자치도 평창군 미탄면 고마루길 2"
   }
  }
 },
 {
  "section": "sights",
  "name_ko": "고석정 (한탄강 유네스코 세계지질공원)",
  "district": "철원군",
  "category": "강",
  "lat": 38.1860265295,
  "lng": 127.2869221163,
  "phone": "",
  "thumb": "http://tong.visitkorea.or.kr/cms/resource/67/3351667_image3_1.jpg",
  "i18n": {
   "ko": {
    "name": "고석정 (한탄강 유네스코 세계지질공원)",
    "desc": "",
    "address": "강원특별자치도 철원군 동송읍 태봉로 1825"
   }
  }
 },
 {
  "section": "sights",
  "name_ko": "고석정국민관광지",
  "district": "철원군",
  "category": "관광단지",
  "lat": 38.1860265295,
  "lng": 127.2869221163,
  "phone": "",
  "thumb": "http://tong.visitkorea.or.kr/cms/resource/12/3331512_image3_1.jpg",
  "i18n": {
   "ko": {
    "name": "고석정국민관광지",
    "desc": "",
    "address": "강원특별자치도 철원군 동송읍 태봉로 1825"
   }
  }
 },
 {
  "section": "sights",
  "name_ko": "고성 문암리 유적",
  "district": "고성군",
  "category": "유적지",
  "lat": 38.3047587164,
  "lng": 128.5444286243,
  "phone": "",
  "thumb": "http://tong.visitkorea.or.kr/cms/resource/16/3016316_image3_1.jpg",
  "i18n": {
   "ko": {
    "name": "고성 문암리 유적",
    "desc": "",
    "address": "강원특별자치도 고성군 죽왕면 문암진리"
   }
  }
 },
 {
  "section": "sights",
  "name_ko": "고성 제3기 현무암 (강원평화지역 국가지질공원)",
  "district": "고성군",
  "category": "관광자원",
  "lat": 38.2829827284,
  "lng": 128.5059272541,
  "phone": "",
  "thumb": "http://tong.visitkorea.or.kr/cms/resource/03/2616503_image3_1.bmp",
  "i18n": {
   "ko": {
    "name": "고성 제3기 현무암 (강원평화지역 국가지질공원)",
    "desc": "",
    "address": "강원특별자치도 고성군 토성면 뒷골길 60"
   }
  }
 },
 {
  "section": "sights",
  "name_ko": "고성 통일전망타워",
  "district": "고성군",
  "category": "유명건물",
  "lat": 38.5147706205,
  "lng": 128.4173974953,
  "phone": "",
  "thumb": "http://tong.visitkorea.or.kr/cms/resource/54/2599054_image3_1.jpg",
  "i18n": {
   "ko": {
    "name": "고성 통일전망타워",
    "desc": "",
    "address": "강원특별자치도 고성군 현내면 금강산로 481"
   }
  }
 },
 {
  "section": "sights",
  "name_ko": "고씨굴 (강원고생대 국가지질공원)",
  "district": "영월군",
  "category": "동굴",
  "lat": 37.1307444591,
  "lng": 128.5353790658,
  "phone": "",
  "thumb": "http://tong.visitkorea.or.kr/cms/resource/87/3374987_image3_1.JPG",
  "i18n": {
   "ko": {
    "name": "고씨굴 (강원고생대 국가지질공원)",
    "desc": "",
    "address": "강원특별자치도 영월군 김삿갓면 영월동로 1117"
   }
  }
 },
 {
  "section": "sights",
  "name_ko": "고원통계곡",
  "district": "인제군",
  "category": "계곡",
  "lat": 38.1668556532,
  "lng": 128.2731242649,
  "phone": "",
  "thumb": "http://tong.visitkorea.or.kr/cms/resource/51/3557251_image3_1.jpg",
  "i18n": {
   "ko": {
    "name": "고원통계곡",
    "desc": "",
    "address": "강원특별자치도 인제군 북면 한계리"
   }
  }
 },
 {
  "section": "sights",
  "name_ko": "고진하 가옥",
  "district": "영월군",
  "category": "고택",
  "lat": 37.1740949988,
  "lng": 128.3868966548,
  "phone": "",
  "thumb": "http://tong.visitkorea.or.kr/cms/resource/45/3388545_image3_1.JPG",
  "i18n": {
   "ko": {
    "name": "고진하 가옥",
    "desc": "",
    "address": "강원특별자치도 영월군 남면 원골길 170-9"
   }
  }
 },
 {
  "section": "sights",
  "name_ko": "고천마을",
  "district": "삼척시",
  "category": "농어촌체험",
  "lat": 37.4181715152,
  "lng": 129.0625565368,
  "phone": "",
  "thumb": "http://tong.visitkorea.or.kr/cms/resource/66/3387166_image3_1.JPG",
  "i18n": {
   "ko": {
    "name": "고천마을",
    "desc": "",
    "address": "강원특별자치도 삼척시 미로면 고천길 6"
   }
  }
 },
 {
  "section": "sights",
  "name_ko": "고포마을",
  "district": "삼척시",
  "category": "농어촌체험",
  "lat": 37.1454670312,
  "lng": 129.362263116,
  "phone": "",
  "thumb": "http://tong.visitkorea.or.kr/cms/resource/39/2613139_image3_1.jpg",
  "i18n": {
   "ko": {
    "name": "고포마을",
    "desc": "",
    "address": "강원특별자치도 삼척시 원덕읍 고포월천길 87"
   }
  }
 },
 {
  "section": "sights",
  "name_ko": "곡운구곡 (강원평화지역 국가지질공원)",
  "district": "화천군",
  "category": "자연생태관광지",
  "lat": 38.055355077,
  "lng": 127.554598714,
  "phone": "",
  "thumb": "http://tong.visitkorea.or.kr/cms/resource/53/2917653_image3_1.JPG",
  "i18n": {
   "ko": {
    "name": "곡운구곡 (강원평화지역 국가지질공원)",
    "desc": "",
    "address": "강원특별자치도 화천군 사내면 물안골길 13"
   }
  }
 },
 {
  "section": "sights",
  "name_ko": "공수전계곡",
  "district": "양양군",
  "category": "계곡",
  "lat": 38.0340155463,
  "lng": 128.5611022078,
  "phone": "",
  "thumb": "http://tong.visitkorea.or.kr/cms/resource/05/3045905_image3_1.jpg",
  "i18n": {
   "ko": {
    "name": "공수전계곡",
    "desc": "",
    "address": "강원특별자치도 양양군 서면 공수전리"
   }
  }
 },
 {
  "section": "sights",
  "name_ko": "공작산생태숲",
  "district": "홍천군",
  "category": "자연생태관광지",
  "lat": 37.6965320616,
  "lng": 127.9547146295,
  "phone": "",
  "thumb": "http://tong.visitkorea.or.kr/cms/resource/96/3036696_image3_1.jpg",
  "i18n": {
   "ko": {
    "name": "공작산생태숲",
    "desc": "",
    "address": "강원특별자치도 홍천군 영귀미면 수타사로 409"
   }
  }
 },
 {
  "section": "sights",
  "name_ko": "공현진1리해변",
  "district": "고성군",
  "category": "해수욕장",
  "lat": 38.350844352,
  "lng": 128.5106302561,
  "phone": "",
  "thumb": "http://tong.visitkorea.or.kr/cms/resource/73/483073_image3_1.jpg",
  "i18n": {
   "ko": {
    "name": "공현진1리해변",
    "desc": "",
    "address": "강원특별자치도 고성군 죽왕면"
   }
  }
 },
 {
  "section": "sights",
  "name_ko": "공현진항",
  "district": "고성군",
  "category": "항구·포구",
  "lat": 38.3569572766,
  "lng": 128.497709019,
  "phone": "",
  "thumb": "http://tong.visitkorea.or.kr/cms/resource/36/3383936_image3_1.JPG",
  "i18n": {
   "ko": {
    "name": "공현진항",
    "desc": "",
    "address": "강원특별자치도 고성군 죽왕면 공현진리"
   }
  }
 },
 {
  "section": "sights",
  "name_ko": "관음사·국형사계곡",
  "district": "원주시",
  "category": "계곡",
  "lat": 37.333655725,
  "lng": 128.0141255047,
  "phone": "",
  "thumb": "http://tong.visitkorea.or.kr/cms/resource/29/3045629_image3_1.jpg",
  "i18n": {
   "ko": {
    "name": "관음사·국형사계곡",
    "desc": "",
    "address": "강원특별자치도 원주시 고문골길 169 (행구동)"
   }
  }
 },
 {
  "section": "sights",
  "name_ko": "광덕계곡",
  "district": "화천군",
  "category": "계곡",
  "lat": 38.0763151672,
  "lng": 127.4817103088,
  "phone": "",
  "thumb": "http://tong.visitkorea.or.kr/cms/resource/16/3484916_image3_1.jpg",
  "i18n": {
   "ko": {
    "name": "광덕계곡",
    "desc": "",
    "address": "강원특별자치도 화천군 사내면 포화로 582"
   }
  }
 },
 {
  "section": "sights",
  "name_ko": "광덕산(화천)",
  "district": "화천군",
  "category": "산",
  "lat": 38.1150070894,
  "lng": 127.4394352497,
  "phone": "",
  "thumb": "",
  "i18n": {
   "ko": {
    "name": "광덕산(화천)",
    "desc": "",
    "address": "강원특별자치도 화천군 사내면"
   }
  }
 },
 {
  "section": "sights",
  "name_ko": "광천선굴어드벤처테마파크",
  "district": "평창군",
  "category": "동굴",
  "lat": 37.5188259153,
  "lng": 128.4516722463,
  "phone": "",
  "thumb": "http://tong.visitkorea.or.kr/cms/resource/77/3381077_image3_1.jpg",
  "i18n": {
   "ko": {
    "name": "광천선굴어드벤처테마파크",
    "desc": "",
    "address": "강원특별자치도 평창군 고대동길 119"
   }
  }
 },
 {
  "section": "sights",
  "name_ko": "교암항",
  "district": "고성군",
  "category": "항구·포구",
  "lat": 38.290174377,
  "lng": 128.5481315222,
  "phone": "",
  "thumb": "http://tong.visitkorea.or.kr/cms/resource/03/3394003_image3_1.JPG",
  "i18n": {
   "ko": {
    "name": "교암항",
    "desc": "",
    "address": "강원특별자치도 고성군 토성면 교암리 151-10"
   }
  }
 },
 {
  "section": "sights",
  "name_ko": "교암해변",
  "district": "고성군",
  "category": "해수욕장",
  "lat": 38.2916575075,
  "lng": 128.5466038374,
  "phone": "",
  "thumb": "http://tong.visitkorea.or.kr/cms/resource/81/3070081_image3_1.jpg",
  "i18n": {
   "ko": {
    "name": "교암해변",
    "desc": "",
    "address": "강원특별자치도 고성군 토성면 천학정길 37"
   }
  }
 },
 {
  "section": "sights",
  "name_ko": "구 조선식산은행 원주지점",
  "district": "원주시",
  "category": "유적지",
  "lat": 37.3489694554,
  "lng": 127.9514307123,
  "phone": "",
  "thumb": "http://tong.visitkorea.or.kr/cms/resource/78/3379278_image3_1.JPG",
  "i18n": {
   "ko": {
    "name": "구 조선식산은행 원주지점",
    "desc": "",
    "address": "강원특별자치도 원주시 중앙로 88 (중앙동)"
   }
  }
 },
 {
  "section": "sights",
  "name_ko": "구 철원제일교회",
  "district": "철원군",
  "category": "종교성지",
  "lat": 38.2503313577,
  "lng": 127.203394546,
  "phone": "",
  "thumb": "",
  "i18n": {
   "ko": {
    "name": "구 철원제일교회",
    "desc": "",
    "address": "강원특별자치도 철원군 철원읍 금강산로 319"
   }
  }
 },
 {
  "section": "sights",
  "name_ko": "구룡폭포(소금강)",
  "district": "강릉시",
  "category": "폭포",
  "lat": 37.802691973,
  "lng": 128.6835093795,
  "phone": "",
  "thumb": "http://tong.visitkorea.or.kr/cms/resource/42/3029842_image3_1.jpg",
  "i18n": {
   "ko": {
    "name": "구룡폭포(소금강)",
    "desc": "",
    "address": "강원특별자치도 강릉시 연곡면 소금강길 500"
   }
  }
 },
 {
  "section": "sights",
  "name_ko": "구만동계곡",
  "district": "인제군",
  "category": "계곡",
  "lat": 38.1942037592,
  "lng": 128.3403395264,
  "phone": "",
  "thumb": "http://tong.visitkorea.or.kr/cms/resource/28/3376628_image3_1.JPG",
  "i18n": {
   "ko": {
    "name": "구만동계곡",
    "desc": "",
    "address": "강원특별자치도 인제군 북면 용대리"
   }
  }
 },
 {
  "section": "sights",
  "name_ko": "구문소마을",
  "district": "태백시",
  "category": "농어촌체험",
  "lat": 37.0932944861,
  "lng": 129.0380047012,
  "phone": "",
  "thumb": "http://tong.visitkorea.or.kr/cms/resource/23/3400123_image3_1.JPG",
  "i18n": {
   "ko": {
    "name": "구문소마을",
    "desc": "",
    "address": "강원특별자치도 태백시 사군드리길 7"
   }
  }
 },
 {
  "section": "sights",
  "name_ko": "구미정",
  "district": "정선군",
  "category": "유적지",
  "lat": 37.4732355895,
  "lng": 128.8263954774,
  "phone": "",
  "thumb": "http://tong.visitkorea.or.kr/cms/resource/16/3044516_image3_1.jpg",
  "i18n": {
   "ko": {
    "name": "구미정",
    "desc": "",
    "address": "강원특별자치도 정선군 임계면 봉산리"
   }
  }
 },
 {
  "section": "sights",
  "name_ko": "구봉산",
  "district": "춘천시",
  "category": "산",
  "lat": 37.8933169902,
  "lng": 127.777197126,
  "phone": "",
  "thumb": "http://tong.visitkorea.or.kr/cms/resource/54/529954_image3_1.jpg",
  "i18n": {
   "ko": {
    "name": "구봉산",
    "desc": "",
    "address": "강원특별자치도 춘천시 동면 순환대로 1154-115"
   }
  }
 },
 {
  "section": "sights",
  "name_ko": "구은사",
  "district": "철원군",
  "category": "유적지",
  "lat": 38.2554690921,
  "lng": 127.4737918063,
  "phone": "",
  "thumb": "http://tong.visitkorea.or.kr/cms/resource/01/3342401_image3_1.jpg",
  "i18n": {
   "ko": {
    "name": "구은사",
    "desc": "",
    "address": "강원특별자치도 철원군 근남면 호국로 7003-23"
   }
  }
 },
 {
  "section": "sights",
  "name_ko": "국립 복주산자연휴양림",
  "district": "철원군",
  "category": "자연휴양림",
  "lat": 38.1437543593,
  "lng": 127.4732201929,
  "phone": "",
  "thumb": "http://tong.visitkorea.or.kr/cms/resource/67/3040767_image3_1.jpg",
  "i18n": {
   "ko": {
    "name": "국립 복주산자연휴양림",
    "desc": "",
    "address": "강원특별자치도 철원군 근남면 하오재로 818"
   }
  }
 },
 {
  "section": "sights",
  "name_ko": "국립 용대자연휴양림",
  "district": "인제군",
  "category": "자연휴양림",
  "lat": 38.2316443099,
  "lng": 128.364663931,
  "phone": "",
  "thumb": "http://tong.visitkorea.or.kr/cms/resource/53/3042453_image3_1.jpg",
  "i18n": {
   "ko": {
    "name": "국립 용대자연휴양림",
    "desc": "",
    "address": "강원특별자치도 인제군 북면 연화동길 7"
   }
  }
 },
 {
  "section": "sights",
  "name_ko": "국립 용화산자연휴양림",
  "district": "춘천시",
  "category": "자연휴양림",
  "lat": 38.0062332216,
  "lng": 127.7141439487,
  "phone": "",
  "thumb": "http://tong.visitkorea.or.kr/cms/resource/90/3351390_image3_1.jpg",
  "i18n": {
   "ko": {
    "name": "국립 용화산자연휴양림",
    "desc": "",
    "address": "강원특별자치도 춘천시 사북면 사여골길 294"
   }
  }
 },
 {
  "section": "sights",
  "name_ko": "국립두타산자연휴양림",
  "district": "평창군",
  "category": "자연휴양림",
  "lat": 37.5597985551,
  "lng": 128.5759014877,
  "phone": "",
  "thumb": "http://tong.visitkorea.or.kr/cms/resource/99/3555099_image3_1.jpg",
  "i18n": {
   "ko": {
    "name": "국립두타산자연휴양림",
    "desc": "",
    "address": "강원특별자치도 평창군 진부면 아차골길 132"
   }
  }
 },
 {
  "section": "sights",
  "name_ko": "국립축산과학원 한우연구소",
  "district": "평창군",
  "category": "기타 산업관광지",
  "lat": 37.6884523168,
  "lng": 128.678246689,
  "phone": "",
  "thumb": "http://tong.visitkorea.or.kr/cms/resource/35/3475535_image3_1.jpg",
  "i18n": {
   "ko": {
    "name": "국립축산과학원 한우연구소",
    "desc": "",
    "address": "강원특별자치도 평창군 대관령면 경강로 4937"
   }
  }
 },
 {
  "section": "sights",
  "name_ko": "국립춘천숲체원",
  "district": "춘천시",
  "category": "자연휴양림",
  "lat": 37.9785986109,
  "lng": 127.7707618348,
  "phone": "",
  "thumb": "http://tong.visitkorea.or.kr/cms/resource/86/3439986_image3_1.jpg",
  "i18n": {
   "ko": {
    "name": "국립춘천숲체원",
    "desc": "",
    "address": "강원특별자치도 춘천시 신북읍 장본2길 331"
   }
  }
 },
 {
  "section": "sights",
  "name_ko": "국립한국자생식물원",
  "district": "평창군",
  "category": "수목원",
  "lat": 37.70694618,
  "lng": 128.6149990499,
  "phone": "",
  "thumb": "http://tong.visitkorea.or.kr/cms/resource/48/3537348_image3_1.jpg",
  "i18n": {
   "ko": {
    "name": "국립한국자생식물원",
    "desc": "",
    "address": "강원특별자치도 평창군 대관령면 비안길 150-3"
   }
  }
 },
 {
  "section": "sights",
  "name_ko": "국순당 주향로",
  "district": "횡성군",
  "category": "식음료",
  "lat": 37.4897022276,
  "lng": 128.1966849965,
  "phone": "",
  "thumb": "http://tong.visitkorea.or.kr/cms/resource/33/3571733_image3_1.jpg",
  "i18n": {
   "ko": {
    "name": "국순당 주향로",
    "desc": "",
    "address": "강원특별자치도 횡성군 둔내면 강변로 975"
   }
  }
 },
 {
  "section": "sights",
  "name_ko": "국제평화아트파크",
  "district": "화천군",
  "category": "공원",
  "lat": 38.2111480088,
  "lng": 127.851075284,
  "phone": "",
  "thumb": "http://tong.visitkorea.or.kr/cms/resource/99/2921699_image3_1.jpg",
  "i18n": {
   "ko": {
    "name": "국제평화아트파크",
    "desc": "",
    "address": "강원특별자치도 화천군 화천읍 평화로 3518"
   }
  }
 },
 {
  "section": "sights",
  "name_ko": "국지산",
  "district": "영월군",
  "category": "산",
  "lat": 37.1422918044,
  "lng": 128.4652738958,
  "phone": "",
  "thumb": "http://tong.visitkorea.or.kr/cms/resource/19/3342219_image3_1.jpg",
  "i18n": {
   "ko": {
    "name": "국지산",
    "desc": "",
    "address": "강원특별자치도 영월군 영월읍 흥월로 229"
   }
  }
 },
 {
  "section": "sights",
  "name_ko": "국형사",
  "district": "원주시",
  "category": "사찰",
  "lat": 37.3347000326,
  "lng": 128.0132227777,
  "phone": "",
  "thumb": "http://tong.visitkorea.or.kr/cms/resource/87/3559187_image3_1.jpeg",
  "i18n": {
   "ko": {
    "name": "국형사",
    "desc": "",
    "address": "강원특별자치도 원주시 고문골길 155 (행구동)"
   }
  }
 },
 {
  "section": "sights",
  "name_ko": "굴산사지당간지주",
  "district": "강릉시",
  "category": "기념탑·기념비",
  "lat": 37.7079985585,
  "lng": 128.887574454,
  "phone": "",
  "thumb": "",
  "i18n": {
   "ko": {
    "name": "굴산사지당간지주",
    "desc": "",
    "address": "강원특별자치도 강릉시 구정면 금평로 92-50"
   }
  }
 },
 {
  "section": "sights",
  "name_ko": "궁촌항",
  "district": "삼척시",
  "category": "항구·포구",
  "lat": 37.3275609841,
  "lng": 129.2696991242,
  "phone": "",
  "thumb": "http://tong.visitkorea.or.kr/cms/resource/40/3378540_image3_1.JPG",
  "i18n": {
   "ko": {
    "name": "궁촌항",
    "desc": "",
    "address": "강원특별자치도 삼척시 근덕면 궁촌리  213-13"
   }
  }
 },
 {
  "section": "sights",
  "name_ko": "궁촌해변(궁촌해수욕장)",
  "district": "삼척시",
  "category": "해수욕장",
  "lat": 37.3243001987,
  "lng": 129.2671938924,
  "phone": "",
  "thumb": "http://tong.visitkorea.or.kr/cms/resource/48/3040348_image3_1.jpg",
  "i18n": {
   "ko": {
    "name": "궁촌해변(궁촌해수욕장)",
    "desc": "",
    "address": "강원특별자치도 삼척시 근덕면 궁촌해변길 65"
   }
  }
 },
 {
  "section": "sights",
  "name_ko": "극락암(강원)",
  "district": "고성군",
  "category": "사찰",
  "lat": 38.3803589804,
  "lng": 128.4399885461,
  "phone": "",
  "thumb": "http://tong.visitkorea.or.kr/cms/resource/89/3393989_image3_1.JPG",
  "i18n": {
   "ko": {
    "name": "극락암(강원)",
    "desc": "",
    "address": "강원특별자치도 고성군 교동2길 26 대한불교조계종극락암"
   }
  }
 },
 {
  "section": "sights",
  "name_ko": "근화동396청년창업공간",
  "district": "춘천시",
  "category": "이색체험",
  "lat": 37.8743985775,
  "lng": 127.7145756095,
  "phone": "",
  "thumb": "http://tong.visitkorea.or.kr/cms/resource/18/3351718_image3_1.jpg",
  "i18n": {
   "ko": {
    "name": "근화동396청년창업공간",
    "desc": "",
    "address": "강원특별자치도 춘천시 중앙로 186"
   }
  }
 },
 {
  "section": "sights",
  "name_ko": "근화수변 문화광장숲",
  "district": "춘천시",
  "category": "공원",
  "lat": 37.8787449354,
  "lng": 127.695330011,
  "phone": "",
  "thumb": "http://tong.visitkorea.or.kr/cms/resource/99/3485599_image3_1.jpg",
  "i18n": {
   "ko": {
    "name": "근화수변 문화광장숲",
    "desc": "",
    "address": "강원특별자치도 춘천시 하중도길 227 (중도동)"
   }
  }
 },
 {
  "section": "sights",
  "name_ko": "금강공원에코스튜디오",
  "district": "영월군",
  "category": "공원",
  "lat": 37.1860481078,
  "lng": 128.4772659729,
  "phone": "",
  "thumb": "http://tong.visitkorea.or.kr/cms/resource/38/2774038_image2_1.jpg",
  "i18n": {
   "ko": {
    "name": "금강공원에코스튜디오",
    "desc": "",
    "address": "강원특별자치도 영월군 영월읍 영흥리 80"
   }
  }
 },
 {
  "section": "sights",
  "name_ko": "금강사(강릉)",
  "district": "강릉시",
  "category": "사찰",
  "lat": 37.8062833683,
  "lng": 128.6909752621,
  "phone": "",
  "thumb": "http://tong.visitkorea.or.kr/cms/resource/25/3069925_image3_1.jpg",
  "i18n": {
   "ko": {
    "name": "금강사(강릉)",
    "desc": "",
    "address": "강원특별자치도 강릉시 연곡면 소금강길 670"
   }
  }
 },
 {
  "section": "sights",
  "name_ko": "금강정",
  "district": "영월군",
  "category": "유적지",
  "lat": 37.185287107,
  "lng": 128.4784353347,
  "phone": "",
  "thumb": "http://tong.visitkorea.or.kr/cms/resource/69/3388569_image3_1.JPG",
  "i18n": {
   "ko": {
    "name": "금강정",
    "desc": "",
    "address": "강원특별자치도 영월군 영월읍 금강공원길 136"
   }
  }
 },
 {
  "section": "sights",
  "name_ko": "금당계곡",
  "district": "평창군",
  "category": "계곡",
  "lat": 37.4824512302,
  "lng": 128.393323038,
  "phone": "",
  "thumb": "http://tong.visitkorea.or.kr/cms/resource/06/3557306_image3_1.jpg",
  "i18n": {
   "ko": {
    "name": "금당계곡",
    "desc": "",
    "address": "강원특별자치도 평창군 대화면 개수리"
   }
  }
 },
 {
  "section": "sights",
  "name_ko": "금대계곡",
  "district": "원주시",
  "category": "계곡",
  "lat": 37.2604729903,
  "lng": 128.0401447403,
  "phone": "",
  "thumb": "http://tong.visitkorea.or.kr/cms/resource/85/3045285_image3_1.jpg",
  "i18n": {
   "ko": {
    "name": "금대계곡",
    "desc": "",
    "address": "강원특별자치도 원주시 판부면 치악로 546-22"
   }
  }
 },
 {
  "section": "sights",
  "name_ko": "금란정",
  "district": "동해시",
  "category": "유적지",
  "lat": 37.4638515626,
  "lng": 129.0213282758,
  "phone": "",
  "thumb": "http://tong.visitkorea.or.kr/cms/resource/25/3589225_image3_1.jpg",
  "i18n": {
   "ko": {
    "name": "금란정",
    "desc": "",
    "address": "강원특별자치도 동해시 삼화동"
   }
  }
 },
 {
  "section": "sights",
  "name_ko": "금천골 석탄층",
  "district": "태백시",
  "category": "자연생태관광지",
  "lat": 37.0988152834,
  "lng": 128.9969915276,
  "phone": "",
  "thumb": "http://tong.visitkorea.or.kr/cms/resource/05/2917605_image3_1.jpg",
  "i18n": {
   "ko": {
    "name": "금천골 석탄층",
    "desc": "",
    "address": "강원특별자치도 태백시 금천길 93-24"
   }
  }
 },
 {
  "section": "sights",
  "name_ko": "금풀애마을",
  "district": "양양군",
  "category": "농어촌체험",
  "lat": 37.9775572269,
  "lng": 128.6534816988,
  "phone": "",
  "thumb": "http://tong.visitkorea.or.kr/cms/resource/09/3378609_image3_1.JPG",
  "i18n": {
   "ko": {
    "name": "금풀애마을",
    "desc": "",
    "address": "강원특별자치도 양양군 현북면 남대천로 1532"
   }
  }
 },
 {
  "section": "sights",
  "name_ko": "기린사우나",
  "district": "강릉시",
  "category": "온천",
  "lat": 37.7435306776,
  "lng": 128.8935561515,
  "phone": "",
  "thumb": "",
  "i18n": {
   "ko": {
    "name": "기린사우나",
    "desc": "",
    "address": "강원특별자치도 강릉시 남부로125번길 18"
   }
  }
 },
 {
  "section": "sights",
  "name_ko": "기미만세공원",
  "district": "홍천군",
  "category": "공원",
  "lat": 37.7846587811,
  "lng": 128.1463418503,
  "phone": "",
  "thumb": "http://tong.visitkorea.or.kr/cms/resource/00/3465500_image3_1.JPG",
  "i18n": {
   "ko": {
    "name": "기미만세공원",
    "desc": "",
    "address": "강원특별자치도 홍천군 내촌면 동창로 165"
   }
  }
 },
 {
  "section": "sights",
  "name_ko": "기사문마을",
  "district": "양양군",
  "category": "농어촌체험",
  "lat": 38.0092605575,
  "lng": 128.7283128303,
  "phone": "",
  "thumb": "http://tong.visitkorea.or.kr/cms/resource/93/3076893_image3_1.jpg",
  "i18n": {
   "ko": {
    "name": "기사문마을",
    "desc": "",
    "address": "강원특별자치도 양양군 현북면 기사문리"
   }
  }
 },
 {
  "section": "sights",
  "name_ko": "기사문항",
  "district": "양양군",
  "category": "항구·포구",
  "lat": 38.0059498772,
  "lng": 128.730715494,
  "phone": "",
  "thumb": "http://tong.visitkorea.or.kr/cms/resource/76/3393976_image3_1.JPG",
  "i18n": {
   "ko": {
    "name": "기사문항",
    "desc": "",
    "address": "강원특별자치도 양양군 현북면 기사문길 8"
   }
  }
 },
 {
  "section": "sights",
  "name_ko": "기우산(정선)",
  "district": "정선군",
  "category": "산",
  "lat": 37.3564822114,
  "lng": 128.6731377641,
  "phone": "",
  "thumb": "http://tong.visitkorea.or.kr/cms/resource/95/3342495_image3_1.jpg",
  "i18n": {
   "ko": {
    "name": "기우산(정선)",
    "desc": "",
    "address": "강원특별자치도 정선군 정선읍 신월리"
   }
  }
 },
 {
  "section": "sights",
  "name_ko": "기화리 코끼리바위",
  "district": "평창군",
  "category": "관광자원",
  "lat": 37.3068213293,
  "lng": 128.5308714664,
  "phone": "",
  "thumb": "http://tong.visitkorea.or.kr/cms/resource/57/3388857_image3_1.JPG",
  "i18n": {
   "ko": {
    "name": "기화리 코끼리바위",
    "desc": "",
    "address": "강원특별자치도 평창군 미탄면 기화리 225"
   }
  }
 },
 {
  "section": "sights",
  "name_ko": "김삿갓 계곡",
  "district": "영월군",
  "category": "계곡",
  "lat": 37.1205109135,
  "lng": 128.6085978126,
  "phone": "",
  "thumb": "http://tong.visitkorea.or.kr/cms/resource/45/3493245_image3_1.jpg",
  "i18n": {
   "ko": {
    "name": "김삿갓 계곡",
    "desc": "",
    "address": "강원특별자치도 영월군 김삿갓면 와석리"
   }
  }
 },
 {
  "section": "sights",
  "name_ko": "김성래 가옥",
  "district": "양양군",
  "category": "고택",
  "lat": 37.9873605468,
  "lng": 128.7398902422,
  "phone": "",
  "thumb": "http://tong.visitkorea.or.kr/cms/resource/69/3393969_image3_1.JPG",
  "i18n": {
   "ko": {
    "name": "김성래 가옥",
    "desc": "",
    "address": "강원특별자치도 양양군 현남면 북분안길 106-9"
   }
  }
 },
 {
  "section": "sights",
  "name_ko": "김정묘역 문인석",
  "district": "춘천시",
  "category": "유적지",
  "lat": 37.8407580211,
  "lng": 127.7132322839,
  "phone": "",
  "thumb": "http://tong.visitkorea.or.kr/cms/resource/35/3382735_image3_1.JPG",
  "i18n": {
   "ko": {
    "name": "김정묘역 문인석",
    "desc": "",
    "address": "강원특별자치도 춘천시 칠전동 619-2"
   }
  }
 },
 {
  "section": "sights",
  "name_ko": "김제남 신도비",
  "district": "원주시",
  "category": "기념탑·기념비",
  "lat": 37.3425150029,
  "lng": 127.8208871289,
  "phone": "",
  "thumb": "http://tong.visitkorea.or.kr/cms/resource/28/3376528_image3_1.JPG",
  "i18n": {
   "ko": {
    "name": "김제남 신도비",
    "desc": "",
    "address": "강원특별자치도 원주시 지정면 흥법사지길 18"
   }
  }
 },
 {
  "section": "sights",
  "name_ko": "김종길 가옥",
  "district": "영월군",
  "category": "고택",
  "lat": 37.2708259899,
  "lng": 128.2641992732,
  "phone": "",
  "thumb": "http://tong.visitkorea.or.kr/cms/resource/60/3394760_image3_1.JPG",
  "i18n": {
   "ko": {
    "name": "김종길 가옥",
    "desc": "",
    "address": "강원특별자치도 영월군 주천면 고가옥길 27"
   }
  }
 },
 {
  "section": "sights",
  "name_ko": "김청풍부원군묘역",
  "district": "춘천시",
  "category": "유적지",
  "lat": 37.8365977831,
  "lng": 127.584621892,
  "phone": "",
  "thumb": "http://tong.visitkorea.or.kr/cms/resource/30/3382330_image3_1.JPG",
  "i18n": {
   "ko": {
    "name": "김청풍부원군묘역",
    "desc": "",
    "address": "강원특별자치도 춘천시 서면 경춘로 667-9"
   }
  }
 },
 {
  "section": "sights",
  "name_ko": "김택준가옥",
  "district": "양양군",
  "category": "고택",
  "lat": 37.971882165,
  "lng": 128.7592834131,
  "phone": "",
  "thumb": "http://tong.visitkorea.or.kr/cms/resource/84/3387584_image3_1.JPG",
  "i18n": {
   "ko": {
    "name": "김택준가옥",
    "desc": "",
    "address": "강원특별자치도 양양군 현남면 창리길 4"
   }
  }
 },
 {
  "section": "sights",
  "name_ko": "김하인 아트홀 국화꽃향기",
  "district": "고성군",
  "category": "이색체험",
  "lat": 38.3073694655,
  "lng": 128.5414565905,
  "phone": "",
  "thumb": "http://tong.visitkorea.or.kr/cms/resource/38/3378438_image3_1.JPG",
  "i18n": {
   "ko": {
    "name": "김하인 아트홀 국화꽃향기",
    "desc": "",
    "address": "강원특별자치도 고성군 죽왕면 자작도선사길 120-4"
   }
  }
 },
 {
  "section": "sights",
  "name_ko": "김화군민 망향탑",
  "district": "철원군",
  "category": "안보관광지",
  "lat": 38.2530580143,
  "lng": 127.4604181049,
  "phone": "",
  "thumb": "http://tong.visitkorea.or.kr/cms/resource/44/3558044_image3_1.jpg",
  "i18n": {
   "ko": {
    "name": "김화군민 망향탑",
    "desc": "",
    "address": "강원특별자치도 철원군 근남면 사곡리"
   }
  }
 },
 {
  "section": "sights",
  "name_ko": "꺼먹다리",
  "district": "화천군",
  "category": "유적지",
  "lat": 38.1060946985,
  "lng": 127.7619282638,
  "phone": "",
  "thumb": "http://tong.visitkorea.or.kr/cms/resource/63/3484963_image3_1.png",
  "i18n": {
   "ko": {
    "name": "꺼먹다리",
    "desc": "",
    "address": "강원특별자치도 화천군 화천읍 평화로 685"
   }
  }
 },
 {
  "section": "sights",
  "name_ko": "나리소전망대",
  "district": "정선군",
  "category": "자연생태관광지",
  "lat": 37.2649607892,
  "lng": 128.5994304506,
  "phone": "",
  "thumb": "http://tong.visitkorea.or.kr/cms/resource/35/3583235_image3_1.jpg",
  "i18n": {
   "ko": {
    "name": "나리소전망대",
    "desc": "",
    "address": "강원특별자치도 정선군 신동읍 고성리"
   }
  }
 },
 {
  "section": "sights",
  "name_ko": "낙산도립공원",
  "district": "양양군",
  "category": "도립공원",
  "lat": 38.1161018139,
  "lng": 128.6313821755,
  "phone": "",
  "thumb": "http://tong.visitkorea.or.kr/cms/resource/53/3576153_image3_1.jpg",
  "i18n": {
   "ko": {
    "name": "낙산도립공원",
    "desc": "",
    "address": "강원특별자치도 양양군 강현면 일출로 42"
   }
  }
 },
 {
  "section": "sights",
  "name_ko": "낙산사 의상대",
  "district": "양양군",
  "category": "유적지",
  "lat": 38.1253701685,
  "lng": 128.6307430562,
  "phone": "",
  "thumb": "http://tong.visitkorea.or.kr/cms/resource/15/2739115_image3_1.jpg",
  "i18n": {
   "ko": {
    "name": "낙산사 의상대",
    "desc": "",
    "address": "강원특별자치도 양양군 강현면 낙산사로 100"
   }
  }
 },
 {
  "section": "sights",
  "name_ko": "낙산항",
  "district": "양양군",
  "category": "항구·포구",
  "lat": 38.1226094051,
  "lng": 128.6321235721,
  "phone": "",
  "thumb": "http://tong.visitkorea.or.kr/cms/resource/78/3387578_image3_1.JPG",
  "i18n": {
   "ko": {
    "name": "낙산항",
    "desc": "",
    "address": "강원특별자치도 양양군 강현면 낙산사로 54-10"
   }
  }
 },
 {
  "section": "sights",
  "name_ko": "낙산해안로",
  "district": "양양군",
  "category": "자연생태관광지",
  "lat": 38.1534358504,
  "lng": 128.6051167282,
  "phone": "",
  "thumb": "http://tong.visitkorea.or.kr/cms/resource/17/3387517_image3_1.JPG",
  "i18n": {
   "ko": {
    "name": "낙산해안로",
    "desc": "",
    "address": "강원특별자치도 양양군 강현면 물치천로 28"
   }
  }
 },
 {
  "section": "sights",
  "name_ko": "난포정(蘭浦亭)",
  "district": "정선군",
  "category": "고택",
  "lat": 37.48247664,
  "lng": 128.8496264433,
  "phone": "",
  "thumb": "",
  "i18n": {
   "ko": {
    "name": "난포정(蘭浦亭)",
    "desc": "",
    "address": "강원특별자치도 정선군 임계면 봉산리 185"
   }
  }
 },
 {
  "section": "sights",
  "name_ko": "남노일강변유원지",
  "district": "홍천군",
  "category": "강",
  "lat": 37.6779861466,
  "lng": 127.7607216628,
  "phone": "",
  "thumb": "http://tong.visitkorea.or.kr/cms/resource/69/3037169_image3_1.jpg",
  "i18n": {
   "ko": {
    "name": "남노일강변유원지",
    "desc": "",
    "address": "강원특별자치도 홍천군 남면 남노일리"
   }
  }
 },
 {
  "section": "sights",
  "name_ko": "남대천(강릉)",
  "district": "강릉시",
  "category": "강",
  "lat": 37.714116106,
  "lng": 128.8263881088,
  "phone": "",
  "thumb": "http://tong.visitkorea.or.kr/cms/resource/34/3047934_image3_1.jpg",
  "i18n": {
   "ko": {
    "name": "남대천(강릉)",
    "desc": "",
    "address": "강원특별자치도 강릉시 성산면 구산안길"
   }
  }
 },
 {
  "section": "sights",
  "name_ko": "남애1리해수욕장",
  "district": "양양군",
  "category": "해수욕장",
  "lat": 37.9341454568,
  "lng": 128.7891485534,
  "phone": "",
  "thumb": "http://tong.visitkorea.or.kr/cms/resource/96/2915996_image3_1.JPG",
  "i18n": {
   "ko": {
    "name": "남애1리해수욕장",
    "desc": "",
    "address": "강원특별자치도 양양군 현남면 화상해안길 245"
   }
  }
 },
 {
  "section": "sights",
  "name_ko": "남애3리해수욕장",
  "district": "양양군",
  "category": "해수욕장",
  "lat": 37.9457079159,
  "lng": 128.7845708299,
  "phone": "",
  "thumb": "http://tong.visitkorea.or.kr/cms/resource/09/1584009_image3_1.jpg",
  "i18n": {
   "ko": {
    "name": "남애3리해수욕장",
    "desc": "",
    "address": "강원특별자치도 양양군 현남면 매바위길 167"
   }
  }
 },
 {
  "section": "sights",
  "name_ko": "남애어촌체험마을",
  "district": "양양군",
  "category": "농어촌체험",
  "lat": 37.9445802992,
  "lng": 128.7861179475,
  "phone": "",
  "thumb": "http://tong.visitkorea.or.kr/cms/resource/65/3071565_image3_1.jpg",
  "i18n": {
   "ko": {
    "name": "남애어촌체험마을",
    "desc": "",
    "address": "강원특별자치도 양양군 현남면 매바위길 127"
   }
  }
 },
 {
  "section": "sights",
  "name_ko": "남애항",
  "district": "양양군",
  "category": "항구·포구",
  "lat": 37.9449469437,
  "lng": 128.7871622863,
  "phone": "",
  "thumb": "http://tong.visitkorea.or.kr/cms/resource/15/2746915_image3_1.jpg",
  "i18n": {
   "ko": {
    "name": "남애항",
    "desc": "",
    "address": "강원특별자치도 양양군 현남면 매바위길 138"
   }
  }
 },
 {
  "section": "sights",
  "name_ko": "남애항 스카이워크 전망대",
  "district": "양양군",
  "category": "유명건물",
  "lat": 37.9451191407,
  "lng": 128.7868845282,
  "phone": "",
  "thumb": "http://tong.visitkorea.or.kr/cms/resource/50/2922150_image3_1.jpg",
  "i18n": {
   "ko": {
    "name": "남애항 스카이워크 전망대",
    "desc": "",
    "address": "강원특별자치도 양양군 현남면 매바위길 138"
   }
  }
 },
 {
  "section": "sights",
  "name_ko": "낭천산림욕장",
  "district": "화천군",
  "category": "자연휴양림",
  "lat": 38.1095711534,
  "lng": 127.7129937383,
  "phone": "",
  "thumb": "http://tong.visitkorea.or.kr/cms/resource/91/3385991_image3_1.JPG",
  "i18n": {
   "ko": {
    "name": "낭천산림욕장",
    "desc": "",
    "address": "강원특별자치도 화천군 화천읍 중리 221"
   }
  }
 },
 {
  "section": "sights",
  "name_ko": "내리계곡",
  "district": "영월군",
  "category": "계곡",
  "lat": 37.1078163555,
  "lng": 128.6719841833,
  "phone": "",
  "thumb": "http://tong.visitkorea.or.kr/cms/resource/56/3342156_image3_1.jpg",
  "i18n": {
   "ko": {
    "name": "내리계곡",
    "desc": "",
    "address": "강원특별자치도 영월군 김삿갓면 내리계곡로"
   }
  }
 },
 {
  "section": "sights",
  "name_ko": "내린천 포트홀 (강원평화지역 국가지질공원)",
  "district": "인제군",
  "category": "강",
  "lat": 37.9653962072,
  "lng": 128.2965060925,
  "phone": "",
  "thumb": "http://tong.visitkorea.or.kr/cms/resource/66/2616266_image2_1.bmp",
  "i18n": {
   "ko": {
    "name": "내린천 포트홀 (강원평화지역 국가지질공원)",
    "desc": "",
    "address": "강원특별자치도 인제군 기린면 북리"
   }
  }
 },
 {
  "section": "sights",
  "name_ko": "내심적계곡",
  "district": "인제군",
  "category": "계곡",
  "lat": 38.2497555844,
  "lng": 128.1940233614,
  "phone": "",
  "thumb": "http://tong.visitkorea.or.kr/cms/resource/66/3557266_image3_1.jpg",
  "i18n": {
   "ko": {
    "name": "내심적계곡",
    "desc": "",
    "address": "강원특별자치도 인제군 서화면 심적리"
   }
  }
 },
 {
  "section": "sights",
  "name_ko": "냉천공원",
  "district": "동해시",
  "category": "공원",
  "lat": 37.5192498675,
  "lng": 129.1193122353,
  "phone": "",
  "thumb": "http://tong.visitkorea.or.kr/cms/resource/95/3410895_image3_1.JPG",
  "i18n": {
   "ko": {
    "name": "냉천공원",
    "desc": "",
    "address": "강원특별자치도 동해시 동굴로 141"
   }
  }
 },
 {
  "section": "sights",
  "name_ko": "노동서원",
  "district": "홍천군",
  "category": "유적지",
  "lat": 37.7157026777,
  "lng": 127.6900519704,
  "phone": "",
  "thumb": "http://tong.visitkorea.or.kr/cms/resource/10/3338310_image3_1.jpg",
  "i18n": {
   "ko": {
    "name": "노동서원",
    "desc": "",
    "address": "강원특별자치도 홍천군 서면 팔봉산로 1198-2"
   }
  }
 },
 {
  "section": "sights",
  "name_ko": "노봉해변",
  "district": "동해시",
  "category": "해수욕장",
  "lat": 37.5881665717,
  "lng": 129.1014311557,
  "phone": "",
  "thumb": "http://tong.visitkorea.or.kr/cms/resource/43/3070143_image3_1.jpg",
  "i18n": {
   "ko": {
    "name": "노봉해변",
    "desc": "",
    "address": "강원특별자치도 동해시 망상동"
   }
  }
 },
 {
  "section": "sights",
  "name_ko": "노산성",
  "district": "평창군",
  "category": "성",
  "lat": 37.3744526703,
  "lng": 128.3977230849,
  "phone": "",
  "thumb": "http://tong.visitkorea.or.kr/cms/resource/63/3570163_image3_1.jpg",
  "i18n": {
   "ko": {
    "name": "노산성",
    "desc": "",
    "address": "강원특별자치도 평창군 평창읍 하리"
   }
  }
 },
 {
  "section": "sights",
  "name_ko": "노암터널",
  "district": "강릉시",
  "category": "터널",
  "lat": 37.7481081912,
  "lng": 128.9071992254,
  "phone": "",
  "thumb": "http://tong.visitkorea.or.kr/cms/resource/19/3577819_image3_1.jpg",
  "i18n": {
   "ko": {
    "name": "노암터널",
    "desc": "",
    "address": "강원특별자치도 강릉시 노암동 200-4"
   }
  }
 },
 {
  "section": "sights",
  "name_ko": "뇌운계곡",
  "district": "평창군",
  "category": "계곡",
  "lat": 37.4147532715,
  "lng": 128.3817233253,
  "phone": "",
  "thumb": "http://tong.visitkorea.or.kr/cms/resource/16/3557316_image3_1.jpg",
  "i18n": {
   "ko": {
    "name": "뇌운계곡",
    "desc": "",
    "address": "강원특별자치도 평창군 평창읍 뇌운리"
   }
  }
 },
 {
  "section": "sights",
  "name_ko": "다이나믹 메이즈 속초점",
  "district": "속초시",
  "category": "테마공원",
  "lat": 38.2055364158,
  "lng": 128.517345299,
  "phone": "",
  "thumb": "http://tong.visitkorea.or.kr/cms/resource/41/3339841_image3_1.jpg",
  "i18n": {
   "ko": {
    "name": "다이나믹 메이즈 속초점",
    "desc": "",
    "address": "강원특별자치도 속초시 원암학사평길 88"
   }
  }
 },
 {
  "section": "sights",
  "name_ko": "단경골 휴양지",
  "district": "강릉시",
  "category": "공원",
  "lat": 37.6729253976,
  "lng": 128.9165090423,
  "phone": "",
  "thumb": "http://tong.visitkorea.or.kr/cms/resource/34/3016134_image3_1.jpg",
  "i18n": {
   "ko": {
    "name": "단경골 휴양지",
    "desc": "",
    "address": "강원특별자치도 강릉시 강동면 단경로 841"
   }
  }
 },
 {
  "section": "sights",
  "name_ko": "단관공원",
  "district": "원주시",
  "category": "공원",
  "lat": 37.3181926004,
  "lng": 127.9592309066,
  "phone": "",
  "thumb": "http://tong.visitkorea.or.kr/cms/resource/43/3334543_image3_1.jpg",
  "i18n": {
   "ko": {
    "name": "단관공원",
    "desc": "",
    "address": "강원특별자치도 원주시 단관공원길 63"
   }
  }
 },
 {
  "section": "sights",
  "name_ko": "단종대왕비",
  "district": "태백시",
  "category": "기념탑·기념비",
  "lat": 37.1271948124,
  "lng": 128.9685876538,
  "phone": "",
  "thumb": "http://tong.visitkorea.or.kr/cms/resource/42/3525842_image3_1.jpg",
  "i18n": {
   "ko": {
    "name": "단종대왕비",
    "desc": "",
    "address": "강원특별자치도 태백시 태백산로 4834-31"
   }
  }
 },
 {
  "section": "sights",
  "name_ko": "단풍산",
  "district": "영월군",
  "category": "산",
  "lat": 37.4133712106,
  "lng": 128.7310975139,
  "phone": "",
  "thumb": "http://tong.visitkorea.or.kr/cms/resource/78/3555078_image3_1.jpg",
  "i18n": {
   "ko": {
    "name": "단풍산",
    "desc": "",
    "address": "강원특별자치도 영월군 산솔면 녹전리"
   }
  }
 },
 {
  "section": "sights",
  "name_ko": "담터계곡",
  "district": "철원군",
  "category": "계곡",
  "lat": 38.1559562061,
  "lng": 127.1990171767,
  "phone": "",
  "thumb": "http://tong.visitkorea.or.kr/cms/resource/75/3040675_image3_1.jpg",
  "i18n": {
   "ko": {
    "name": "담터계곡",
    "desc": "",
    "address": "강원특별자치도 철원군 동송읍 상노리"
   }
  }
 },
 {
  "section": "sights",
  "name_ko": "대관령 주주파크",
  "district": "평창군",
  "category": "농어촌체험",
  "lat": 37.6781790709,
  "lng": 128.7075499176,
  "phone": "",
  "thumb": "http://tong.visitkorea.or.kr/cms/resource/94/3347194_image3_1.jpg",
  "i18n": {
   "ko": {
    "name": "대관령 주주파크",
    "desc": "",
    "address": "강원특별자치도 평창군 대관령면 꽃밭양지길 51-30"
   }
  }
 },
 {
  "section": "sights",
  "name_ko": "대관령 하늘목장",
  "district": "평창군",
  "category": "농어촌체험",
  "lat": 37.7071731576,
  "lng": 128.7188396792,
  "phone": "",
  "thumb": "",
  "i18n": {
   "ko": {
    "name": "대관령 하늘목장",
    "desc": "",
    "address": "강원특별자치도 평창군 대관령면 꽃밭양지길 458-23"
   }
  }
 },
 {
  "section": "sights",
  "name_ko": "대교천 현무암 협곡 (한탄강 유네스코 세계지질공원)",
  "district": "철원군",
  "category": "자연생태관광지",
  "lat": 38.1832184335,
  "lng": 127.2819920962,
  "phone": "",
  "thumb": "http://tong.visitkorea.or.kr/cms/resource/59/2616459_image2_1.bmp",
  "i18n": {
   "ko": {
    "name": "대교천 현무암 협곡 (한탄강 유네스코 세계지질공원)",
    "desc": "",
    "address": "강원특별자치도 철원군 동송읍 장흥리"
   }
  }
 },
 {
  "section": "sights",
  "name_ko": "대금굴 (대이리 동굴지대)",
  "district": "삼척시",
  "category": "동굴",
  "lat": 37.3259535342,
  "lng": 129.0205714417,
  "phone": "",
  "thumb": "http://tong.visitkorea.or.kr/cms/resource/89/3460189_image3_1.jpg",
  "i18n": {
   "ko": {
    "name": "대금굴 (대이리 동굴지대)",
    "desc": "",
    "address": "강원특별자치도 삼척시 신기면 환선로 800"
   }
  }
 },
 {
  "section": "sights",
  "name_ko": "대성산지구 전적비",
  "district": "화천군",
  "category": "안보관광지",
  "lat": 38.1775155575,
  "lng": 127.5405935748,
  "phone": "",
  "thumb": "http://tong.visitkorea.or.kr/cms/resource/09/3538909_image3_1.jpg",
  "i18n": {
   "ko": {
    "name": "대성산지구 전적비",
    "desc": "",
    "address": "강원특별자치도 화천군 상서면 다목리 산1-1"
   }
  }
 },
 {
  "section": "sights",
  "name_ko": "대승령과 대승폭포",
  "district": "인제군",
  "category": "산",
  "lat": 38.1196152453,
  "lng": 128.3415306083,
  "phone": "",
  "thumb": "http://tong.visitkorea.or.kr/cms/resource/91/3042591_image3_1.jpg",
  "i18n": {
   "ko": {
    "name": "대승령과 대승폭포",
    "desc": "",
    "address": "강원특별자치도 인제군 북면 설악로"
   }
  }
 },
 {
  "section": "sights",
  "name_ko": "대진 해수욕장",
  "district": "동해시",
  "category": "해수욕장",
  "lat": 37.5810009497,
  "lng": 129.1125692666,
  "phone": "",
  "thumb": "http://tong.visitkorea.or.kr/cms/resource/33/2774433_image3_1.jpg",
  "i18n": {
   "ko": {
    "name": "대진 해수욕장",
    "desc": "",
    "address": "강원특별자치도 동해시 대진항길 46 (대진동)"
   }
  }
 },
 {
  "section": "sights",
  "name_ko": "대진1리해변",
  "district": "고성군",
  "category": "해수욕장",
  "lat": 38.50338874,
  "lng": 128.4236806136,
  "phone": "",
  "thumb": "http://tong.visitkorea.or.kr/cms/resource/74/3006874_image3_1.jpg",
  "i18n": {
   "ko": {
    "name": "대진1리해변",
    "desc": "",
    "address": "강원특별자치도 고성군 현내면 한나루로4길 1"
   }
  }
 },
 {
  "section": "sights",
  "name_ko": "대진항",
  "district": "고성군",
  "category": "항구·포구",
  "lat": 38.499803068,
  "lng": 128.4247222981,
  "phone": "",
  "thumb": "http://tong.visitkorea.or.kr/cms/resource/09/3383909_image3_1.JPG",
  "i18n": {
   "ko": {
    "name": "대진항",
    "desc": "",
    "address": "강원특별자치도 고성군 현내면 대진항길"
   }
  }
 },
 {
  "section": "sights",
  "name_ko": "대진항(삼척)",
  "district": "삼척시",
  "category": "항구·포구",
  "lat": 37.347916797,
  "lng": 129.2604604349,
  "phone": "",
  "thumb": "http://tong.visitkorea.or.kr/cms/resource/28/3561028_image3_1.jpg",
  "i18n": {
   "ko": {
    "name": "대진항(삼척)",
    "desc": "",
    "address": "강원특별자치도 삼척시 근덕면 대진길 120"
   }
  }
 },
 {
  "section": "sights",
  "name_ko": "대포마을",
  "district": "속초시",
  "category": "농어촌체험",
  "lat": 38.1758166221,
  "lng": 128.6072936101,
  "phone": "",
  "thumb": "http://tong.visitkorea.or.kr/cms/resource/20/3394120_image3_1.JPG",
  "i18n": {
   "ko": {
    "name": "대포마을",
    "desc": "",
    "address": "강원특별자치도 속초시 대포항1길 6-13"
   }
  }
 },
 {
  "section": "sights",
  "name_ko": "대한노인회 강릉시지회",
  "district": "강릉시",
  "category": "이색체험",
  "lat": 37.7477716674,
  "lng": 128.8840152133,
  "phone": "",
  "thumb": "",
  "i18n": {
   "ko": {
    "name": "대한노인회 강릉시지회",
    "desc": "",
    "address": "강원특별자치도 강릉시 경강로 1956 (홍제동)"
   }
  }
 },
 {
  "section": "sights",
  "name_ko": "덕가산",
  "district": "영월군",
  "category": "산",
  "lat": 37.1218515249,
  "lng": 128.5611214679,
  "phone": "",
  "thumb": "http://tong.visitkorea.or.kr/cms/resource/74/3342174_image3_1.jpg",
  "i18n": {
   "ko": {
    "name": "덕가산",
    "desc": "",
    "address": "강원특별자치도 영월군 김삿갓면 영월동로 1547"
   }
  }
 },
 {
  "section": "sights",
  "name_ko": "덕고마을",
  "district": "횡성군",
  "category": "농어촌체험",
  "lat": 37.473542462,
  "lng": 128.0208735692,
  "phone": "",
  "thumb": "",
  "i18n": {
   "ko": {
    "name": "덕고마을",
    "desc": "",
    "address": "강원특별자치도 횡성군 횡성읍 덕고로 410"
   }
  }
 },
 {
  "section": "sights",
  "name_ko": "덕산항",
  "district": "삼척시",
  "category": "항구·포구",
  "lat": 37.3778549116,
  "lng": 129.2548683473,
  "phone": "",
  "thumb": "http://tong.visitkorea.or.kr/cms/resource/63/3387163_image3_1.JPG",
  "i18n": {
   "ko": {
    "name": "덕산항",
    "desc": "",
    "address": "강원특별자치도 삼척시 근덕면 덕산해안로 200-21"
   }
  }
 },
 {
  "section": "sights",
  "name_ko": "덕산해변",
  "district": "삼척시",
  "category": "해수욕장",
  "lat": 37.3858676065,
  "lng": 129.24096101,
  "phone": "",
  "thumb": "http://tong.visitkorea.or.kr/cms/resource/86/2921586_image3_1.jpg",
  "i18n": {
   "ko": {
    "name": "덕산해변",
    "desc": "",
    "address": "강원특별자치도 삼척시 근덕면 덕산해변길 114"
   }
  }
 },
 {
  "section": "sights",
  "name_ko": "덕우리대촌마을",
  "district": "정선군",
  "category": "농어촌체험",
  "lat": 37.3607296875,
  "lng": 128.7119313768,
  "phone": "",
  "thumb": "http://tong.visitkorea.or.kr/cms/resource/25/3036225_image3_1.jpg",
  "i18n": {
   "ko": {
    "name": "덕우리대촌마을",
    "desc": "",
    "address": "강원특별자치도 정선군 정선읍 대촌길 3"
   }
  }
 },
 {
  "section": "sights",
  "name_ko": "덕우리체험마을",
  "district": "정선군",
  "category": "농어촌체험",
  "lat": 37.3597576186,
  "lng": 128.7140867688,
  "phone": "",
  "thumb": "http://tong.visitkorea.or.kr/cms/resource/54/3353354_image3_1.jpg",
  "i18n": {
   "ko": {
    "name": "덕우리체험마을",
    "desc": "",
    "address": "강원특별자치도 정선군 정선읍 백오담길 27"
   }
  }
 },
 {
  "section": "sights",
  "name_ko": "덕풍계곡",
  "district": "삼척시",
  "category": "계곡",
  "lat": 37.1222684932,
  "lng": 129.1583542077,
  "phone": "",
  "thumb": "http://tong.visitkorea.or.kr/cms/resource/16/3503516_image3_1.jpg",
  "i18n": {
   "ko": {
    "name": "덕풍계곡",
    "desc": "",
    "address": "강원특별자치도 삼척시 가곡면 덕풍길 44"
   }
  }
 },
 {
  "section": "sights",
  "name_ko": "덕항산",
  "district": "삼척시",
  "category": "산",
  "lat": 37.3039230357,
  "lng": 129.0360818354,
  "phone": "",
  "thumb": "http://tong.visitkorea.or.kr/cms/resource/03/3040403_image3_1.jpg",
  "i18n": {
   "ko": {
    "name": "덕항산",
    "desc": "",
    "address": "강원특별자치도 삼척시 신기면 대기리"
   }
  }
 },
 {
  "section": "sights",
  "name_ko": "도계역 급수탑",
  "district": "삼척시",
  "category": "유적지",
  "lat": 37.2268403735,
  "lng": 129.0435390639,
  "phone": "",
  "thumb": "http://tong.visitkorea.or.kr/cms/resource/57/2820757_image3_1.jpg",
  "i18n": {
   "ko": {
    "name": "도계역 급수탑",
    "desc": "",
    "address": "강원특별자치도 삼척시 전두남1길 33-20"
   }
  }
 },
 {
  "section": "sights",
  "name_ko": "도계유리마을",
  "district": "삼척시",
  "category": "이색체험",
  "lat": 37.21290299,
  "lng": 129.0385760403,
  "phone": "",
  "thumb": "http://tong.visitkorea.or.kr/cms/resource/88/3394088_image3_1.JPG",
  "i18n": {
   "ko": {
    "name": "도계유리마을",
    "desc": "",
    "address": "강원특별자치도 삼척시 도계읍 도계로 31"
   }
  }
 },
 {
  "section": "sights",
  "name_ko": "도사곡휴양림",
  "district": "정선군",
  "category": "자연휴양림",
  "lat": 37.2267328283,
  "lng": 128.7956223479,
  "phone": "",
  "thumb": "http://tong.visitkorea.or.kr/cms/resource/61/3342261_image3_1.jpg",
  "i18n": {
   "ko": {
    "name": "도사곡휴양림",
    "desc": "",
    "address": "강원특별자치도 정선군 사북읍 지장천로 436-27"
   }
  }
 },
 {
  "section": "sights",
  "name_ko": "도원리계곡",
  "district": "고성군",
  "category": "계곡",
  "lat": 38.2671561712,
  "lng": 128.4738251134,
  "phone": "",
  "thumb": "http://tong.visitkorea.or.kr/cms/resource/27/3557127_image3_1.jpg",
  "i18n": {
   "ko": {
    "name": "도원리계곡",
    "desc": "",
    "address": "강원특별자치도 고성군 토성면 도원리"
   }
  }
 },
 {
  "section": "sights",
  "name_ko": "도직해변",
  "district": "강릉시",
  "category": "해수욕장",
  "lat": 37.6093412454,
  "lng": 129.0676585323,
  "phone": "",
  "thumb": "http://tong.visitkorea.or.kr/cms/resource/81/3069081_image3_1.jpg",
  "i18n": {
   "ko": {
    "name": "도직해변",
    "desc": "",
    "address": "강원특별자치도 강릉시 옥계면 도직리"
   }
  }
 },
 {
  "section": "sights",
  "name_ko": "도째비골스카이밸리",
  "district": "동해시",
  "category": "테마공원",
  "lat": 37.5553040418,
  "lng": 129.1191500261,
  "phone": "",
  "thumb": "http://tong.visitkorea.or.kr/cms/resource/05/3534505_image3_1.jpg",
  "i18n": {
   "ko": {
    "name": "도째비골스카이밸리",
    "desc": "",
    "address": "강원특별자치도 동해시 묵호진동 2-109"
   }
  }
 },
 {
  "section": "sights",
  "name_ko": "동강 (강원고생대 국가지질공원)",
  "district": "정선군",
  "category": "강",
  "lat": 37.3602780468,
  "lng": 128.6235171042,
  "phone": "",
  "thumb": "http://tong.visitkorea.or.kr/cms/resource/84/3334184_image3_1.jpg",
  "i18n": {
   "ko": {
    "name": "동강 (강원고생대 국가지질공원)",
    "desc": "",
    "address": "강원특별자치도 정선군 정선읍 동강로 2908"
   }
  }
 },
 {
  "section": "sights",
  "name_ko": "동강리버버깅",
  "district": "영월군",
  "category": "이색체험",
  "lat": 37.1164128337,
  "lng": 128.5385930905,
  "phone": "",
  "thumb": "http://tong.visitkorea.or.kr/cms/resource/12/3352012_image3_1.jpg",
  "i18n": {
   "ko": {
    "name": "동강리버버깅",
    "desc": "",
    "address": "강원특별자치도 영월군 김삿갓면 강변로 1462-17"
   }
  }
 },
 {
  "section": "sights",
  "name_ko": "동강시스타 리조트",
  "district": "영월군",
  "category": "관광단지",
  "lat": 37.2177619104,
  "lng": 128.5187307595,
  "phone": "",
  "thumb": "http://tong.visitkorea.or.kr/cms/resource/76/2750976_image3_1.jpg",
  "i18n": {
   "ko": {
    "name": "동강시스타 리조트",
    "desc": "",
    "address": "강원특별자치도 영월군 영월읍 사지막길 160"
   }
  }
 },
 {
  "section": "sights",
  "name_ko": "동구래마을",
  "district": "화천군",
  "category": "농어촌체험",
  "lat": 38.0410504502,
  "lng": 127.6640391463,
  "phone": "",
  "thumb": "http://tong.visitkorea.or.kr/cms/resource/31/2566331_image3_1.jpg",
  "i18n": {
   "ko": {
    "name": "동구래마을",
    "desc": "",
    "address": "강원특별자치도 화천군 하남면 호수길 329"
   }
  }
 },
 {
  "section": "sights",
  "name_ko": "동명동성당",
  "district": "속초시",
  "category": "종교성지",
  "lat": 38.2135064568,
  "lng": 128.5958129203,
  "phone": "",
  "thumb": "http://tong.visitkorea.or.kr/cms/resource/98/2792798_image2_1.jpg",
  "i18n": {
   "ko": {
    "name": "동명동성당",
    "desc": "",
    "address": "강원특별자치도 속초시 영랑로7길 10-5"
   }
  }
 },
 {
  "section": "sights",
  "name_ko": "동명서원",
  "district": "양양군",
  "category": "유적지",
  "lat": 38.1110023752,
  "lng": 128.6297408168,
  "phone": "",
  "thumb": "http://tong.visitkorea.or.kr/cms/resource/10/3076910_image3_1.jpg",
  "i18n": {
   "ko": {
    "name": "동명서원",
    "desc": "",
    "address": "강원특별자치도 양양군 양양읍 서원길 44-9"
   }
  }
 },
 {
  "section": "sights",
  "name_ko": "동명항",
  "district": "속초시",
  "category": "항구·포구",
  "lat": 38.2114151114,
  "lng": 128.599818177,
  "phone": "",
  "thumb": "",
  "i18n": {
   "ko": {
    "name": "동명항",
    "desc": "",
    "address": "강원특별자치도 속초시 영금정로 50"
   }
  }
 },
 {
  "section": "sights",
  "name_ko": "동산포해변",
  "district": "양양군",
  "category": "해수욕장",
  "lat": 37.9821559287,
  "lng": 128.7570277424,
  "phone": "",
  "thumb": "http://tong.visitkorea.or.kr/cms/resource/43/3076843_image3_1.jpg",
  "i18n": {
   "ko": {
    "name": "동산포해변",
    "desc": "",
    "address": "강원특별자치도 양양군 현남면 동산리"
   }
  }
 },
 {
  "section": "sights",
  "name_ko": "동산항",
  "district": "양양군",
  "category": "항구·포구",
  "lat": 37.9798534403,
  "lng": 128.7581277142,
  "phone": "",
  "thumb": "http://tong.visitkorea.or.kr/cms/resource/62/3393962_image3_1.JPG",
  "i18n": {
   "ko": {
    "name": "동산항",
    "desc": "",
    "address": "강원특별자치도 양양군 현남면 동산리"
   }
  }
 },
 {
  "section": "sights",
  "name_ko": "동산해수욕장",
  "district": "양양군",
  "category": "해수욕장",
  "lat": 37.9814671694,
  "lng": 128.7595719781,
  "phone": "",
  "thumb": "http://tong.visitkorea.or.kr/cms/resource/70/3351770_image3_1.JPG",
  "i18n": {
   "ko": {
    "name": "동산해수욕장",
    "desc": "",
    "address": "강원특별자치도 양양군 현남면 동산큰길 84-54"
   }
  }
 },
 {
  "section": "sights",
  "name_ko": "동해생명자원센터",
  "district": "양양군",
  "category": "자연생태관광지",
  "lat": 38.0810143726,
  "lng": 128.6388992529,
  "phone": "",
  "thumb": "http://tong.visitkorea.or.kr/cms/resource/83/3354883_image3_1.jpg",
  "i18n": {
   "ko": {
    "name": "동해생명자원센터",
    "desc": "",
    "address": "강원특별자치도 양양군 손양면 동명로 119"
   }
  }
 },
 {
  "section": "sights",
  "name_ko": "동해약천온천실버타운",
  "district": "동해시",
  "category": "온천",
  "lat": 37.5942068674,
  "lng": 129.0669812828,
  "phone": "",
  "thumb": "http://tong.visitkorea.or.kr/cms/resource/97/3350597_image3_1.jpg",
  "i18n": {
   "ko": {
    "name": "동해약천온천실버타운",
    "desc": "",
    "address": "강원특별자치도 동해시 석두골길 145"
   }
  }
 },
 {
  "section": "sights",
  "name_ko": "동해향교",
  "district": "동해시",
  "category": "유적지",
  "lat": 37.5401163636,
  "lng": 129.0915307492,
  "phone": "",
  "thumb": "http://tong.visitkorea.or.kr/cms/resource/64/3070464_image3_1.jpg",
  "i18n": {
   "ko": {
    "name": "동해향교",
    "desc": "",
    "address": "강원특별자치도 동해시 승지로 84-3"
   }
  }
 },
 {
  "section": "sights",
  "name_ko": "동활계곡",
  "district": "삼척시",
  "category": "계곡",
  "lat": 37.1523839142,
  "lng": 129.1290670175,
  "phone": "",
  "thumb": "http://tong.visitkorea.or.kr/cms/resource/69/3577869_image3_1.jpg",
  "i18n": {
   "ko": {
    "name": "동활계곡",
    "desc": "",
    "address": "강원특별자치도 삼척시 가곡면 가곡천로"
   }
  }
 },
 {
  "section": "sights",
  "name_ko": "두위봉",
  "district": "정선군",
  "category": "산",
  "lat": 37.2112754783,
  "lng": 128.7541848542,
  "phone": "",
  "thumb": "http://tong.visitkorea.or.kr/cms/resource/82/3334282_image3_1.jpg",
  "i18n": {
   "ko": {
    "name": "두위봉",
    "desc": "",
    "address": "강원특별자치도 정선군 사북읍 지장천로 436-27"
   }
  }
 },
 {
  "section": "sights",
  "name_ko": "두타산",
  "district": "동해시",
  "category": "산",
  "lat": 37.4634293524,
  "lng": 129.0194506792,
  "phone": "",
  "thumb": "http://tong.visitkorea.or.kr/cms/resource/59/2676059_image3_1.jpg",
  "i18n": {
   "ko": {
    "name": "두타산",
    "desc": "",
    "address": "강원특별자치도 동해시 삼화로 538 (삼화동)"
   }
  }
 },
 {
  "section": "sights",
  "name_ko": "두타산협곡마천루",
  "district": "동해시",
  "category": "산",
  "lat": 37.463623679,
  "lng": 129.014537225,
  "phone": "",
  "thumb": "http://tong.visitkorea.or.kr/cms/resource/18/2773918_image2_1.jpg",
  "i18n": {
   "ko": {
    "name": "두타산협곡마천루",
    "desc": "",
    "address": "강원특별자치도 동해시 삼화로 584"
   }
  }
 },
 {
  "section": "sights",
  "name_ko": "두타연 평화누리길",
  "district": "양구군",
  "category": "안보관광지",
  "lat": 38.226904235,
  "lng": 127.9835710384,
  "phone": "",
  "thumb": "",
  "i18n": {
   "ko": {
    "name": "두타연 평화누리길",
    "desc": "",
    "address": "강원특별자치도 양구군 방산면"
   }
  }
 },
 {
  "section": "sights",
  "name_ko": "둔내자연휴양림",
  "district": "횡성군",
  "category": "자연휴양림",
  "lat": 37.5125926787,
  "lng": 128.2724941422,
  "phone": "",
  "thumb": "http://tong.visitkorea.or.kr/cms/resource/32/3457832_image3_1.png",
  "i18n": {
   "ko": {
    "name": "둔내자연휴양림",
    "desc": "",
    "address": "강원특별자치도 횡성군 둔내면 청태산로154번길 334"
   }
  }
 },
 {
  "section": "sights",
  "name_ko": "둔전계곡",
  "district": "양양군",
  "category": "계곡",
  "lat": 38.1201275561,
  "lng": 128.5506449313,
  "phone": "",
  "thumb": "http://tong.visitkorea.or.kr/cms/resource/55/3077255_image3_1.jpg",
  "i18n": {
   "ko": {
    "name": "둔전계곡",
    "desc": "",
    "address": "강원특별자치도 양양군 강현면 둔전리"
   }
  }
 },
 {
  "section": "sights",
  "name_ko": "뒷뜨루관광농원",
  "district": "강릉시",
  "category": "기타 산업관광지",
  "lat": 37.8353717256,
  "lng": 128.8370445153,
  "phone": "",
  "thumb": "http://tong.visitkorea.or.kr/cms/resource/84/3560184_image3_1.jpg",
  "i18n": {
   "ko": {
    "name": "뒷뜨루관광농원",
    "desc": "",
    "address": "강원특별자치도 강릉시 사천면 청솔공원길 108"
   }
  }
 },
 {
  "section": "sights",
  "name_ko": "등광사",
  "district": "태백시",
  "category": "사찰",
  "lat": 37.122680147,
  "lng": 128.9013021309,
  "phone": "",
  "thumb": "http://tong.visitkorea.or.kr/cms/resource/94/3400094_image3_1.JPG",
  "i18n": {
   "ko": {
    "name": "등광사",
    "desc": "",
    "address": "강원특별자치도 태백시 문곡소도동 산50"
   }
  }
 },
 {
  "section": "sights",
  "name_ko": "라카이 샌드파인 수영장",
  "district": "강릉시",
  "category": "관광단지",
  "lat": 37.8064819183,
  "lng": 128.9033255449,
  "phone": "",
  "thumb": "http://tong.visitkorea.or.kr/cms/resource/73/3380973_image3_1.jpg",
  "i18n": {
   "ko": {
    "name": "라카이 샌드파인 수영장",
    "desc": "",
    "address": "강원특별자치도 강릉시 해안로 536 (안현동)"
   }
  }
 },
 {
  "section": "sights",
  "name_ko": "려우도예",
  "district": "춘천시",
  "category": "이색체험",
  "lat": 37.8185967945,
  "lng": 127.717813079,
  "phone": "",
  "thumb": "http://tong.visitkorea.or.kr/cms/resource/16/3562216_image3_1.jpg",
  "i18n": {
   "ko": {
    "name": "려우도예",
    "desc": "",
    "address": "강원특별자치도 춘천시 신동면 김유정로 1430-14"
   }
  }
 },
 {
  "section": "sights",
  "name_ko": "리고엠",
  "district": "강릉시",
  "category": "이색체험",
  "lat": 37.7641862993,
  "lng": 128.8770014492,
  "phone": "",
  "thumb": "",
  "i18n": {
   "ko": {
    "name": "리고엠",
    "desc": "",
    "address": "강원특별자치도 강릉시 솔올로5번길 51"
   }
  }
 },
 {
  "section": "sights",
  "name_ko": "마곡유원지",
  "district": "홍천군",
  "category": "공원",
  "lat": 37.7305097947,
  "lng": 127.5671265985,
  "phone": "",
  "thumb": "http://tong.visitkorea.or.kr/cms/resource/21/3465521_image3_1.JPG",
  "i18n": {
   "ko": {
    "name": "마곡유원지",
    "desc": "",
    "address": "강원특별자치도 홍천군 서면 마곡길 394-40"
   }
  }
 },
 {
  "section": "sights",
  "name_ko": "마린데크(커피마린협동조합)",
  "district": "삼척시",
  "category": "이색체험",
  "lat": 37.4567778155,
  "lng": 129.1860748475,
  "phone": "",
  "thumb": "http://tong.visitkorea.or.kr/cms/resource/73/2820173_image2_1.JPG",
  "i18n": {
   "ko": {
    "name": "마린데크(커피마린협동조합)",
    "desc": "",
    "address": "강원특별자치도 삼척시 새천년도로 326"
   }
  }
 },
 {
  "section": "sights",
  "name_ko": "마운틴코스터",
  "district": "평창군",
  "category": "이색체험",
  "lat": 37.630320097,
  "lng": 128.6755125974,
  "phone": "",
  "thumb": "http://tong.visitkorea.or.kr/cms/resource/97/3534697_image3_1.jpg",
  "i18n": {
   "ko": {
    "name": "마운틴코스터",
    "desc": "",
    "address": "강원특별자치도 평창군 대관령면 올림픽로 715"
   }
  }
 },
 {
  "section": "sights",
  "name_ko": "마차리폐광촌",
  "district": "영월군",
  "category": "이색체험",
  "lat": 37.2551952998,
  "lng": 128.456001945,
  "phone": "",
  "thumb": "",
  "i18n": {
   "ko": {
    "name": "마차리폐광촌",
    "desc": "",
    "address": "강원특별자치도 영월군 북면 마차중앙2길 30-4"
   }
  }
 },
 {
  "section": "sights",
  "name_ko": "마차진해변",
  "district": "고성군",
  "category": "해수욕장",
  "lat": 19.69442748,
  "lng": 117.9925662504,
  "phone": "",
  "thumb": "http://tong.visitkorea.or.kr/cms/resource/68/3006868_image3_1.jpg",
  "i18n": {
   "ko": {
    "name": "마차진해변",
    "desc": "",
    "address": "강원특별자치도 고성군 현내면 금강산로 416"
   }
  }
 },
 {
  "section": "sights",
  "name_ko": "마평정수장 홍보관",
  "district": "삼척시",
  "category": "기타 산업관광지",
  "lat": 19.69442748,
  "lng": 117.9925662504,
  "phone": "",
  "thumb": "http://tong.visitkorea.or.kr/cms/resource/34/3071234_image3_1.jpg",
  "i18n": {
   "ko": {
    "name": "마평정수장 홍보관",
    "desc": "",
    "address": "강원특별자치도 삼척시 회강길 450 (마평동)"
   }
  }
 },
 {
  "section": "sights",
  "name_ko": "막동계곡",
  "district": "평창군",
  "category": "계곡",
  "lat": 37.5372815062,
  "lng": 128.5651392486,
  "phone": "",
  "thumb": "http://tong.visitkorea.or.kr/cms/resource/69/2921769_image3_1.jpg",
  "i18n": {
   "ko": {
    "name": "막동계곡",
    "desc": "",
    "address": "강원특별자치도 평창군 진부면 오대천로"
   }
  }
 },
 {
  "section": "sights",
  "name_ko": "만경대",
  "district": "동해시",
  "category": "유적지",
  "lat": 19.69442748,
  "lng": 117.9925662504,
  "phone": "",
  "thumb": "http://tong.visitkorea.or.kr/cms/resource/12/3070412_image3_1.jpg",
  "i18n": {
   "ko": {
    "name": "만경대",
    "desc": "",
    "address": "강원특별자치도 동해시 공단12로 77 (구호동)"
   }
  }
 },
 {
  "section": "sights",
  "name_ko": "망경대산자연휴양림",
  "district": "영월군",
  "category": "자연휴양림",
  "lat": 37.1839172249,
  "lng": 128.5935083942,
  "phone": "",
  "thumb": "http://tong.visitkorea.or.kr/cms/resource/76/3388576_image3_1.JPG",
  "i18n": {
   "ko": {
    "name": "망경대산자연휴양림",
    "desc": "",
    "address": "강원특별자치도 영월군 산솔면 선도우길 177"
   }
  }
 },
 {
  "section": "sights",
  "name_ko": "매봉산풍력발전단지(바람의 언덕)",
  "district": "태백시",
  "category": "농어촌체험",
  "lat": 37.2165873563,
  "lng": 128.9702348133,
  "phone": "",
  "thumb": "http://tong.visitkorea.or.kr/cms/resource/03/3566003_image3_1.jpg",
  "i18n": {
   "ko": {
    "name": "매봉산풍력발전단지(바람의 언덕)",
    "desc": "",
    "address": "강원특별자치도 태백시 매봉산길 206 (창죽동)"
   }
  }
 },
 {
  "section": "sights",
  "name_ko": "매운탕골",
  "district": "춘천시",
  "category": "이색거리",
  "lat": 37.9675451419,
  "lng": 127.6648607058,
  "phone": "",
  "thumb": "http://tong.visitkorea.or.kr/cms/resource/79/3382379_image3_1.JPG",
  "i18n": {
   "ko": {
    "name": "매운탕골",
    "desc": "",
    "address": "강원특별자치도 춘천시 서면 오월리"
   }
  }
 },
 {
  "section": "sights",
  "name_ko": "매월대폭포",
  "district": "철원군",
  "category": "폭포",
  "lat": 38.1950151047,
  "lng": 127.476843334,
  "phone": "",
  "thumb": "http://tong.visitkorea.or.kr/cms/resource/65/3332265_image3_1.jpg",
  "i18n": {
   "ko": {
    "name": "매월대폭포",
    "desc": "",
    "address": "강원특별자치도 철원군 근남면 잠곡리 222-5"
   }
  }
 },
 {
  "section": "sights",
  "name_ko": "매화마을(매호리마을)",
  "district": "원주시",
  "category": "농어촌체험",
  "lat": 37.4142578615,
  "lng": 127.8831155308,
  "phone": "",
  "thumb": "http://tong.visitkorea.or.kr/cms/resource/38/2494438_image3_1.jpg",
  "i18n": {
   "ko": {
    "name": "매화마을(매호리마을)",
    "desc": "",
    "address": "강원특별자치도 원주시 호저면 매호로 135"
   }
  }
 },
 {
  "section": "sights",
  "name_ko": "맹방해변",
  "district": "삼척시",
  "category": "해수욕장",
  "lat": 37.3898030893,
  "lng": 129.2320061341,
  "phone": "",
  "thumb": "http://tong.visitkorea.or.kr/cms/resource/95/2921595_image3_1.jpg",
  "i18n": {
   "ko": {
    "name": "맹방해변",
    "desc": "",
    "address": "강원특별자치도 삼척시 근덕면 맹방해변로 228-239"
   }
  }
 },
 {
  "section": "sights",
  "name_ko": "메이힐스리조트",
  "district": "정선군",
  "category": "관광단지",
  "lat": 37.211568665,
  "lng": 128.8352025949,
  "phone": "",
  "thumb": "http://tong.visitkorea.or.kr/cms/resource/00/1827300_image3_1.jpg",
  "i18n": {
   "ko": {
    "name": "메이힐스리조트",
    "desc": "",
    "address": "강원특별자치도 정선군 고한읍 물한리길 8"
   }
  }
 },
 {
  "section": "sights",
  "name_ko": "명월리산촌생태마을",
  "district": "춘천시",
  "category": "농어촌체험",
  "lat": 37.8802464537,
  "lng": 127.6370130548,
  "phone": "",
  "thumb": "http://tong.visitkorea.or.kr/cms/resource/32/3386432_image3_1.jpg",
  "i18n": {
   "ko": {
    "name": "명월리산촌생태마을",
    "desc": "",
    "address": "강원특별자치도 춘천시 서면 명월길 410"
   }
  }
 },
 {
  "section": "sights",
  "name_ko": "명주사(양양)",
  "district": "양양군",
  "category": "사찰",
  "lat": 37.948708324,
  "lng": 128.6806218026,
  "phone": "",
  "thumb": "http://tong.visitkorea.or.kr/cms/resource/36/3581936_image3_1.jpg",
  "i18n": {
   "ko": {
    "name": "명주사(양양)",
    "desc": "",
    "address": "강원특별자치도 양양군 현북면 어성전길 93-229"
   }
  }
 },
 {
  "section": "sights",
  "name_ko": "명주사부도군",
  "district": "양양군",
  "category": "사찰",
  "lat": 37.9485750069,
  "lng": 128.6806551378,
  "phone": "",
  "thumb": "http://tong.visitkorea.or.kr/cms/resource/36/3500536_image3_1.jpg",
  "i18n": {
   "ko": {
    "name": "명주사부도군",
    "desc": "",
    "address": "강원특별자치도 양양군 현북면 어성전길 93-229"
   }
  }
 },
 {
  "section": "sights",
  "name_ko": "명파해변",
  "district": "고성군",
  "category": "해수욕장",
  "lat": 38.5435697967,
  "lng": 128.4053254685,
  "phone": "",
  "thumb": "http://tong.visitkorea.or.kr/cms/resource/88/2922088_image3_1.jpg",
  "i18n": {
   "ko": {
    "name": "명파해변",
    "desc": "",
    "address": "강원특별자치도 고성군 현내면 명파4길 47"
   }
  }
 },
 {
  "section": "sights",
  "name_ko": "모나용평 그린피아콘도",
  "district": "평창군",
  "category": "관광단지",
  "lat": 37.6427159041,
  "lng": 128.6764260265,
  "phone": "",
  "thumb": "http://tong.visitkorea.or.kr/cms/resource/52/3356152_image3_1.jpg",
  "i18n": {
   "ko": {
    "name": "모나용평 그린피아콘도",
    "desc": "",
    "address": "강원특별자치도 평창군 대관령면 올림픽로 715"
   }
  }
 },
 {
  "section": "sights",
  "name_ko": "모둘자리 힐링체험마을",
  "district": "홍천군",
  "category": "기타 산업관광지",
  "lat": 37.7119160343,
  "lng": 128.230536412,
  "phone": "",
  "thumb": "http://tong.visitkorea.or.kr/cms/resource/31/2598431_image3_1.bmp",
  "i18n": {
   "ko": {
    "name": "모둘자리 힐링체험마을",
    "desc": "",
    "address": "강원특별자치도 홍천군 서석면 검산길 147-19"
   }
  }
 },
 {
  "section": "sights",
  "name_ko": "목우산",
  "district": "영월군",
  "category": "산",
  "lat": 37.1370078636,
  "lng": 128.6939007994,
  "phone": "",
  "thumb": "http://tong.visitkorea.or.kr/cms/resource/64/3342164_image3_1.jpg",
  "i18n": {
   "ko": {
    "name": "목우산",
    "desc": "",
    "address": "강원특별자치도 영월군 산솔면 응고개길 169-2"
   }
  }
 },
 {
  "section": "sights",
  "name_ko": "몰운대(정선)",
  "district": "정선군",
  "category": "산",
  "lat": 37.3181559522,
  "lng": 128.8117487099,
  "phone": "",
  "thumb": "http://tong.visitkorea.or.kr/cms/resource/00/3100000_image3_1.jpg",
  "i18n": {
   "ko": {
    "name": "몰운대(정선)",
    "desc": "",
    "address": "강원특별자치도 정선군 화암면 약수길 1330"
   }
  }
 },
 {
  "section": "sights",
  "name_ko": "몽토랑 산양목장",
  "district": "태백시",
  "category": "농어촌체험",
  "lat": 37.1820273198,
  "lng": 128.9641280683,
  "phone": "",
  "thumb": "http://tong.visitkorea.or.kr/cms/resource/62/2836762_image3_1.jpg",
  "i18n": {
   "ko": {
    "name": "몽토랑 산양목장",
    "desc": "",
    "address": "강원특별자치도 태백시 효자1길 27-2"
   }
  }
 },
 {
  "section": "sights",
  "name_ko": "무궁화수목원",
  "district": "홍천군",
  "category": "수목원",
  "lat": 37.721296393,
  "lng": 127.8350191968,
  "phone": "",
  "thumb": "http://tong.visitkorea.or.kr/cms/resource/39/3450139_image3_1.jpg",
  "i18n": {
   "ko": {
    "name": "무궁화수목원",
    "desc": "",
    "address": "강원특별자치도 홍천군 북방면 영서로 2937-12"
   }
  }
 },
 {
  "section": "sights",
  "name_ko": "무릉계곡 용추폭포(강원)",
  "district": "동해시",
  "category": "폭포",
  "lat": 37.4536522297,
  "lng": 128.9952281499,
  "phone": "",
  "thumb": "http://tong.visitkorea.or.kr/cms/resource/53/3544453_image3_1.jpg",
  "i18n": {
   "ko": {
    "name": "무릉계곡 용추폭포(강원)",
    "desc": "",
    "address": "강원특별자치도 동해시 삼화동"
   }
  }
 },
 {
  "section": "sights",
  "name_ko": "묵호항",
  "district": "동해시",
  "category": "항구·포구",
  "lat": 37.5503878118,
  "lng": 129.1125091063,
  "phone": "",
  "thumb": "http://tong.visitkorea.or.kr/cms/resource/55/3423355_image3_1.jpg",
  "i18n": {
   "ko": {
    "name": "묵호항",
    "desc": "",
    "address": "강원특별자치도 동해시 일출로 22"
   }
  }
 },
 {
  "section": "sights",
  "name_ko": "묵호항수변공원",
  "district": "동해시",
  "category": "공원",
  "lat": 37.5509989487,
  "lng": 129.1174169812,
  "phone": "",
  "thumb": "http://tong.visitkorea.or.kr/cms/resource/42/3573742_image3_1.jpg",
  "i18n": {
   "ko": {
    "name": "묵호항수변공원",
    "desc": "",
    "address": "강원특별자치도 동해시 일출로 92-11 (묵호진동)"
   }
  }
 },
 {
  "section": "sights",
  "name_ko": "문암2리해변",
  "district": "고성군",
  "category": "해수욕장",
  "lat": 38.2967736331,
  "lng": 128.5494339747,
  "phone": "",
  "thumb": "http://tong.visitkorea.or.kr/cms/resource/59/3048359_image3_1.jpg",
  "i18n": {
   "ko": {
    "name": "문암2리해변",
    "desc": "",
    "address": "강원특별자치도 고성군 죽왕면 문암진리"
   }
  }
 },
 {
  "section": "sights",
  "name_ko": "문암항",
  "district": "고성군",
  "category": "항구·포구",
  "lat": 38.2960404108,
  "lng": 128.5507422121,
  "phone": "",
  "thumb": "http://tong.visitkorea.or.kr/cms/resource/54/3383954_image3_1.JPG",
  "i18n": {
   "ko": {
    "name": "문암항",
    "desc": "",
    "address": "강원특별자치도 고성군 죽왕면 문암진리 134-88"
   }
  }
 },
 {
  "section": "sights",
  "name_ko": "문암해변",
  "district": "삼척시",
  "category": "해수욕장",
  "lat": 37.309005149,
  "lng": 129.2883702491,
  "phone": "",
  "thumb": "http://tong.visitkorea.or.kr/cms/resource/07/3342107_image3_1.jpg",
  "i18n": {
   "ko": {
    "name": "문암해변",
    "desc": "",
    "address": "강원특별자치도 삼척시 근덕면 초곡길 340"
   }
  }
 },
 {
  "section": "sights",
  "name_ko": "문치재",
  "district": "정선군",
  "category": "자연생태관광지",
  "lat": 37.3669306374,
  "lng": 128.7985428653,
  "phone": "",
  "thumb": "",
  "i18n": {
   "ko": {
    "name": "문치재",
    "desc": "",
    "address": "강원특별자치도 정선군 화암면 화암리"
   }
  }
 },
 {
  "section": "sights",
  "name_ko": "물치마을",
  "district": "양양군",
  "category": "농어촌체험",
  "lat": 38.1531803325,
  "lng": 128.6055250327,
  "phone": "",
  "thumb": "http://tong.visitkorea.or.kr/cms/resource/65/3077265_image3_1.jpg",
  "i18n": {
   "ko": {
    "name": "물치마을",
    "desc": "",
    "address": "강원특별자치도 양양군 강현면 물치천로 23"
   }
  }
 },
 {
  "section": "sights",
  "name_ko": "미산계곡",
  "district": "인제군",
  "category": "계곡",
  "lat": 37.8684661547,
  "lng": 128.3151962378,
  "phone": "",
  "thumb": "http://tong.visitkorea.or.kr/cms/resource/38/3376038_image3_1.JPG",
  "i18n": {
   "ko": {
    "name": "미산계곡",
    "desc": "",
    "address": "강원특별자치도 인제군 상남면 내린천로 1712"
   }
  }
 },
 {
  "section": "sights",
  "name_ko": "미시령계곡",
  "district": "인제군",
  "category": "계곡",
  "lat": 38.219757618,
  "lng": 128.4067243605,
  "phone": "",
  "thumb": "http://tong.visitkorea.or.kr/cms/resource/29/3042029_image3_1.jpg",
  "i18n": {
   "ko": {
    "name": "미시령계곡",
    "desc": "",
    "address": "강원특별자치도 인제군 북면 용대리"
   }
  }
 },
 {
  "section": "sights",
  "name_ko": "미시령옛길 울산바위 은하수",
  "district": "고성군",
  "category": "자연생태관광지",
  "lat": 38.213312536,
  "lng": 128.478531919,
  "phone": "",
  "thumb": "http://tong.visitkorea.or.kr/cms/resource/53/2792353_image2_1.jpg",
  "i18n": {
   "ko": {
    "name": "미시령옛길 울산바위 은하수",
    "desc": "",
    "address": "강원특별자치도 고성군 토성면 원암리"
   }
  }
 },
 {
  "section": "sights",
  "name_ko": "미천골계곡",
  "district": "양양군",
  "category": "계곡",
  "lat": 37.9663475514,
  "lng": 128.5168416407,
  "phone": "",
  "thumb": "http://tong.visitkorea.or.kr/cms/resource/17/3493217_image3_1.jpg",
  "i18n": {
   "ko": {
    "name": "미천골계곡",
    "desc": "",
    "address": "강원특별자치도 양양군 서면 구룡령로"
   }
  }
 },
 {
  "section": "sights",
  "name_ko": "민충사",
  "district": "영월군",
  "category": "유적지",
  "lat": 37.1855093039,
  "lng": 128.4784575488,
  "phone": "",
  "thumb": "http://tong.visitkorea.or.kr/cms/resource/05/3506505_image3_1.jpg",
  "i18n": {
   "ko": {
    "name": "민충사",
    "desc": "",
    "address": "강원특별자치도 영월군 영월읍 금강공원길 136"
   }
  }
 },
 {
  "section": "sights",
  "name_ko": "바람마을 치즈체험장",
  "district": "평창군",
  "category": "농어촌체험",
  "lat": 37.6880197102,
  "lng": 128.7132824331,
  "phone": "",
  "thumb": "http://tong.visitkorea.or.kr/cms/resource/56/2988356_image3_1.jpg",
  "i18n": {
   "ko": {
    "name": "바람마을 치즈체험장",
    "desc": "",
    "address": "강원특별자치도 평창군 대관령면 꽃밭양지길 174"
   }
  }
 },
 {
  "section": "sights",
  "name_ko": "바우파머스몰(대관령마켓)",
  "district": "평창군",
  "category": "이색체험",
  "lat": 37.6726296948,
  "lng": 128.7066362804,
  "phone": "",
  "thumb": "http://tong.visitkorea.or.kr/cms/resource/71/2820771_image2_1.JPG",
  "i18n": {
   "ko": {
    "name": "바우파머스몰(대관령마켓)",
    "desc": "",
    "address": "강원특별자치도 평창군 대관령로 94 대관령 원예농협"
   }
  }
 },
 {
  "section": "sights",
  "name_ko": "바회마을",
  "district": "홍천군",
  "category": "농어촌체험",
  "lat": 37.8856989397,
  "lng": 128.0994513952,
  "phone": "",
  "thumb": "http://tong.visitkorea.or.kr/cms/resource/81/3384181_image3_1.JPG",
  "i18n": {
   "ko": {
    "name": "바회마을",
    "desc": "",
    "address": "강원특별자치도 홍천군 두촌면 광석로 922-8"
   }
  }
 },
 {
  "section": "sights",
  "name_ko": "반암항",
  "district": "고성군",
  "category": "항구·포구",
  "lat": 38.4246320152,
  "lng": 128.4618518294,
  "phone": "",
  "thumb": "http://tong.visitkorea.or.kr/cms/resource/26/3383926_image3_1.JPG",
  "i18n": {
   "ko": {
    "name": "반암항",
    "desc": "",
    "address": "강원특별자치도 고성군 거진읍 자산천로 102-15"
   }
  }
 },
 {
  "section": "sights",
  "name_ko": "반암해변",
  "district": "고성군",
  "category": "해수욕장",
  "lat": 38.4215018437,
  "lng": 128.4628018416,
  "phone": "",
  "thumb": "http://tong.visitkorea.or.kr/cms/resource/92/3070092_image3_1.jpg",
  "i18n": {
   "ko": {
    "name": "반암해변",
    "desc": "",
    "address": "강원특별자치도 고성군 거진읍"
   }
  }
 },
 {
  "section": "sights",
  "name_ko": "반정",
  "district": "평창군",
  "category": "이색체험",
  "lat": 37.4927790362,
  "lng": 128.4575252782,
  "phone": "",
  "thumb": "http://tong.visitkorea.or.kr/cms/resource/42/2995942_image3_1.jpg",
  "i18n": {
   "ko": {
    "name": "반정",
    "desc": "",
    "address": "강원특별자치도 평창군 대화면 대화중앙로 40"
   }
  }
 },
 {
  "section": "sights",
  "name_ko": "밤두둑마을",
  "district": "횡성군",
  "category": "농어촌체험",
  "lat": 37.4666727028,
  "lng": 127.9614596944,
  "phone": "",
  "thumb": "http://tong.visitkorea.or.kr/cms/resource/55/2495455_image3_1.jpg",
  "i18n": {
   "ko": {
    "name": "밤두둑마을",
    "desc": "",
    "address": "강원특별자치도 횡성군 횡성읍 반곡3길 6"
   }
  }
 },
 {
  "section": "sights",
  "name_ko": "밧도내마을",
  "district": "영월군",
  "category": "농어촌체험",
  "lat": 37.2910897989,
  "lng": 128.2364678377,
  "phone": "",
  "thumb": "http://tong.visitkorea.or.kr/cms/resource/05/3379305_image3_1.JPG",
  "i18n": {
   "ko": {
    "name": "밧도내마을",
    "desc": "",
    "address": "강원특별자치도 영월군 주천면 밧도내길 11-34"
   }
  }
 },
 {
  "section": "sights",
  "name_ko": "방아다리약수터",
  "district": "평창군",
  "category": "약수터",
  "lat": 37.6931706345,
  "lng": 128.5036234087,
  "phone": "",
  "thumb": "http://tong.visitkorea.or.kr/cms/resource/60/3033960_image3_1.jpg",
  "i18n": {
   "ko": {
    "name": "방아다리약수터",
    "desc": "",
    "address": "강원특별자치도 평창군 진부면 방아다리로 1011-26"
   }
  }
 },
 {
  "section": "sights",
  "name_ko": "방태산",
  "district": "인제군",
  "category": "산",
  "lat": 37.9438728399,
  "lng": 128.3962310388,
  "phone": "",
  "thumb": "http://tong.visitkorea.or.kr/cms/resource/79/3357579_image3_1.jpg",
  "i18n": {
   "ko": {
    "name": "방태산",
    "desc": "",
    "address": "강원특별자치도 인제군 기린면 방태산길"
   }
  }
 },
 {
  "section": "sights",
  "name_ko": "배두둑호박넝쿨마을",
  "district": "평창군",
  "category": "농어촌체험",
  "lat": 37.4736107626,
  "lng": 128.4026891251,
  "phone": "",
  "thumb": "http://tong.visitkorea.or.kr/cms/resource/27/3388827_image3_1.JPG",
  "i18n": {
   "ko": {
    "name": "배두둑호박넝쿨마을",
    "desc": "",
    "address": "강원특별자치도 평창군 대화면 선애길 90"
   }
  }
 },
 {
  "section": "sights",
  "name_ko": "배후령고개",
  "district": "춘천시",
  "category": "산",
  "lat": 37.9775351697,
  "lng": 127.7880797332,
  "phone": "",
  "thumb": "http://tong.visitkorea.or.kr/cms/resource/39/2914339_image3_1.JPG",
  "i18n": {
   "ko": {
    "name": "배후령고개",
    "desc": "",
    "address": "강원특별자치도 춘천시 신북읍 유포리"
   }
  }
 },
 {
  "section": "sights",
  "name_ko": "백골병단전적비",
  "district": "인제군",
  "category": "기념탑·기념비",
  "lat": 38.2212483908,
  "lng": 128.3694193758,
  "phone": "",
  "thumb": "http://tong.visitkorea.or.kr/cms/resource/48/3376248_image3_1.JPG",
  "i18n": {
   "ko": {
    "name": "백골병단전적비",
    "desc": "",
    "address": "강원특별자치도 인제군 북면 용대리 182-16"
   }
  }
 },
 {
  "section": "sights",
  "name_ko": "백담계곡",
  "district": "인제군",
  "category": "계곡",
  "lat": 38.1919404619,
  "lng": 128.3573602695,
  "phone": "",
  "thumb": "http://tong.visitkorea.or.kr/cms/resource/16/3569616_image3_1.jpg",
  "i18n": {
   "ko": {
    "name": "백담계곡",
    "desc": "",
    "address": "강원특별자치도 인제군 북면 백담로 150"
   }
  }
 },
 {
  "section": "sights",
  "name_ko": "백도해변",
  "district": "고성군",
  "category": "해수욕장",
  "lat": 38.2983733969,
  "lng": 128.5468480485,
  "phone": "",
  "thumb": "http://tong.visitkorea.or.kr/cms/resource/38/3009538_image3_1.jpg",
  "i18n": {
   "ko": {
    "name": "백도해변",
    "desc": "",
    "address": "강원특별자치도 고성군 죽왕면 백도해변길 78"
   }
  }
 },
 {
  "section": "sights",
  "name_ko": "백두대간협곡열차(V-트레인)",
  "district": "태백시",
  "category": "이색체험",
  "lat": 37.1131088552,
  "lng": 129.0367097758,
  "phone": "",
  "thumb": "http://tong.visitkorea.or.kr/cms/resource/93/3562993_image3_1.jpg",
  "i18n": {
   "ko": {
    "name": "백두대간협곡열차(V-트레인)",
    "desc": "",
    "address": "강원특별자치도 태백시 동태백로 389 (철암동)"
   }
  }
 },
 {
  "section": "sights",
  "name_ko": "백룡동굴 (강원고생대 국가지질공원)",
  "district": "평창군",
  "category": "동굴",
  "lat": 37.2779144274,
  "lng": 128.5770904015,
  "phone": "",
  "thumb": "http://tong.visitkorea.or.kr/cms/resource/59/2733659_image3_1.jpg",
  "i18n": {
   "ko": {
    "name": "백룡동굴 (강원고생대 국가지질공원)",
    "desc": "",
    "address": "강원특별자치도 평창군 미탄면 문희길 63"
   }
  }
 },
 {
  "section": "sights",
  "name_ko": "백석산지구 전투전적비",
  "district": "양구군",
  "category": "기념탑·기념비",
  "lat": 38.2441485349,
  "lng": 127.9356332233,
  "phone": "",
  "thumb": "http://tong.visitkorea.or.kr/cms/resource/18/3533818_image3_1.jpg",
  "i18n": {
   "ko": {
    "name": "백석산지구 전투전적비",
    "desc": "",
    "address": "강원특별자치도 양구군 방산면 송현리 233"
   }
  }
 },
 {
  "section": "sights",
  "name_ko": "백섬해상전망대",
  "district": "고성군",
  "category": "유명건물",
  "lat": 38.4497569582,
  "lng": 128.4669255768,
  "phone": "",
  "thumb": "",
  "i18n": {
   "ko": {
    "name": "백섬해상전망대",
    "desc": "",
    "address": "강원특별자치도 고성군 거진읍 거진리"
   }
  }
 },
 {
  "section": "sights",
  "name_ko": "범바위",
  "district": "속초시",
  "category": "관광자원",
  "lat": 38.2142727422,
  "lng": 128.5808225913,
  "phone": "",
  "thumb": "http://tong.visitkorea.or.kr/cms/resource/23/3100123_image3_1.jpg",
  "i18n": {
   "ko": {
    "name": "범바위",
    "desc": "",
    "address": "강원특별자치도 속초시 영랑호반길 140"
   }
  }
 },
 {
  "section": "sights",
  "name_ko": "법수치계곡",
  "district": "양양군",
  "category": "계곡",
  "lat": 37.9103476674,
  "lng": 128.6177897826,
  "phone": "",
  "thumb": "http://tong.visitkorea.or.kr/cms/resource/08/3374908_image3_1.JPG",
  "i18n": {
   "ko": {
    "name": "법수치계곡",
    "desc": "",
    "address": "강원특별자치도 양양군 현북면 법수치리"
   }
  }
 },
 {
  "section": "sights",
  "name_ko": "법흥계곡",
  "district": "영월군",
  "category": "계곡",
  "lat": 37.3159345825,
  "lng": 128.2591872834,
  "phone": "",
  "thumb": "http://tong.visitkorea.or.kr/cms/resource/77/3039977_image3_1.jpg",
  "i18n": {
   "ko": {
    "name": "법흥계곡",
    "desc": "",
    "address": "강원특별자치도 영월군 수주면"
   }
  }
 },
 {
  "section": "sights",
  "name_ko": "별빛 반려견놀이터",
  "district": "영월군",
  "category": "공원",
  "lat": 37.1861106486,
  "lng": 128.4063306679,
  "phone": "",
  "thumb": "",
  "i18n": {
   "ko": {
    "name": "별빛 반려견놀이터",
    "desc": "",
    "address": "강원특별자치도 영월군 연당리 1023"
   }
  }
 },
 {
  "section": "sights",
  "name_ko": "별빛반려견 놀이터",
  "district": "영월군",
  "category": "공원",
  "lat": 37.1861106486,
  "lng": 128.4063306679,
  "phone": "",
  "thumb": "http://tong.visitkorea.or.kr/cms/resource/13/2922313_image3_1.jpg",
  "i18n": {
   "ko": {
    "name": "별빛반려견 놀이터",
    "desc": "",
    "address": "강원특별자치도 영월군 남면 연당로 61"
   }
  }
 },
 {
  "section": "sights",
  "name_ko": "병방치 스카이워크",
  "district": "정선군",
  "category": "유명건물",
  "lat": 37.3623780337,
  "lng": 128.6354715236,
  "phone": "",
  "thumb": "http://tong.visitkorea.or.kr/cms/resource/97/1690997_image3_1.jpg",
  "i18n": {
   "ko": {
    "name": "병방치 스카이워크",
    "desc": "",
    "address": "강원특별자치도 정선군 정선읍 병방치길 225"
   }
  }
 },
 {
  "section": "sights",
  "name_ko": "보광사(속초)",
  "district": "속초시",
  "category": "사찰",
  "lat": 38.2133645974,
  "lng": 128.5850361257,
  "phone": "",
  "thumb": "http://tong.visitkorea.or.kr/cms/resource/07/3071307_image3_1.jpg",
  "i18n": {
   "ko": {
    "name": "보광사(속초)",
    "desc": "",
    "address": "강원특별자치도 속초시 영랑호반길 69-2"
   }
  }
 },
 {
  "section": "sights",
  "name_ko": "보덕사(영월)",
  "district": "영월군",
  "category": "사찰",
  "lat": 37.1978269087,
  "lng": 128.4561786272,
  "phone": "",
  "thumb": "http://tong.visitkorea.or.kr/cms/resource/91/3379291_image3_1.JPG",
  "i18n": {
   "ko": {
    "name": "보덕사(영월)",
    "desc": "",
    "address": "강원특별자치도 영월군 영월읍 보덕사길 34"
   }
  }
 },
 {
  "section": "sights",
  "name_ko": "보문사(원주)",
  "district": "원주시",
  "category": "사찰",
  "lat": 37.3333643288,
  "lng": 128.0268160352,
  "phone": "",
  "thumb": "http://tong.visitkorea.or.kr/cms/resource/12/3388612_image3_1.JPG",
  "i18n": {
   "ko": {
    "name": "보문사(원주)",
    "desc": "",
    "address": "강원특별자치도 원주시 고문골길 270"
   }
  }
 },
 {
  "section": "sights",
  "name_ko": "보현사(강릉)",
  "district": "강릉시",
  "category": "사찰",
  "lat": 37.736626283,
  "lng": 128.7693064482,
  "phone": "",
  "thumb": "http://tong.visitkorea.or.kr/cms/resource/87/3378387_image3_1.JPG",
  "i18n": {
   "ko": {
    "name": "보현사(강릉)",
    "desc": "",
    "address": "강원특별자치도 강릉시 성산면 보현길 396"
   }
  }
 },
 {
  "section": "sights",
  "name_ko": "복주머니마을",
  "district": "홍천군",
  "category": "농어촌체험",
  "lat": 37.6946762273,
  "lng": 127.6298747217,
  "phone": "",
  "thumb": "http://tong.visitkorea.or.kr/cms/resource/82/3384582_image3_1.JPG",
  "i18n": {
   "ko": {
    "name": "복주머니마을",
    "desc": "",
    "address": "강원특별자치도 홍천군 서면 개야마을길 73"
   }
  }
 },
 {
  "section": "sights",
  "name_ko": "본적사지3층석탑",
  "district": "태백시",
  "category": "기념탑·기념비",
  "lat": 37.1744951022,
  "lng": 128.977129912,
  "phone": "",
  "thumb": "http://tong.visitkorea.or.kr/cms/resource/85/3375685_image3_1.JPG",
  "i18n": {
   "ko": {
    "name": "본적사지3층석탑",
    "desc": "",
    "address": "강원특별자치도 태백시 절골1길 90"
   }
  }
 },
 {
  "section": "sights",
  "name_ko": "봄내길 7코스(북한강 물새길)",
  "district": "춘천시",
  "category": "자연생태관광지",
  "lat": 37.8158566418,
  "lng": 127.6326681288,
  "phone": "",
  "thumb": "http://tong.visitkorea.or.kr/cms/resource/08/3428608_image3_1.jpg",
  "i18n": {
   "ko": {
    "name": "봄내길 7코스(북한강 물새길)",
    "desc": "",
    "address": "강원특별자치도 춘천시 남산면 강촌로 34"
   }
  }
 },
 {
  "section": "sights",
  "name_ko": "봉래산(영월)",
  "district": "영월군",
  "category": "산",
  "lat": 37.1984496284,
  "lng": 128.486223136,
  "phone": "",
  "thumb": "http://tong.visitkorea.or.kr/cms/resource/35/3557235_image3_1.JPG",
  "i18n": {
   "ko": {
    "name": "봉래산(영월)",
    "desc": "",
    "address": "강원특별자치도 영월군 영월읍 영흥리"
   }
  }
 },
 {
  "section": "sights",
  "name_ko": "봉래산산림욕장",
  "district": "영월군",
  "category": "자연휴양림",
  "lat": 37.2011493909,
  "lng": 128.4901254836,
  "phone": "",
  "thumb": "http://tong.visitkorea.or.kr/cms/resource/98/3379298_image3_1.JPG",
  "i18n": {
   "ko": {
    "name": "봉래산산림욕장",
    "desc": "",
    "address": "강원특별자치도 영월군 영월읍 영흥리"
   }
  }
 },
 {
  "section": "sights",
  "name_ko": "봉산동 당간지주",
  "district": "원주시",
  "category": "사찰",
  "lat": 37.3455560878,
  "lng": 127.9582107556,
  "phone": "",
  "thumb": "http://tong.visitkorea.or.kr/cms/resource/06/3546906_image3_1.jpg",
  "i18n": {
   "ko": {
    "name": "봉산동 당간지주",
    "desc": "",
    "address": "강원특별자치도 원주시 개봉교길 41"
   }
  }
 },
 {
  "section": "sights",
  "name_ko": "봉산서재",
  "district": "평창군",
  "category": "유적지",
  "lat": 37.5994902544,
  "lng": 128.3815539229,
  "phone": "",
  "thumb": "http://tong.visitkorea.or.kr/cms/resource/08/3397108_image3_1.JPG",
  "i18n": {
   "ko": {
    "name": "봉산서재",
    "desc": "",
    "address": "강원특별자치도 평창군 봉평면 봉산서재길 17"
   }
  }
 },
 {
  "section": "sights",
  "name_ko": "봉정연꽃마을",
  "district": "동해시",
  "category": "농어촌체험",
  "lat": 37.4731441701,
  "lng": 129.1244743033,
  "phone": "",
  "thumb": "http://tong.visitkorea.or.kr/cms/resource/74/2741974_image3_1.jpg",
  "i18n": {
   "ko": {
    "name": "봉정연꽃마을",
    "desc": "",
    "address": "강원특별자치도 동해시 봉정1길 19-7"
   }
  }
 },
 {
  "section": "sights",
  "name_ko": "봉포항",
  "district": "고성군",
  "category": "항구·포구",
  "lat": 38.2520430976,
  "lng": 128.5681392298,
  "phone": "",
  "thumb": "http://tong.visitkorea.or.kr/cms/resource/85/3378485_image3_1.JPG",
  "i18n": {
   "ko": {
    "name": "봉포항",
    "desc": "",
    "address": "강원특별자치도 고성군 토성면 토성로 44-10"
   }
  }
 },
 {
  "section": "sights",
  "name_ko": "봉황둘레길",
  "district": "평창군",
  "category": "자연생태관광지",
  "lat": 37.4888293888,
  "lng": 128.4520897755,
  "phone": "",
  "thumb": "http://tong.visitkorea.or.kr/cms/resource/84/3557284_image3_1.jpg",
  "i18n": {
   "ko": {
    "name": "봉황둘레길",
    "desc": "",
    "address": "강원특별자치도 평창군 대화면 문화택지길 21"
   }
  }
 },
 {
  "section": "sights",
  "name_ko": "부남해변",
  "district": "삼척시",
  "category": "해수욕장",
  "lat": 37.361148432,
  "lng": 129.2514275017,
  "phone": "",
  "thumb": "",
  "i18n": {
   "ko": {
    "name": "부남해변",
    "desc": "",
    "address": "강원특별자치도 삼척시 근덕면 부남해변길"
   }
  }
 },
 {
  "section": "sights",
  "name_ko": "부연동마을",
  "district": "강릉시",
  "category": "농어촌체험",
  "lat": 37.8677834315,
  "lng": 128.6318759309,
  "phone": "",
  "thumb": "http://tong.visitkorea.or.kr/cms/resource/60/3029760_image3_1.jpg",
  "i18n": {
   "ko": {
    "name": "부연동마을",
    "desc": "",
    "address": "강원특별자치도 강릉시 연곡면 삼산리 1298"
   }
  }
 },
 {
  "section": "sights",
  "name_ko": "부연약수",
  "district": "강릉시",
  "category": "약수터",
  "lat": 37.8780657396,
  "lng": 128.6404970577,
  "phone": "",
  "thumb": "",
  "i18n": {
   "ko": {
    "name": "부연약수",
    "desc": "",
    "address": "강원특별자치도 강릉시 연곡면 부연동길 964"
   }
  }
 },
 {
  "section": "sights",
  "name_ko": "북분리해수욕장",
  "district": "양양군",
  "category": "해수욕장",
  "lat": 37.9854221046,
  "lng": 128.7512587183,
  "phone": "",
  "thumb": "http://tong.visitkorea.or.kr/cms/resource/15/3076915_image3_1.jpg",
  "i18n": {
   "ko": {
    "name": "북분리해수욕장",
    "desc": "",
    "address": "강원특별자치도 양양군 현남면 동해대로 972"
   }
  }
 },
 {
  "section": "sights",
  "name_ko": "불바라기약수터",
  "district": "양양군",
  "category": "약수터",
  "lat": 37.92275596,
  "lng": 128.5464264142,
  "phone": "",
  "thumb": "http://tong.visitkorea.or.kr/cms/resource/92/3544492_image3_1.jpg",
  "i18n": {
   "ko": {
    "name": "불바라기약수터",
    "desc": "",
    "address": "강원특별자치도 양양군 서면 미천리"
   }
  }
 },
 {
  "section": "sights",
  "name_ko": "붕어섬&황톳길",
  "district": "화천군",
  "category": "섬",
  "lat": 38.1007385507,
  "lng": 127.697012129,
  "phone": "",
  "thumb": "http://tong.visitkorea.or.kr/cms/resource/41/3484941_image3_1.JPG",
  "i18n": {
   "ko": {
    "name": "붕어섬&황톳길",
    "desc": "",
    "address": "강원특별자치도 화천군 화천읍 강변로 2-54"
   }
  }
 },
 {
  "section": "sights",
  "name_ko": "비두리 귀부 및 이수",
  "district": "원주시",
  "category": "유적지",
  "lat": 37.2554364367,
  "lng": 127.835193915,
  "phone": "",
  "thumb": "http://tong.visitkorea.or.kr/cms/resource/78/3577578_image3_1.jpg",
  "i18n": {
   "ko": {
    "name": "비두리 귀부 및 이수",
    "desc": "",
    "address": "강원특별자치도 원주시 문막읍 귀문로 1008"
   }
  }
 },
 {
  "section": "sights",
  "name_ko": "비래암(강원평화지역국가지질공원)",
  "district": "화천군",
  "category": "관광자원",
  "lat": 38.1465143583,
  "lng": 127.5801103308,
  "phone": "",
  "thumb": "http://tong.visitkorea.or.kr/cms/resource/08/2616508_image3_1.bmp",
  "i18n": {
   "ko": {
    "name": "비래암(강원평화지역국가지질공원)",
    "desc": "",
    "address": "강원특별자치도 화천군 상서면 구운리"
   }
  }
 },
 {
  "section": "sights",
  "name_ko": "비룡폭포",
  "district": "속초시",
  "category": "폭포",
  "lat": 38.16115518,
  "lng": 128.502325822,
  "phone": "",
  "thumb": "http://tong.visitkorea.or.kr/cms/resource/10/2733310_image3_1.jpg",
  "i18n": {
   "ko": {
    "name": "비룡폭포",
    "desc": "",
    "address": "강원특별자치도 속초시 설악동"
   }
  }
 },
 {
  "section": "sights",
  "name_ko": "비봉산(양구)",
  "district": "양구군",
  "category": "산",
  "lat": 38.1144566351,
  "lng": 128.0046225421,
  "phone": "",
  "thumb": "http://tong.visitkorea.or.kr/cms/resource/22/3514822_image3_1.jpg",
  "i18n": {
   "ko": {
    "name": "비봉산(양구)",
    "desc": "",
    "address": "강원특별자치도 양구군 양구읍 하리"
   }
  }
 },
 {
  "section": "sights",
  "name_ko": "비와야폭포",
  "district": "태백시",
  "category": "폭포",
  "lat": 37.106664843,
  "lng": 129.0208308308,
  "phone": "",
  "thumb": "http://tong.visitkorea.or.kr/cms/resource/89/3525089_image3_1.jpg",
  "i18n": {
   "ko": {
    "name": "비와야폭포",
    "desc": "",
    "address": "강원특별자치도 태백시 양지길 25 (장성동)"
   }
  }
 },
 {
  "section": "sights",
  "name_ko": "비치조각공원",
  "district": "삼척시",
  "category": "공원",
  "lat": 37.4567250399,
  "lng": 129.1858804219,
  "phone": "",
  "thumb": "http://tong.visitkorea.or.kr/cms/resource/76/3336076_image3_1.jpg",
  "i18n": {
   "ko": {
    "name": "비치조각공원",
    "desc": "",
    "address": "강원특별자치도 삼척시 새천년도로 326"
   }
  }
 },
 {
  "section": "sights",
  "name_ko": "사근진해중공원 전망대",
  "district": "강릉시",
  "category": "유명건물",
  "lat": 37.8127616594,
  "lng": 128.8988285332,
  "phone": "",
  "thumb": "http://tong.visitkorea.or.kr/cms/resource/39/2921939_image3_1.jpg",
  "i18n": {
   "ko": {
    "name": "사근진해중공원 전망대",
    "desc": "",
    "address": "강원특별자치도 강릉시 해안로604번길 16"
   }
  }
 },
 {
  "section": "sights",
  "name_ko": "사내골소나무",
  "district": "태백시",
  "category": "관광자원",
  "lat": 37.1447414679,
  "lng": 128.89950163,
  "phone": "",
  "thumb": "http://tong.visitkorea.or.kr/cms/resource/99/3525799_image3_1.jpg",
  "i18n": {
   "ko": {
    "name": "사내골소나무",
    "desc": "",
    "address": "강원특별자치도 태백시 함백산로 274"
   }
  }
 },