[
 {
  "section": "food",
  "name_ko": "가마솥손두부",
  "district": "미추홀구",
  "category": "한식·백반",
  "lat": 37.437480655,
  "lng": 126.683390429,
  "phone": "",
  "thumb": "",
  "i18n": {
   "ko": {
    "name": "가마솥손두부",
    "desc": "",
    "address": "인천광역시 미추홀구 소성로326번길 4 (문학동)"
   }
  }
 },
 {
  "section": "food",
  "name_ko": "가연식당",
  "district": "제물포구",
  "category": "한식·백반",
  "lat": 37.4821938008,
  "lng": 126.620939328,
  "phone": "",
  "thumb": "http://tong.visitkorea.or.kr/cms/resource/67/2835367_image3_1.jpg",
  "i18n": {
   "ko": {
    "name": "가연식당",
    "desc": "",
    "address": "인천광역시 제물포구 어촌로 7 (만석동)"
   }
  }
 },
 {
  "section": "food",
  "name_ko": "가온칼국수 송도본점",
  "district": "연수구",
  "category": "면·국물",
  "lat": 37.3825144152,
  "lng": 126.660677356,
  "phone": "",
  "thumb": "http://tong.visitkorea.or.kr/cms/resource/06/2900006_image3_1.jpg",
  "i18n": {
   "ko": {
    "name": "가온칼국수 송도본점",
    "desc": "",
    "address": "인천광역시 연수구 송도과학로28번길 8 (송도동)"
   }
  }
 },
 {
  "section": "food",
  "name_ko": "가현산 잔치국수",
  "district": "검단구",
  "category": "면·국물",
  "lat": 37.6305882921,
  "lng": 126.6573818608,
  "phone": "",
  "thumb": "http://tong.visitkorea.or.kr/cms/resource/80/2844580_image3_1.jpg",
  "i18n": {
   "ko": {
    "name": "가현산 잔치국수",
    "desc": "",
    "address": "인천광역시 검단구 대곡로368번길 25 (대곡동)"
   }
  }
 },
 {
  "section": "food",
  "name_ko": "가회동샤브칼국수 송도컨벤시아점",
  "district": "연수구",
  "category": "면·국물",
  "lat": 37.3900244069,
  "lng": 126.6466173186,
  "phone": "",
  "thumb": "http://tong.visitkorea.or.kr/cms/resource/74/2853674_image3_1.jpg",
  "i18n": {
   "ko": {
    "name": "가회동샤브칼국수 송도컨벤시아점",
    "desc": "",
    "address": "인천광역시 연수구 센트럴로 123 (송도동)"
   }
  }
 },
 {
  "section": "food",
  "name_ko": "강화국수",
  "district": "강화군",
  "category": "면·국물",
  "lat": 37.7471633481,
  "lng": 126.4863053709,
  "phone": "",
  "thumb": "http://tong.visitkorea.or.kr/cms/resource/18/2878018_image3_1.jpg",
  "i18n": {
   "ko": {
    "name": "강화국수",
    "desc": "",
    "address": "인천광역시 강화군 동문안길 12-1 삼성양복점"
   }
  }
 },
 {
  "section": "food",
  "name_ko": "강화섬약쑥한우",
  "district": "강화군",
  "category": "고기·구이",
  "lat": 37.7264328502,
  "lng": 126.5099871131,
  "phone": "",
  "thumb": "http://tong.visitkorea.or.kr/cms/resource/15/2836715_image3_1.jpg",
  "i18n": {
   "ko": {
    "name": "강화섬약쑥한우",
    "desc": "",
    "address": "인천광역시 강화군 선원면 선원사지로 32"
   }
  }
 },
 {
  "section": "food",
  "name_ko": "강화손칼국수 본점",
  "district": "강화군",
  "category": "면·국물",
  "lat": 37.6608250808,
  "lng": 126.4230191316,
  "phone": "",
  "thumb": "http://tong.visitkorea.or.kr/cms/resource/46/2836746_image3_1.jpg",
  "i18n": {
   "ko": {
    "name": "강화손칼국수 본점",
    "desc": "",
    "address": "인천광역시 강화군 양도면 강화남로 678"
   }
  }
 },
 {
  "section": "food",
  "name_ko": "강화어부네꽃게탕",
  "district": "강화군",
  "category": "한식·백반",
  "lat": 37.7016028506,
  "lng": 126.3768888941,
  "phone": "",
  "thumb": "",
  "i18n": {
   "ko": {
    "name": "강화어부네꽃게탕",
    "desc": "",
    "address": "인천광역시 강화군 내가면 해안서로 920"
   }
  }
 },
 {
  "section": "food",
  "name_ko": "강화원조칼국수",
  "district": "강화군",
  "category": "면·국물",
  "lat": 37.5962916217,
  "lng": 126.4622367757,
  "phone": "",
  "thumb": "http://tong.visitkorea.or.kr/cms/resource/82/2877982_image3_1.jpg",
  "i18n": {
   "ko": {
    "name": "강화원조칼국수",
    "desc": "",
    "address": "인천광역시 강화군 화도면 해안남로 1367"
   }
  }
 },
 {
  "section": "food",
  "name_ko": "개떼놀이터 인천점",
  "district": "계양구",
  "category": "카페·베이커리",
  "lat": 37.5703323291,
  "lng": 126.7089010642,
  "phone": "",
  "thumb": "http://tong.visitkorea.or.kr/cms/resource/76/2848776_image3_1.jpg",
  "i18n": {
   "ko": {
    "name": "개떼놀이터 인천점",
    "desc": "",
    "address": "인천광역시 계양구 다남로 278 (목상동)"
   }
  }
 },
 {
  "section": "food",
  "name_ko": "개성손만두",
  "district": "미추홀구",
  "category": "한식·백반",
  "lat": 37.4400717908,
  "lng": 126.6703804319,
  "phone": "",
  "thumb": "http://tong.visitkorea.or.kr/cms/resource/58/2788158_image3_1.jpg",
  "i18n": {
   "ko": {
    "name": "개성손만두",
    "desc": "",
    "address": "인천광역시 미추홀구 매소홀로 435 (학익동)"
   }
  }
 },
 {
  "section": "food",
  "name_ko": "갯마을셀프회",
  "district": "제물포구",
  "category": "한식·백반",
  "lat": 37.4799054031,
  "lng": 126.6336687857,
  "phone": "",
  "thumb": "http://tong.visitkorea.or.kr/cms/resource/82/2835382_image3_1.jpg",
  "i18n": {
   "ko": {
    "name": "갯마을셀프회",
    "desc": "",
    "address": "인천광역시 제물포구 송화로42번길 18 (송현동)"
   }
  }
 },
 {
  "section": "food",
  "name_ko": "갯배생선구이 강화도점",
  "district": "강화군",
  "category": "해산물·회",
  "lat": 37.7026947789,
  "lng": 126.3991229361,
  "phone": "",
  "thumb": "http://tong.visitkorea.or.kr/cms/resource/77/2872677_image3_1.jpg",
  "i18n": {
   "ko": {
    "name": "갯배생선구이 강화도점",
    "desc": "",
    "address": "인천광역시 강화군 양도면 중앙로 1124"
   }
  }
 },
 {
  "section": "food",
  "name_ko": "거해짬뽕순두부",
  "district": "영종구",
  "category": "한식·백반",
  "lat": 37.3918286834,
  "lng": 126.4271567287,
  "phone": "",
  "thumb": "",
  "i18n": {
   "ko": {
    "name": "거해짬뽕순두부",
    "desc": "",
    "address": "인천광역시 영종구 대무의로 281"
   }
  }
 },
 {
  "section": "food",
  "name_ko": "검단태백산 본점",
  "district": "검단구",
  "category": "한식·백반",
  "lat": 37.6011584172,
  "lng": 126.6592519591,
  "phone": "",
  "thumb": "http://tong.visitkorea.or.kr/cms/resource/14/2843914_image3_1.jpg",
  "i18n": {
   "ko": {
    "name": "검단태백산 본점",
    "desc": "",
    "address": "인천광역시 검단구 완정로 151 (왕길동)"
   }
  }
 },
 {
  "section": "food",
  "name_ko": "경방식당",
  "district": "서해구",
  "category": "일식",
  "lat": 37.5255278355,
  "lng": 126.6313649497,
  "phone": "",
  "thumb": "http://tong.visitkorea.or.kr/cms/resource/52/2841852_image3_1.jpg",
  "i18n": {
   "ko": {
    "name": "경방식당",
    "desc": "",
    "address": "인천광역시 서해구 옥빛로7번안길 3 (청라동)"
   }
  }
 },
 {
  "section": "food",
  "name_ko": "경성한우불고기 송도컨벤시아 본점",
  "district": "연수구",
  "category": "고기·구이",
  "lat": 37.3900244069,
  "lng": 126.6466173186,
  "phone": "",
  "thumb": "http://tong.visitkorea.or.kr/cms/resource/81/2913081_image3_1.JPG",
  "i18n": {
   "ko": {
    "name": "경성한우불고기 송도컨벤시아 본점",
    "desc": "",
    "address": "인천광역시 연수구 센트럴로 123 송도컨벤시아"
   }
  }
 },
 {
  "section": "food",
  "name_ko": "경인면옥",
  "district": "제물포구",
  "category": "한식·백반",
  "lat": 37.4725783807,
  "lng": 126.6282305968,
  "phone": "",
  "thumb": "http://tong.visitkorea.or.kr/cms/resource/14/2845014_image3_1.jpg",
  "i18n": {
   "ko": {
    "name": "경인면옥",
    "desc": "",
    "address": "인천광역시 제물포구 신포로46번길 38 (내동)"
   }
  }
 },
 {
  "section": "food",
  "name_ko": "고니면옥",
  "district": "연수구",
  "category": "한식·백반",
  "lat": 37.3678631536,
  "lng": 126.6501898283,
  "phone": "",
  "thumb": "http://tong.visitkorea.or.kr/cms/resource/38/2853538_image3_1.jpg",
  "i18n": {
   "ko": {
    "name": "고니면옥",
    "desc": "",
    "address": "인천광역시 연수구 송도미래로 47"
   }
  }
 },
 {
  "section": "food",
  "name_ko": "고래해물칼국수",
  "district": "영종구",
  "category": "해산물·회",
  "lat": 37.4920168907,
  "lng": 126.5773319254,
  "phone": "",
  "thumb": "http://tong.visitkorea.or.kr/cms/resource/26/2839526_image3_1.jpg",
  "i18n": {
   "ko": {
    "name": "고래해물칼국수",
    "desc": "",
    "address": "인천광역시 영종구 은하수로 43 (중산동)"
   }
  }
 },
 {
  "section": "food",
  "name_ko": "고려한방삼계탕",
  "district": "미추홀구",
  "category": "한식·백반",
  "lat": 37.4510373781,
  "lng": 126.681423565,
  "phone": "",
  "thumb": "",
  "i18n": {
   "ko": {
    "name": "고려한방삼계탕",
    "desc": "",
    "address": "인천광역시 미추홀구 인주대로 404"
   }
  }
 },
 {
  "section": "food",
  "name_ko": "고루한정식",
  "district": "서해구",
  "category": "한식·백반",
  "lat": 37.5561166833,
  "lng": 126.6731880556,
  "phone": "",
  "thumb": "http://tong.visitkorea.or.kr/cms/resource/77/2843477_image3_1.jpg",
  "i18n": {
   "ko": {
    "name": "고루한정식",
    "desc": "",
    "address": "인천광역시 서해구 승학로 386 (검암동)"
   }
  }
 },
 {
  "section": "food",
  "name_ko": "고메돈까스",
  "district": "계양구",
  "category": "양식·세계요리",
  "lat": 37.5537738354,
  "lng": 126.7478646372,
  "phone": "",
  "thumb": "http://tong.visitkorea.or.kr/cms/resource/14/2790214_image2_1.jpg",
  "i18n": {
   "ko": {
    "name": "고메돈까스",
    "desc": "",
    "address": "인천광역시 계양구 서부간선로 257"
   }
  }
 },
 {
  "section": "food",
  "name_ko": "고목정쌈밥",
  "district": "영종구",
  "category": "한식·백반",
  "lat": 37.4487158489,
  "lng": 126.3889725449,
  "phone": "",
  "thumb": "http://tong.visitkorea.or.kr/cms/resource/96/2790196_image2_1.jpg",
  "i18n": {
   "ko": {
    "name": "고목정쌈밥",
    "desc": "",
    "address": "인천광역시 영종구 용유서로172번길 10"
   }
  }
 },
 {
  "section": "food",
  "name_ko": "고복샤브샤브",
  "district": "서해구",
  "category": "한식·백반",
  "lat": 37.52858876,
  "lng": 126.6409750982,
  "phone": "",
  "thumb": "http://tong.visitkorea.or.kr/cms/resource/39/2873839_image3_1.jpg",
  "i18n": {
   "ko": {
    "name": "고복샤브샤브",
    "desc": "",
    "address": "인천광역시 서해구 청라루비로42번길 6-4 (청라동)"
   }
  }
 },
 {
  "section": "food",
  "name_ko": "고양이역 카페",
  "district": "옹진군",
  "category": "카페·베이커리",
  "lat": 37.2550455856,
  "lng": 126.4857190193,
  "phone": "",
  "thumb": "http://tong.visitkorea.or.kr/cms/resource/00/2834100_image3_1.jpg",
  "i18n": {
   "ko": {
    "name": "고양이역 카페",
    "desc": "",
    "address": "인천광역시 옹진군 영흥면 영흥로251번길 25-75"
   }
  }
 },
 {
  "section": "food",
  "name_ko": "곧은",
  "district": "강화군",
  "category": "카페·베이커리",
  "lat": 37.6351876242,
  "lng": 126.4925745868,
  "phone": "",
  "thumb": "http://tong.visitkorea.or.kr/cms/resource/92/2872692_image3_1.jpg",
  "i18n": {
   "ko": {
    "name": "곧은",
    "desc": "",
    "address": "인천광역시 강화군 길상면 전등사로 80"
   }
  }
 },
 {
  "section": "food",
  "name_ko": "공항마을",
  "district": "영종구",
  "category": "한식·백반",
  "lat": 37.4270328112,
  "lng": 126.4206424694,
  "phone": "",
  "thumb": "",
  "i18n": {
   "ko": {
    "name": "공항마을",
    "desc": "",
    "address": "인천광역시 영종구 마시란로 46"
   }
  }
 },
 {
  "section": "food",
  "name_ko": "공항샤브칼국수",
  "district": "영종구",
  "category": "면·국물",
  "lat": 37.4863807707,
  "lng": 126.5395438649,
  "phone": "",
  "thumb": "http://tong.visitkorea.or.kr/cms/resource/81/2847281_image3_1.jpg",
  "i18n": {
   "ko": {
    "name": "공항샤브칼국수",
    "desc": "",
    "address": "인천광역시 영종구 운중로48번길 94 (운남동)"
   }
  }
 },
 {
  "section": "food",
  "name_ko": "공화춘",
  "district": "제물포구",
  "category": "중식",
  "lat": 37.4754584494,
  "lng": 126.6195896385,
  "phone": "",
  "thumb": "http://tong.visitkorea.or.kr/cms/resource/25/2781425_image3_1.jpg",
  "i18n": {
   "ko": {
    "name": "공화춘",
    "desc": "",
    "address": "인천광역시 제물포구 차이나타운로 43"
   }
  }
 },
 {
  "section": "food",
  "name_ko": "군봉묵은지김치찜",
  "district": "연수구",
  "category": "한식·백반",
  "lat": 37.4285894569,
  "lng": 126.6514435884,
  "phone": "",
  "thumb": "http://tong.visitkorea.or.kr/cms/resource/03/2852103_image3_1.jpg",
  "i18n": {
   "ko": {
    "name": "군봉묵은지김치찜",
    "desc": "",
    "address": "인천광역시 연수구 비류대로150번길 13 (옥련동)"
   }
  }
 },
 {
  "section": "food",
  "name_ko": "권오길손국수 본점",
  "district": "검단구",
  "category": "면·국물",
  "lat": 37.6154822361,
  "lng": 126.6866323887,
  "phone": "",
  "thumb": "http://tong.visitkorea.or.kr/cms/resource/90/2833890_image3_1.jpg",
  "i18n": {
   "ko": {
    "name": "권오길손국수 본점",
    "desc": "",
    "address": "인천광역시 검단구 검단로 789 (불로동)"
   }
  }
 },
 {
  "section": "food",
  "name_ko": "그리다디저트",
  "district": "연수구",
  "category": "카페·베이커리",
  "lat": 37.3859498261,
  "lng": 126.6435288242,
  "phone": "",
  "thumb": "http://tong.visitkorea.or.kr/cms/resource/95/2050695_image3_1.jpg",
  "i18n": {
   "ko": {
    "name": "그리다디저트",
    "desc": "",
    "address": "인천광역시 연수구 인천타워대로132번길 30"
   }
  }
 },
 {
  "section": "food",
  "name_ko": "그린파크식당",
  "district": "옹진군",
  "category": "한식·백반",
  "lat": 37.971190358,
  "lng": 124.7151601187,
  "phone": "",
  "thumb": "http://tong.visitkorea.or.kr/cms/resource/71/3562471_image3_1.jpg",
  "i18n": {
   "ko": {
    "name": "그린파크식당",
    "desc": "",
    "address": "인천광역시 옹진군 백령로297번길 16 그린파크"
   }
  }
 },
 {
  "section": "food",
  "name_ko": "그린홀리데이키친",
  "district": "강화군",
  "category": "양식·세계요리",
  "lat": 37.6095876015,
  "lng": 126.4796570354,
  "phone": "",
  "thumb": "http://tong.visitkorea.or.kr/cms/resource/06/2872706_image3_1.jpg",
  "i18n": {
   "ko": {
    "name": "그린홀리데이키친",
    "desc": "",
    "address": "인천광역시 강화군 길상면 해안남로 816"
   }
  }
 },
 {
  "section": "food",
  "name_ko": "금강산흑염소전문점",
  "district": "계양구",
  "category": "한식·백반",
  "lat": 37.5446770299,
  "lng": 126.7117293005,
  "phone": "",
  "thumb": "http://tong.visitkorea.or.kr/cms/resource/37/2876137_image3_1.jpg",
  "i18n": {
   "ko": {
    "name": "금강산흑염소전문점",
    "desc": "",
    "address": "인천광역시 계양구 경명대로 942 (계산동)"
   }
  }
 },
 {
  "section": "food",
  "name_ko": "기노스코",
  "district": "연수구",
  "category": "카페·베이커리",
  "lat": 37.3952568629,
  "lng": 126.6312991256,
  "phone": "",
  "thumb": "http://tong.visitkorea.or.kr/cms/resource/21/2851821_image3_1.jpg",
  "i18n": {
   "ko": {
    "name": "기노스코",
    "desc": "",
    "address": "인천광역시 연수구 아트센터대로 203 (송도동)"
   }
  }
 },
 {
  "section": "food",
  "name_ko": "꼬막한상",
  "district": "강화군",
  "category": "한식·백반",
  "lat": 37.6081884201,
  "lng": 126.5169508844,
  "phone": "",
  "thumb": "http://tong.visitkorea.or.kr/cms/resource/24/2836824_image3_1.jpg",
  "i18n": {
   "ko": {
    "name": "꼬막한상",
    "desc": "",
    "address": "인천광역시 강화군 길상면 해안남로 334"
   }
  }
 },
 {
  "section": "food",
  "name_ko": "꽃게담다 by 블루베리팜",
  "district": "남동구",
  "category": "한식·백반",
  "lat": 37.4381562249,
  "lng": 126.7200731778,
  "phone": "",
  "thumb": "",
  "i18n": {
   "ko": {
    "name": "꽃게담다 by 블루베리팜",
    "desc": "",
    "address": "인천광역시 남동구 찬우물로 21 (수산동)"
   }
  }
 },
 {
  "section": "food",
  "name_ko": "꽃게와낙지",
  "district": "강화군",
  "category": "해산물·회",
  "lat": 37.6003291209,
  "lng": 126.4097886867,
  "phone": "",
  "thumb": "",
  "i18n": {
   "ko": {
    "name": "꽃게와낙지",
    "desc": "",
    "address": "인천광역시 강화군 화도면 해안남로2029번길 7"
   }
  }
 },
 {
  "section": "food",
  "name_ko": "남도추어탕",
  "district": "영종구",
  "category": "면·국물",
  "lat": 37.4895795919,
  "lng": 126.4935896407,
  "phone": "",
  "thumb": "http://tong.visitkorea.or.kr/cms/resource/64/2873564_image3_1.jpg",
  "i18n": {
   "ko": {
    "name": "남도추어탕",
    "desc": "",
    "address": "인천광역시 영종구 흰바위로92번길 6-16 (운서동)"
   }
  }
 },
 {
  "section": "food",
  "name_ko": "남동공단떡볶이",
  "district": "남동구",
  "category": "분식·주점",
  "lat": 37.4096840655,
  "lng": 126.6936930399,
  "phone": "",
  "thumb": "http://tong.visitkorea.or.kr/cms/resource/31/2837031_image3_1.jpg",
  "i18n": {
   "ko": {
    "name": "남동공단떡볶이",
    "desc": "",
    "address": "인천광역시 남동구 남동서로 226 (논현동)"
   }
  }
 },
 {
  "section": "food",
  "name_ko": "남산돈까스",
  "district": "서해구",
  "category": "일식",
  "lat": 37.5295303321,
  "lng": 126.641833327,
  "phone": "",
  "thumb": "http://tong.visitkorea.or.kr/cms/resource/03/2878103_image3_1.jpg",
  "i18n": {
   "ko": {
    "name": "남산돈까스",
    "desc": "",
    "address": "인천광역시 서해구 청라루비로42번길 5-15 (청라동)"
   }
  }
 },
 {
  "section": "food",
  "name_ko": "내땅",
  "district": "서해구",
  "category": "한식·백반",
  "lat": 37.528330471,
  "lng": 126.6417916971,
  "phone": "",
  "thumb": "http://tong.visitkorea.or.kr/cms/resource/92/2843492_image3_1.jpg",
  "i18n": {
   "ko": {
    "name": "내땅",
    "desc": "",
    "address": "인천광역시 서해구 청라루비로42번길 6-14 (청라동)"
   }
  }
 },
 {
  "section": "food",
  "name_ko": "누닝 펫푸드카페",
  "district": "서해구",
  "category": "카페·베이커리",
  "lat": 37.5325855879,
  "lng": 126.6449773992,
  "phone": "",
  "thumb": "http://tong.visitkorea.or.kr/cms/resource/58/2603758_image2_1.jpg",
  "i18n": {
   "ko": {
    "name": "누닝 펫푸드카페",
    "desc": "",
    "address": "인천광역시 서해구 청라커낼로 270 (청라동)"
   }
  }
 },
 {
  "section": "food",
  "name_ko": "뉴욕베이글 송도",
  "district": "연수구",
  "category": "양식·세계요리",
  "lat": 37.393193487,
  "lng": 126.6468311005,
  "phone": "",
  "thumb": "http://tong.visitkorea.or.kr/cms/resource/26/2853526_image3_1.jpg",
  "i18n": {
   "ko": {
    "name": "뉴욕베이글 송도",
    "desc": "",
    "address": "인천광역시 연수구 컨벤시아대로 116 푸르지오월드마크"
   }
  }
 },
 {
  "section": "food",
  "name_ko": "늘목",
  "district": "영종구",
  "category": "한식·백반",
  "lat": 37.4486575393,
  "lng": 126.3899891203,
  "phone": "",
  "thumb": "http://tong.visitkorea.or.kr/cms/resource/89/3565589_image3_1.jpg",
  "i18n": {
   "ko": {
    "name": "늘목",
    "desc": "",
    "address": "인천광역시 영종구 용유서로 158"
   }
  }
 },
 {
  "section": "food",
  "name_ko": "닐리리 손칼국수",
  "district": "검단구",
  "category": "면·국물",
  "lat": 37.591826412,
  "lng": 126.6728954177,
  "phone": "",
  "thumb": "http://tong.visitkorea.or.kr/cms/resource/36/2845036_image3_1.jpg",
  "i18n": {
   "ko": {
    "name": "닐리리 손칼국수",
    "desc": "",
    "address": "인천광역시 검단구 서곶로 833 (당하동)"
   }
  }
 },
 {
  "section": "food",
  "name_ko": "다올",
  "district": "영종구",
  "category": "한식·백반",
  "lat": 37.431573899,
  "lng": 126.4177203895,
  "phone": "",
  "thumb": "http://tong.visitkorea.or.kr/cms/resource/76/2875576_image3_1.jpg",
  "i18n": {
   "ko": {
    "name": "다올",
    "desc": "",
    "address": "인천광역시 영종구 마시란로 106"
   }
  }
 },
 {
  "section": "food",
  "name_ko": "단풍나무",
  "district": "검단구",
  "category": "한식·백반",
  "lat": 37.5965948044,
  "lng": 126.6447867414,
  "phone": "",
  "thumb": "http://tong.visitkorea.or.kr/cms/resource/71/2840971_image3_1.jpg",
  "i18n": {
   "ko": {
    "name": "단풍나무",
    "desc": "",
    "address": "인천광역시 검단구 검단로379번길 31-2 (왕길동)"
   }
  }
 },
 {
  "section": "food",
  "name_ko": "닭곰탱이 본점",
  "district": "영종구",
  "category": "한식·백반",
  "lat": 37.496348343,
  "lng": 126.4989500748,
  "phone": "",
  "thumb": "http://tong.visitkorea.or.kr/cms/resource/27/2847227_image3_1.jpg",
  "i18n": {
   "ko": {
    "name": "닭곰탱이 본점",
    "desc": "",
    "address": "인천광역시 영종구 화랑목로 50-10 (운서동)"
   }
  }
 },
 {
  "section": "food",
  "name_ko": "대게가",
  "district": "검단구",
  "category": "해산물·회",
  "lat": 37.5995620894,
  "lng": 126.6992344613,
  "phone": "",
  "thumb": "http://tong.visitkorea.or.kr/cms/resource/08/2843508_image3_1.jpg",
  "i18n": {
   "ko": {
    "name": "대게가",
    "desc": "",
    "address": "인천광역시 검단구 고산후로 176 (원당동)"
   }
  }
 },
 {
  "section": "food",
  "name_ko": "대동강",
  "district": "연수구",
  "category": "한식·백반",
  "lat": 37.4157410609,
  "lng": 126.6577405924,
  "phone": "",
  "thumb": "http://tong.visitkorea.or.kr/cms/resource/65/2855265_image3_1.jpg",
  "i18n": {
   "ko": {
    "name": "대동강",
    "desc": "",
    "address": "인천광역시 연수구 청량로86번길 14-6 (동춘동)"
   }
  }
 },
 {
  "section": "food",
  "name_ko": "대왕김밥",
  "district": "부평구",
  "category": "분식·주점",
  "lat": 37.4942191703,
  "lng": 126.7209270934,
  "phone": "",
  "thumb": "http://tong.visitkorea.or.kr/cms/resource/03/2875403_image3_1.jpg",
  "i18n": {
   "ko": {
    "name": "대왕김밥",
    "desc": "",
    "address": "인천광역시 부평구 부평문화로 41 (부평동)"
   }
  }
 },
 {
  "section": "food",
  "name_ko": "대창반점",
  "district": "제물포구",
  "category": "중식",
  "lat": 37.4746557478,
  "lng": 126.6186369698,
  "phone": "",
  "thumb": "http://tong.visitkorea.or.kr/cms/resource/40/3037340_image3_1.jpg",
  "i18n": {
   "ko": {
    "name": "대창반점",
    "desc": "",
    "address": "인천광역시 제물포구 차이나타운로 55-1 (선린동)"
   }
  }
 },
 {
  "section": "food",
  "name_ko": "대풍식당",
  "district": "강화군",
  "category": "한식·백반",
  "lat": 37.7817918077,
  "lng": 126.280759378,
  "phone": "",
  "thumb": "http://tong.visitkorea.or.kr/cms/resource/77/2791277_image3_1.jpg",
  "i18n": {
   "ko": {
    "name": "대풍식당",
    "desc": "",
    "address": "인천광역시 강화군 교동면 대룡안길54번길 24"
   }
  }
 },
 {
  "section": "food",
  "name_ko": "더 라두",
  "district": "강화군",
  "category": "카페·베이커리",
  "lat": 37.6369464049,
  "lng": 126.5296294799,
  "phone": "",
  "thumb": "http://tong.visitkorea.or.kr/cms/resource/94/2872794_image3_1.jpg",
  "i18n": {
   "ko": {
    "name": "더 라두",
    "desc": "",
    "address": "인천광역시 강화군 해안동로 112-12"
   }
  }
 },
 {
  "section": "food",
  "name_ko": "더담설렁탕",
  "district": "서해구",
  "category": "면·국물",
  "lat": 37.5091157775,
  "lng": 126.6269602532,
  "phone": "",
  "thumb": "http://tong.visitkorea.or.kr/cms/resource/58/2877558_image3_1.jpg",
  "i18n": {
   "ko": {
    "name": "더담설렁탕",
    "desc": "",
    "address": "인천광역시 서해구 북항로206번길 50 (원창동)"
   }
  }
 },
 {
  "section": "food",
  "name_ko": "더더 수육튀김_송도타임스페이스본점",
  "district": "연수구",
  "category": "분식·주점",
  "lat": 37.3850360364,
  "lng": 126.643153883,
  "phone": "",
  "thumb": "http://tong.visitkorea.or.kr/cms/resource/71/3449571_image3_1.jpg",
  "i18n": {
   "ko": {
    "name": "더더 수육튀김_송도타임스페이스본점",
    "desc": "",
    "address": "인천광역시 연수구 하모니로138번길 11 (송도동)"
   }
  }
 },
 {
  "section": "food",
  "name_ko": "데이즈드",
  "district": "연수구",
  "category": "카페·베이커리",
  "lat": 37.3804979755,
  "lng": 126.6602441186,
  "phone": "",
  "thumb": "http://tong.visitkorea.or.kr/cms/resource/49/3444649_image3_1.JPG",
  "i18n": {
   "ko": {
    "name": "데이즈드",
    "desc": "",
    "address": "인천광역시 연수구 송도과학로16번길 33-2 (송도동)"
   }
  }
 },
 {
  "section": "food",
  "name_ko": "도레도레",
  "district": "강화군",
  "category": "카페·베이커리",
  "lat": 37.6061648206,
  "lng": 126.4251232323,
  "phone": "",
  "thumb": "http://tong.visitkorea.or.kr/cms/resource/62/2842362_image3_1.jpg",
  "i18n": {
   "ko": {
    "name": "도레도레",
    "desc": "",
    "address": "인천광역시 강화군 화도면 해안남로1844번길 19"
   }
  }
 },
 {
  "section": "food",
  "name_ko": "도톰카츠 청라점",
  "district": "서해구",
  "category": "일식",
  "lat": 37.5283527319,
  "lng": 126.6440970414,
  "phone": "",
  "thumb": "http://tong.visitkorea.or.kr/cms/resource/69/2841869_image3_1.jpg",
  "i18n": {
   "ko": {
    "name": "도톰카츠 청라점",
    "desc": "",
    "address": "인천광역시 서해구 청라커낼로223번길 5 (청라동)"
   }
  }
 },
 {
  "section": "food",
  "name_ko": "돈타래게장정식",
  "district": "부평구",
  "category": "해산물·회",
  "lat": 37.4730406988,
  "lng": 126.6995962957,
  "phone": "",
  "thumb": "http://tong.visitkorea.or.kr/cms/resource/35/2790235_image3_1.jpg",
  "i18n": {
   "ko": {
    "name": "돈타래게장정식",
    "desc": "",
    "address": "인천광역시 부평구 열우물로 59"
   }
  }
 },
 {
  "section": "food",
  "name_ko": "동락반점",
  "district": "미추홀구",
  "category": "중식",
  "lat": 37.4606162013,
  "lng": 126.6463209443,
  "phone": "",
  "thumb": "http://tong.visitkorea.or.kr/cms/resource/21/2901221_image3_1.jpg",
  "i18n": {
   "ko": {
    "name": "동락반점",
    "desc": "",
    "address": "인천광역시 미추홀구 독배로 473 (숭의동)"
   }
  }
 },
 {
  "section": "food",
  "name_ko": "동춘사골순대국 동춘점",
  "district": "연수구",
  "category": "한식·백반",
  "lat": 37.4138665244,
  "lng": 126.6716754859,
  "phone": "",
  "thumb": "http://tong.visitkorea.or.kr/cms/resource/98/3445098_image3_1.jpg",
  "i18n": {
   "ko": {
    "name": "동춘사골순대국 동춘점",
    "desc": "",
    "address": "인천광역시 연수구 동곡재로49번길 8"
   }
  }
 },
 {
  "section": "food",
  "name_ko": "두메칼국수만두",
  "district": "옹진군",
  "category": "면·국물",
  "lat": 37.9716014356,
  "lng": 124.716073912,
  "phone": "",
  "thumb": "http://tong.visitkorea.or.kr/cms/resource/93/3562393_image3_1.jpg",
  "i18n": {
   "ko": {
    "name": "두메칼국수만두",
    "desc": "",
    "address": "인천광역시 옹진군 백령면 백령로 (293, 인어궁)"
   }
  }
 },
 {
  "section": "food",
  "name_ko": "드리우니",
  "district": "강화군",
  "category": "카페·베이커리",
  "lat": 37.6385953519,
  "lng": 126.4807227985,
  "phone": "",
  "thumb": "http://tong.visitkorea.or.kr/cms/resource/13/2872813_image3_1.JPG",
  "i18n": {
   "ko": {
    "name": "드리우니",
    "desc": "",
    "address": "인천광역시 강화군 길상면 마니산로 106"
   }
  }
 },
 {
  "section": "food",
  "name_ko": "등나무가든",
  "district": "강화군",
  "category": "한식·백반",
  "lat": 37.6341689752,
  "lng": 126.5310433168,
  "phone": "",
  "thumb": "http://tong.visitkorea.or.kr/cms/resource/45/3577845_image3_1.jpg",
  "i18n": {
   "ko": {
    "name": "등나무가든",
    "desc": "",
    "address": "인천광역시 강화군 길상면 해안동로 76"
   }
  }
 },
 {
  "section": "food",
  "name_ko": "따룽훠궈 송도점",
  "district": "연수구",
  "category": "중식",
  "lat": 37.3923824156,
  "lng": 126.6437369606,
  "phone": "",
  "thumb": "http://tong.visitkorea.or.kr/cms/resource/89/2899989_image3_1.jpg",
  "i18n": {
   "ko": {
    "name": "따룽훠궈 송도점",
    "desc": "",
    "address": "인천광역시 연수구 센트럴로 160 (송도동, 송도센트럴파크푸르지오)"
   }
  }
 },
 {
  "section": "food",
  "name_ko": "뚝배기이탈리아",
  "district": "서해구",
  "category": "양식·세계요리",
  "lat": 37.5334383841,
  "lng": 126.6516378783,
  "phone": "",
  "thumb": "http://tong.visitkorea.or.kr/cms/resource/25/2843525_image3_1.jpg",
  "i18n": {
   "ko": {
    "name": "뚝배기이탈리아",
    "desc": "",
    "address": "인천광역시 서해구 중봉대로612번길 10-16 (청라동)"
   }
  }
 },
 {
  "section": "food",
  "name_ko": "뜰안에정원",
  "district": "강화군",
  "category": "한식·백반",
  "lat": 37.6854897948,
  "lng": 126.3171420409,
  "phone": "",
  "thumb": "http://tong.visitkorea.or.kr/cms/resource/32/2878032_image3_1.jpg",
  "i18n": {
   "ko": {
    "name": "뜰안에정원",
    "desc": "",
    "address": "인천광역시 강화군 삼산면 삼산남로 827"
   }
  }
 },
 {
  "section": "food",
  "name_ko": "띤뜨",
  "district": "서해구",
  "category": "양식·세계요리",
  "lat": 37.5287776459,
  "lng": 126.6420444393,
  "phone": "",
  "thumb": "",
  "i18n": {
   "ko": {
    "name": "띤뜨",
    "desc": "",
    "address": "인천광역시 서해구 청라루비로42번길 14"
   }
  }
 },
 {
  "section": "food",
  "name_ko": "라메르샵",
  "district": "검단구",
  "category": "양식·세계요리",
  "lat": 37.5709927287,
  "lng": 126.6730904266,
  "phone": "",
  "thumb": "http://tong.visitkorea.or.kr/cms/resource/01/2839401_image3_1.jpg",
  "i18n": {
   "ko": {
    "name": "라메르샵",
    "desc": "",
    "address": "인천광역시 검단구 정서진로 651 (시천동)"
   }
  }
 },
 {
  "section": "food",
  "name_ko": "라온",
  "district": "남동구",
  "category": "카페·베이커리",
  "lat": 37.44507458,
  "lng": 126.703907792,
  "phone": "",
  "thumb": "http://tong.visitkorea.or.kr/cms/resource/53/2861953_image3_1.jpg",
  "i18n": {
   "ko": {
    "name": "라온",
    "desc": "",
    "address": "인천광역시 남동구 성말로32번길 6-1"
   }
  }
 },
 {
  "section": "food",
  "name_ko": "레이중화요리",
  "district": "서해구",
  "category": "중식",
  "lat": 37.529530341,
  "lng": 126.6423388363,
  "phone": "",
  "thumb": "http://tong.visitkorea.or.kr/cms/resource/34/2838534_image3_1.jpg",
  "i18n": {
   "ko": {
    "name": "레이중화요리",
    "desc": "",
    "address": "인천광역시 서해구 청라루비로42번길 5-21"
   }
  }
 },
 {
  "section": "food",
  "name_ko": "로즈스텔라정원",
  "district": "계양구",
  "category": "카페·베이커리",
  "lat": 37.5702326006,
  "lng": 126.723555284,
  "phone": "",
  "thumb": "http://tong.visitkorea.or.kr/cms/resource/20/2839320_image3_1.jpg",
  "i18n": {
   "ko": {
    "name": "로즈스텔라정원",
    "desc": "",
    "address": "인천광역시 계양구 다남로143번길 12 (다남동)"
   }
  }
 },
 {
  "section": "food",
  "name_ko": "롱비치커피앤브래드",
  "district": "연수구",
  "category": "카페·베이커리",
  "lat": 37.4073273108,
  "lng": 126.6101534976,
  "phone": "",
  "thumb": "http://tong.visitkorea.or.kr/cms/resource/18/3445818_image3_1.jpg",
  "i18n": {
   "ko": {
    "name": "롱비치커피앤브래드",
    "desc": "",
    "address": "인천광역시 연수구 랜드마크로 194 (송도동)"
   }
  }
 },
 {
  "section": "food",
  "name_ko": "린치핀",
  "district": "연수구",
  "category": "카페·베이커리",
  "lat": 37.3825144152,
  "lng": 126.660677356,
  "phone": "",
  "thumb": "http://tong.visitkorea.or.kr/cms/resource/18/2852118_image3_1.jpg",
  "i18n": {
   "ko": {
    "name": "린치핀",
    "desc": "",
    "address": "인천광역시 연수구 송도과학로28번길 8 (송도동)"
   }
  }
 },
 {
  "section": "food",
  "name_ko": "마니산산채",
  "district": "강화군",
  "category": "한식·백반",
  "lat": 37.6109398127,
  "lng": 126.4563841279,
  "phone": "",
  "thumb": "http://tong.visitkorea.or.kr/cms/resource/95/2791295_image2_1.jpg",
  "i18n": {
   "ko": {
    "name": "마니산산채",
    "desc": "",
    "address": "인천광역시 강화군 화도면 해안남로 1182"
   }
  }
 },
 {
  "section": "food",
  "name_ko": "마니산짜장",
  "district": "강화군",
  "category": "중식",
  "lat": 37.6517928441,
  "lng": 126.4254913785,
  "phone": "",
  "thumb": "http://tong.visitkorea.or.kr/cms/resource/27/2872827_image3_1.jpg",
  "i18n": {
   "ko": {
    "name": "마니산짜장",
    "desc": "",
    "address": "인천광역시 강화군 양도면 가능포로 221"
   }
  }
 },
 {
  "section": "food",
  "name_ko": "마니온",
  "district": "강화군",
  "category": "일식",
  "lat": 37.6232082243,
  "lng": 126.4789456107,
  "phone": "",
  "thumb": "http://tong.visitkorea.or.kr/cms/resource/38/2878138_image3_1.jpg",
  "i18n": {
   "ko": {
    "name": "마니온",
    "desc": "",
    "address": "인천광역시 강화군 길상면 보리고개로89번길 10"
   }
  }
 },
 {
  "section": "food",
  "name_ko": "마레 616",
  "district": "강화군",
  "category": "카페·베이커리",
  "lat": 37.6365686821,
  "lng": 126.5302544332,
  "phone": "",
  "thumb": "http://tong.visitkorea.or.kr/cms/resource/46/2872846_image3_1.jpg",
  "i18n": {
   "ko": {
    "name": "마레 616",
    "desc": "",
    "address": "인천광역시 강화군 길상면 해안동로 96-29"
   }
  }
 },
 {
  "section": "food",
  "name_ko": "마시랑카페",
  "district": "영종구",
  "category": "카페·베이커리",
  "lat": 37.4358344507,
  "lng": 126.4140483857,
  "phone": "",
  "thumb": "http://tong.visitkorea.or.kr/cms/resource/24/2834124_image3_1.jpg",
  "i18n": {
   "ko": {
    "name": "마시랑카페",
    "desc": "",
    "address": "인천광역시 영종구 마시란로 163 (덕교동)"
   }
  }
 },
 {
  "section": "food",
  "name_ko": "마시안 어부집",
  "district": "영종구",
  "category": "한식·백반",
  "lat": 37.4292075187,
  "lng": 126.4183703952,
  "phone": "",
  "thumb": "http://tong.visitkorea.or.kr/cms/resource/47/2839547_image3_1.jpg",
  "i18n": {
   "ko": {
    "name": "마시안 어부집",
    "desc": "",
    "address": "인천광역시 영종구 마시란로 77 (덕교동)"
   }
  }
 },
 {
  "section": "food",
  "name_ko": "마시안생선구이정식",
  "district": "영종구",
  "category": "해산물·회",
  "lat": 37.4326626584,
  "lng": 126.4175814835,
  "phone": "",
  "thumb": "http://tong.visitkorea.or.kr/cms/resource/00/2875600_image3_1.jpg",
  "i18n": {
   "ko": {
    "name": "마시안생선구이정식",
    "desc": "",
    "address": "인천광역시 영종구 마시란로 118"
   }
  }
 },
 {
  "section": "food",
  "name_ko": "마크로스터스",
  "district": "남동구",
  "category": "카페·베이커리",
  "lat": 37.4156006736,
  "lng": 126.7292313031,
  "phone": "",
  "thumb": "http://tong.visitkorea.or.kr/cms/resource/56/2795356_image2_1.jpg",
  "i18n": {
   "ko": {
    "name": "마크로스터스",
    "desc": "",
    "address": "인천광역시 남동구 오봉동로10번길 35 (도림동)"
   }
  }
 },
 {
  "section": "food",
  "name_ko": "마포식당 청라점",
  "district": "서해구",
  "category": "한식·백반",
  "lat": 37.5295416856,
  "lng": 126.6556070692,
  "phone": "",
  "thumb": "http://tong.visitkorea.or.kr/cms/resource/81/2841881_image3_1.jpg",
  "i18n": {
   "ko": {
    "name": "마포식당 청라점",
    "desc": "",
    "address": "인천광역시 서해구 청라에메랄드로41번길 21 (청라동)"
   }
  }
 },
 {
  "section": "food",
  "name_ko": "마호가니 강화점",
  "district": "강화군",
  "category": "카페·베이커리",
  "lat": 37.6061648206,
  "lng": 126.4251232323,
  "phone": "",
  "thumb": "http://tong.visitkorea.or.kr/cms/resource/93/2838893_image3_1.jpg",
  "i18n": {
   "ko": {
    "name": "마호가니 강화점",
    "desc": "",
    "address": "인천광역시 강화군 화도면 해안남로1844번길 19"
   }
  }
 },
 {
  "section": "food",
  "name_ko": "만다복",
  "district": "제물포구",
  "category": "한식·백반",
  "lat": 37.4761750274,
  "lng": 126.6192868684,
  "phone": "",
  "thumb": "",
  "i18n": {
   "ko": {
    "name": "만다복",
    "desc": "",
    "address": "인천광역시 제물포구 차이나타운로 36 만다복"
   }
  }
 },
 {
  "section": "food",
  "name_ko": "만미가셀프장어구이",
  "district": "서해구",
  "category": "해산물·회",
  "lat": 37.4787370505,
  "lng": 126.6877861029,
  "phone": "",
  "thumb": "http://tong.visitkorea.or.kr/cms/resource/99/2841899_image3_1.jpg",
  "i18n": {
   "ko": {
    "name": "만미가셀프장어구이",
    "desc": "",
    "address": "인천광역시 서해구 백범로622번길 20 (가좌동)"
   }
  }
 },
 {
  "section": "food",
  "name_ko": "만복짬뽕집",
  "district": "미추홀구",
  "category": "중식",
  "lat": 37.4417938382,
  "lng": 126.6718163643,
  "phone": "",
  "thumb": "http://tong.visitkorea.or.kr/cms/resource/51/2873351_image3_1.jpg",
  "i18n": {
   "ko": {
    "name": "만복짬뽕집",
    "desc": "",
    "address": "인천광역시 미추홀구 학익소로63번길 23 (학익동)"
   }
  }
 },
 {
  "section": "food",
  "name_ko": "맛을담은강된장",
  "district": "강화군",
  "category": "한식·백반",
  "lat": 37.6119785725,
  "lng": 126.4559313625,
  "phone": "",
  "thumb": "http://tong.visitkorea.or.kr/cms/resource/46/2836846_image3_1.jpg",
  "i18n": {
   "ko": {
    "name": "맛을담은강된장",
    "desc": "",
    "address": "인천광역시 강화군 화도면 해안남로 1164"
   }
  }
 },
 {
  "section": "food",
  "name_ko": "매화마름",
  "district": "강화군",
  "category": "카페·베이커리",
  "lat": 37.6352603102,
  "lng": 126.5194304598,
  "phone": "",
  "thumb": "http://tong.visitkorea.or.kr/cms/resource/72/2872872_image3_1.jpg",
  "i18n": {
   "ko": {
    "name": "매화마름",
    "desc": "",
    "address": "인천광역시 강화군 길상로25번길 28"
   }
  }
 },
 {
  "section": "food",
  "name_ko": "머노까머나 송도점",
  "district": "연수구",
  "category": "양식·세계요리",
  "lat": 37.3914992991,
  "lng": 126.6502280598,
  "phone": "",
  "thumb": "http://tong.visitkorea.or.kr/cms/resource/16/2854416_image3_1.jpg",
  "i18n": {
   "ko": {
    "name": "머노까머나 송도점",
    "desc": "",
    "address": "인천광역시 연수구 해돋이로 107 송도 더샵 퍼스트월드"
   }
  }
 },
 {
  "section": "food",
  "name_ko": "먹골촌",
  "district": "강화군",
  "category": "한식·백반",
  "lat": 37.613714492,
  "lng": 126.4565340369,
  "phone": "",
  "thumb": "http://tong.visitkorea.or.kr/cms/resource/98/2872498_image3_1.jpg",
  "i18n": {
   "ko": {
    "name": "먹골촌",
    "desc": "",
    "address": "인천광역시 강화군 화도면 해안남로 1147"
   }
  }
 },
 {
  "section": "food",
  "name_ko": "멍때림",
  "district": "강화군",
  "category": "카페·베이커리",
  "lat": 37.6071699975,
  "lng": 126.4101967937,
  "phone": "",
  "thumb": "http://tong.visitkorea.or.kr/cms/resource/59/2836859_image3_1.jpg",
  "i18n": {
   "ko": {
    "name": "멍때림",
    "desc": "",
    "address": "인천광역시 강화군 화도면 해안남로 1970-34"
   }
  }
 },
 {
  "section": "food",
  "name_ko": "메이차이나",
  "district": "연수구",
  "category": "중식",
  "lat": 37.3675632539,
  "lng": 126.6538783891,
  "phone": "",
  "thumb": "http://tong.visitkorea.or.kr/cms/resource/28/2906128_image3_1.jpg",
  "i18n": {
   "ko": {
    "name": "메이차이나",
    "desc": "",
    "address": "인천광역시 연수구 첨단대로 80 (송도동)"
   }
  }
 },
 {
  "section": "food",
  "name_ko": "메콩사롱",
  "district": "제물포구",
  "category": "양식·세계요리",
  "lat": 37.4723646043,
  "lng": 126.6331912608,
  "phone": "",
  "thumb": "http://tong.visitkorea.or.kr/cms/resource/32/2846732_image3_1.jpg",
  "i18n": {
   "ko": {
    "name": "메콩사롱",
    "desc": "",
    "address": "인천광역시 제물포구 참외전로158번길 14 (경동)"
   }
  }
 },
 {
  "section": "food",
  "name_ko": "면박사가야밀면",
  "district": "부평구",
  "category": "면·국물",
  "lat": 37.5102313166,
  "lng": 126.7275954827,
  "phone": "",
  "thumb": "http://tong.visitkorea.or.kr/cms/resource/52/2873452_image3_1.jpg",
  "i18n": {
   "ko": {
    "name": "면박사가야밀면",
    "desc": "",
    "address": "인천광역시 부평구 주부토로172번길 28"
   }
  }
 },
 {
  "section": "food",
  "name_ko": "멸치부터 고래까지",
  "district": "서해구",
  "category": "한식·백반",
  "lat": 37.5286137962,
  "lng": 126.6431915617,
  "phone": "",
  "thumb": "http://tong.visitkorea.or.kr/cms/resource/16/2842816_image3_1.jpg",
  "i18n": {
   "ko": {
    "name": "멸치부터 고래까지",
    "desc": "",
    "address": "인천광역시 서해구 청라커낼로223번길 14 (청라동)"
   }
  }
 },
 {
  "section": "food",
  "name_ko": "명가순대",
  "district": "제물포구",
  "category": "한식·백반",
  "lat": 37.4812913869,
  "lng": 126.6356213467,
  "phone": "",
  "thumb": "http://tong.visitkorea.or.kr/cms/resource/02/2835402_image3_1.jpg",
  "i18n": {
   "ko": {
    "name": "명가순대",
    "desc": "",
    "address": "인천광역시 제물포구 화수로 18 (송현동)"
   }
  }
 },
 {
  "section": "food",
  "name_ko": "명현만간장게장 검단점",
  "district": "검단구",
  "category": "해산물·회",
  "lat": 37.6026526559,
  "lng": 126.6574409716,
  "phone": "",
  "thumb": "http://tong.visitkorea.or.kr/cms/resource/79/2833879_image3_1.jpg",
  "i18n": {
   "ko": {
    "name": "명현만간장게장 검단점",
    "desc": "",
    "address": "인천광역시 검단구 완정로 172 (마전동)"
   }
  }
 },
 {
  "section": "food",
  "name_ko": "모녀떡볶이 부평남부역점",
  "district": "태백시",
  "category": "분식·주점",
  "lat": 37.1773671627,
  "lng": 128.9858318253,
  "phone": "",
  "thumb": "http://tong.visitkorea.or.kr/cms/resource/58/2833858_image3_1.jpg",
  "i18n": {
   "ko": {
    "name": "모녀떡볶이 부평남부역점",
    "desc": "",
    "address": "강원특별자치도 태백시 광장로 16 (황지동)"
   }
  }
 },
 {
  "section": "food",
  "name_ko": "모모아트",
  "district": "계양구",
  "category": "카페·베이커리",
  "lat": 37.566149766,
  "lng": 126.7249136075,
  "phone": "",
  "thumb": "http://tong.visitkorea.or.kr/cms/resource/57/2876157_image3_1.jpg",
  "i18n": {
   "ko": {
    "name": "모모아트",
    "desc": "",
    "address": "인천광역시 계양구 역골로43번길 33 (다남동)"
   }
  }
 },
 {
  "section": "food",
  "name_ko": "목현",
  "district": "영종구",
  "category": "카페·베이커리",
  "lat": 37.4965899842,
  "lng": 126.4991139421,
  "phone": "",
  "thumb": "http://tong.visitkorea.or.kr/cms/resource/10/2873310_image3_1.jpg",
  "i18n": {
   "ko": {
    "name": "목현",
    "desc": "",
    "address": "인천광역시 영종구 화랑목로 50-9 (운서동)"
   }
  }
 },
 {
  "section": "food",
  "name_ko": "무의도데침쌈밥",
  "district": "영종구",
  "category": "한식·백반",
  "lat": 37.3908537963,
  "lng": 126.4271373128,
  "phone": "",
  "thumb": "http://tong.visitkorea.or.kr/cms/resource/49/2786549_image2_1.jpg",
  "i18n": {
   "ko": {
    "name": "무의도데침쌈밥",
    "desc": "",
    "address": "인천광역시 영종구 대무의로 291 (무의동)"
   }
  }
 },
 {
  "section": "food",
  "name_ko": "문화반점",
  "district": "제물포구",
  "category": "중식",
  "lat": 37.4732784873,
  "lng": 126.6388768276,
  "phone": "",
  "thumb": "http://tong.visitkorea.or.kr/cms/resource/18/2835418_image3_1.jpg",
  "i18n": {
   "ko": {
    "name": "문화반점",
    "desc": "",
    "address": "인천광역시 제물포구 금곡로 29 (송림동)"
   }
  }
 },
 {
  "section": "food",
  "name_ko": "물레방아식당",
  "district": "강화군",
  "category": "한식·백반",
  "lat": 37.6869202311,
  "lng": 126.3198611964,
  "phone": "",
  "thumb": "http://tong.visitkorea.or.kr/cms/resource/33/2791333_image2_1.jpg",
  "i18n": {
   "ko": {
    "name": "물레방아식당",
    "desc": "",
    "address": "인천광역시 강화군 삼산면 삼산남로828번길 26"
   }
  }
 },
 {
  "section": "food",
  "name_ko": "미광",
  "district": "제물포구",
  "category": "중식",
  "lat": 37.4802162481,
  "lng": 126.6206505206,
  "phone": "",
  "thumb": "http://tong.visitkorea.or.kr/cms/resource/73/2846773_image3_1.jpg",
  "i18n": {
   "ko": {
    "name": "미광",
    "desc": "",
    "address": "인천광역시 제물포구 참외전로13번길 15-4 (송월동2가)"
   }
  }
 },
 {
  "section": "food",
  "name_ko": "미궁장어구이",
  "district": "남동구",
  "category": "해산물·회",
  "lat": 37.4572855084,
  "lng": 126.7736955347,
  "phone": "",
  "thumb": "http://tong.visitkorea.or.kr/cms/resource/76/2900976_image3_1.jpg",
  "i18n": {
   "ko": {
    "name": "미궁장어구이",
    "desc": "",
    "address": "인천광역시 남동구 만의골로 168 (장수동)"
   }
  }
 },
 {
  "section": "food",
  "name_ko": "미나모토",
  "district": "연수구",
  "category": "일식",
  "lat": 37.3963209606,
  "lng": 126.6502029286,
  "phone": "",
  "thumb": "http://tong.visitkorea.or.kr/cms/resource/35/2906235_image3_1.jpg",
  "i18n": {
   "ko": {
    "name": "미나모토",
    "desc": "",
    "address": "인천광역시 연수구 컨벤시아대로 70 (송도동, 인천송도힐스테이트)"
   }
  }
 },
 {
  "section": "food",
  "name_ko": "미소로",
  "district": "남동구",
  "category": "한식·백반",
  "lat": 37.4538602086,
  "lng": 126.7343297741,
  "phone": "",
  "thumb": "",
  "i18n": {
   "ko": {
    "name": "미소로",
    "desc": "",
    "address": "인천광역시 남동구 백범로 109"
   }
  }
 },
 {
  "section": "food",
  "name_ko": "미송쌈정식",
  "district": "영종구",
  "category": "한식·백반",
  "lat": 37.4483214566,
  "lng": 126.3893614095,
  "phone": "",
  "thumb": "http://tong.visitkorea.or.kr/cms/resource/90/2845190_image3_1.jpg",
  "i18n": {
   "ko": {
    "name": "미송쌈정식",
    "desc": "",
    "address": "인천광역시 영종구 용유서로 164 (을왕동)"
   }
  }
 },
 {
  "section": "food",
  "name_ko": "미애네칼국수",
  "district": "영종구",
  "category": "면·국물",
  "lat": 37.4264301094,
  "lng": 126.4209813437,
  "phone": "",
  "thumb": "http://tong.visitkorea.or.kr/cms/resource/48/2792948_image3_1.JPG",
  "i18n": {
   "ko": {
    "name": "미애네칼국수",
    "desc": "",
    "address": "인천광역시 영종구 마시란로 39"
   }
  }
 },
 {
  "section": "food",
  "name_ko": "밀레",
  "district": "부평구",
  "category": "카페·베이커리",
  "lat": 37.4809314475,
  "lng": 126.6995599681,
  "phone": "",
  "thumb": "http://tong.visitkorea.or.kr/cms/resource/23/2875423_image3_1.jpg",
  "i18n": {
   "ko": {
    "name": "밀레",
    "desc": "",
    "address": "인천광역시 부평구 경원대로1130번길 7"
   }
  }
 },
 {
  "section": "food",
  "name_ko": "바그다드커피",
  "district": "강화군",
  "category": "카페·베이커리",
  "lat": 37.7015302057,
  "lng": 126.5103711075,
  "phone": "",
  "thumb": "http://tong.visitkorea.or.kr/cms/resource/35/2878035_image3_1.jpg",
  "i18n": {
   "ko": {
    "name": "바그다드커피",
    "desc": "",
    "address": "인천광역시 강화군 선원면 연동로99번길 73"
   }
  }
 },
 {
  "section": "food",
  "name_ko": "바다드림",
  "district": "영종구",
  "category": "한식·백반",
  "lat": 37.4216917777,
  "lng": 126.421353662,
  "phone": "",
  "thumb": "http://tong.visitkorea.or.kr/cms/resource/79/2846779_image3_1.jpg",
  "i18n": {
   "ko": {
    "name": "바다드림",
    "desc": "",
    "address": "인천광역시 영종구 잠진도길 46 (덕교동)"
   }
  }
 },
 {
  "section": "food",
  "name_ko": "바다보다",
  "district": "강화군",
  "category": "카페·베이커리",
  "lat": 37.6178376172,
  "lng": 126.5351795039,
  "phone": "",
  "thumb": "http://tong.visitkorea.or.kr/cms/resource/79/2872479_image3_1.jpg",
  "i18n": {
   "ko": {
    "name": "바다보다",
    "desc": "",
    "address": "인천광역시 강화군 해안남로 116"
   }
  }
 },
 {
  "section": "food",
  "name_ko": "바다쏭",
  "district": "연수구",
  "category": "카페·베이커리",
  "lat": 37.4295807521,
  "lng": 126.6369059978,
  "phone": "",
  "thumb": "http://tong.visitkorea.or.kr/cms/resource/51/2833851_image3_1.jpg",
  "i18n": {
   "ko": {
    "name": "바다쏭",
    "desc": "",
    "address": "인천광역시 연수구 능허대로 16 (옥련동)"
   }
  }
 },
 {
  "section": "food",
  "name_ko": "바다앞테라스",
  "district": "영종구",
  "category": "카페·베이커리",
  "lat": 37.4921280587,
  "lng": 126.5812704513,
  "phone": "",
  "thumb": "http://tong.visitkorea.or.kr/cms/resource/54/2792954_image3_1.JPG",
  "i18n": {
   "ko": {
    "name": "바다앞테라스",
    "desc": "",
    "address": "인천광역시 영종구 은하수로 10 (중산동)"
   }
  }
 },
 {
  "section": "food",
  "name_ko": "바다애",
  "district": "검단구",
  "category": "한식·백반",
  "lat": 37.5929068641,
  "lng": 126.6741619377,
  "phone": "",
  "thumb": "http://tong.visitkorea.or.kr/cms/resource/52/2877252_image3_1.jpg",
  "i18n": {
   "ko": {
    "name": "바다애",
    "desc": "",
    "address": "인천광역시 검단구 서곶로 848 (당하동)"
   }
  }
 },
 {
  "section": "food",
  "name_ko": "바람의마을 손칼국수",
  "district": "옹진군",
  "category": "면·국물",
  "lat": 37.2345515356,
  "lng": 126.5312654319,
  "phone": "",
  "thumb": "http://tong.visitkorea.or.kr/cms/resource/67/2834167_image3_1.jpg",
  "i18n": {
   "ko": {
    "name": "바람의마을 손칼국수",
    "desc": "",
    "address": "인천광역시 옹진군 영흥면 선재로 63"
   }
  }
 },
 {
  "section": "food",
  "name_ko": "밥상편지",
  "district": "연수구",
  "category": "한식·백반",
  "lat": 37.3856998833,
  "lng": 126.6451509055,
  "phone": "",
  "thumb": "http://tong.visitkorea.or.kr/cms/resource/48/2787848_image2_1.jpg",
  "i18n": {
   "ko": {
    "name": "밥상편지",
    "desc": "",
    "address": "인천광역시 연수구 하모니로 124"
   }
  }
 },
 {
  "section": "food",
  "name_ko": "백령면옥 제물포점",
  "district": "미추홀구",
  "category": "한식·백반",
  "lat": 37.4679822616,
  "lng": 126.6604583394,
  "phone": "",
  "thumb": "http://tong.visitkorea.or.kr/cms/resource/67/2781067_image3_1.png",
  "i18n": {
   "ko": {
    "name": "백령면옥 제물포점",
    "desc": "",
    "address": "인천광역시 미추홀구 석정로 226"
   }
  }
 },
 {
  "section": "food",
  "name_ko": "백합칼국수 송도점",
  "district": "연수구",
  "category": "면·국물",
  "lat": 37.3981093566,
  "lng": 126.633973803,
  "phone": "",
  "thumb": "",
  "i18n": {
   "ko": {
    "name": "백합칼국수 송도점",
    "desc": "",
    "address": "인천광역시 연수구 센트럴로 263"
   }
  }
 },
 {
  "section": "food",
  "name_ko": "벌말기사부페",
  "district": "계양구",
  "category": "한식·백반",
  "lat": 37.5796797028,
  "lng": 126.7786111044,
  "phone": "",
  "thumb": "http://tong.visitkorea.or.kr/cms/resource/59/2836959_image3_1.jpg",
  "i18n": {
   "ko": {
    "name": "벌말기사부페",
    "desc": "",
    "address": "인천광역시 계양구 벌말로573번길 3-1 (상야동)"
   }
  }
 },
 {
  "section": "food",
  "name_ko": "벌말매운탕",
  "district": "계양구",
  "category": "한식·백반",
  "lat": 37.5789381158,
  "lng": 126.7782750439,
  "phone": "",
  "thumb": "http://tong.visitkorea.or.kr/cms/resource/18/2840118_image3_1.jpg",
  "i18n": {
   "ko": {
    "name": "벌말매운탕",
    "desc": "",
    "address": "인천광역시 계양구 벌말로565번길 5 (상야동)"
   }
  }
 },
 {
  "section": "food",
  "name_ko": "범호고향밥상",
  "district": "강화군",
  "category": "한식·백반",
  "lat": 37.6331283269,
  "lng": 126.4240392517,
  "phone": "",
  "thumb": "http://tong.visitkorea.or.kr/cms/resource/51/2878151_image3_1.jpg",
  "i18n": {
   "ko": {
    "name": "범호고향밥상",
    "desc": "",
    "address": "인천광역시 강화군 화도면 마니산로675번길 15"
   }
  }
 },
 {
  "section": "food",
  "name_ko": "벨팡",
  "district": "강화군",
  "category": "카페·베이커리",
  "lat": 37.63952043,
  "lng": 126.4912912496,
  "phone": "",
  "thumb": "",
  "i18n": {
   "ko": {
    "name": "벨팡",
    "desc": "",
    "address": "인천광역시 강화군 길상면 온수길 32"
   }
  }
 },
 {
  "section": "food",
  "name_ko": "벽란식당",
  "district": "제물포구",
  "category": "한식·백반",
  "lat": 37.4805496946,
  "lng": 126.6292525045,
  "phone": "",
  "thumb": "http://tong.visitkorea.or.kr/cms/resource/30/2835430_image3_1.jpg",
  "i18n": {
   "ko": {
    "name": "벽란식당",
    "desc": "",
    "address": "인천광역시 제물포구 화도진로 102-4 (화수동)"
   }
  }
 },
 {
  "section": "food",
  "name_ko": "별미순대",
  "district": "연수구",
  "category": "한식·백반",
  "lat": 37.3954405376,
  "lng": 126.6518944656,
  "phone": "",
  "thumb": "http://tong.visitkorea.or.kr/cms/resource/73/3454373_image3_1.jpg",
  "i18n": {
   "ko": {
    "name": "별미순대",
    "desc": "",
    "address": "인천광역시 연수구 신송로 121 (송도동)"
   }
  }
 },
 {
  "section": "food",
  "name_ko": "별미칡냉면원조",
  "district": "부평구",
  "category": "면·국물",
  "lat": 37.5082814837,
  "lng": 126.7242430653,
  "phone": "",
  "thumb": "http://tong.visitkorea.or.kr/cms/resource/46/2875446_image3_1.jpg",
  "i18n": {
   "ko": {
    "name": "별미칡냉면원조",
    "desc": "",
    "address": "인천광역시 부평구 주부토로145번길 28 (갈산동)"
   }
  }
 },
 {
  "section": "food",
  "name_ko": "보테가",
  "district": "영종구",
  "category": "양식·세계요리",
  "lat": 37.4253413329,
  "lng": 126.4201731141,
  "phone": "",
  "thumb": "http://tong.visitkorea.or.kr/cms/resource/15/2845215_image3_1.jpg",
  "i18n": {
   "ko": {
    "name": "보테가",
    "desc": "",
    "address": "인천광역시 영종구 마시란로 51-32 (덕교동)"
   }
  }
 },
 {
  "section": "food",
  "name_ko": "본토칼국수",
  "district": "옹진군",
  "category": "면·국물",
  "lat": 37.2560262526,
  "lng": 126.4986178177,
  "phone": "",
  "thumb": "http://tong.visitkorea.or.kr/cms/resource/39/2791239_image3_1.JPG",
  "i18n": {
   "ko": {
    "name": "본토칼국수",
    "desc": "",
    "address": "인천광역시 옹진군 영흥면 영흥북로 23"
   }
  }
 },
 {
  "section": "food",
  "name_ko": "봄날 칼국수 보리밥",
  "district": "강화군",
  "category": "면·국물",
  "lat": 37.6495553888,
  "lng": 126.4922547714,
  "phone": "",
  "thumb": "http://tong.visitkorea.or.kr/cms/resource/41/2878041_image3_1.jpg",
  "i18n": {
   "ko": {
    "name": "봄날 칼국수 보리밥",
    "desc": "",
    "address": "인천광역시 강화군 길상면 강화동로 113"
   }
  }
 },
 {
  "section": "food",
  "name_ko": "봄날의 정원 한식당",
  "district": "강화군",
  "category": "한식·백반",
  "lat": 37.7243497076,
  "lng": 126.5070291097,
  "phone": "",
  "thumb": "http://tong.visitkorea.or.kr/cms/resource/45/2878045_image3_1.jpg",
  "i18n": {
   "ko": {
    "name": "봄날의 정원 한식당",
    "desc": "",
    "address": "인천광역시 강화군 선원면 선원사지로 67"
   }
  }
 },
 {
  "section": "food",
  "name_ko": "봄솔보리밥",
  "district": "검단구",
  "category": "한식·백반",
  "lat": 37.5982777695,
  "lng": 126.6350848032,
  "phone": "",
  "thumb": "http://tong.visitkorea.or.kr/cms/resource/29/2838629_image3_1.jpg",
  "i18n": {
   "ko": {
    "name": "봄솔보리밥",
    "desc": "",
    "address": "인천광역시 검단구 단봉로128번길 17 봄솔보리밥"
   }
  }
 },
 {
  "section": "food",
  "name_ko": "봉당",
  "district": "강화군",
  "category": "카페·베이커리",
  "lat": 37.6411007945,
  "lng": 126.49090513,
  "phone": "",
  "thumb": "http://tong.visitkorea.or.kr/cms/resource/65/2872465_image3_1.JPG",
  "i18n": {
   "ko": {
    "name": "봉당",
    "desc": "",
    "address": "인천광역시 강화군 길상면 강화동로 23-16"
   }
  }
 },
 {
  "section": "food",
  "name_ko": "부흥기사식당",
  "district": "부평구",
  "category": "한식·백반",
  "lat": 37.4980189781,
  "lng": 126.7349979259,
  "phone": "",
  "thumb": "http://tong.visitkorea.or.kr/cms/resource/66/2875466_image3_1.jpg",
  "i18n": {
   "ko": {
    "name": "부흥기사식당",
    "desc": "",
    "address": "인천광역시 부평구 부흥로 387 (부개동)"
   }
  }
 },
 {
  "section": "food",
  "name_ko": "북경",
  "district": "연수구",
  "category": "중식",
  "lat": 37.4148689312,
  "lng": 126.6572378853,
  "phone": "",
  "thumb": "",
  "i18n": {
   "ko": {
    "name": "북경",
    "desc": "",
    "address": "인천광역시 연수구 청량로79번길 16"
   }
  }
 },
 {
  "section": "food",
  "name_ko": "북경짜장2900 검단본점",
  "district": "검단구",
  "category": "중식",
  "lat": 37.5938926595,
  "lng": 126.6627990595,
  "phone": "",
  "thumb": "http://tong.visitkorea.or.kr/cms/resource/37/2842037_image3_1.jpg",
  "i18n": {
   "ko": {
    "name": "북경짜장2900 검단본점",
    "desc": "",
    "address": "인천광역시 검단구 원당대로 553 (왕길동)"
   }
  }
 },
 {
  "section": "food",
  "name_ko": "분아뜰리에",
  "district": "남동구",
  "category": "카페·베이커리",
  "lat": 37.4611127818,
  "lng": 126.7703151809,
  "phone": "",
  "thumb": "http://tong.visitkorea.or.kr/cms/resource/36/3453536_image3_1.jpg",
  "i18n": {
   "ko": {
    "name": "분아뜰리에",
    "desc": "",
    "address": "인천광역시 남동구 만의골로195번길 66 (장수동)"
   }
  }
 },
 {
  "section": "food",
  "name_ko": "브라운핸즈 개항로",
  "district": "제물포구",
  "category": "카페·베이커리",
  "lat": 37.4720257127,
  "lng": 126.6308053773,
  "phone": "",
  "thumb": "http://tong.visitkorea.or.kr/cms/resource/79/2848179_image3_1.jpg",
  "i18n": {
   "ko": {
    "name": "브라운핸즈 개항로",
    "desc": "",
    "address": "인천광역시 제물포구 개항로 73-1 (경동)"
   }
  }
 },
 {
  "section": "food",
  "name_ko": "브런치빈",
  "district": "연수구",
  "category": "양식·세계요리",
  "lat": 37.394068371,
  "lng": 126.6460200385,
  "phone": "",
  "thumb": "http://tong.visitkorea.or.kr/cms/resource/20/2833820_image3_1.jpg",
  "i18n": {
   "ko": {
    "name": "브런치빈",
    "desc": "",
    "address": "인천광역시 연수구 해돋이로151번길 4"
   }
  }
 },
 {
  "section": "food",
  "name_ko": "비스트로페르레이",
  "district": "서해구",
  "category": "양식·세계요리",
  "lat": 37.5339325121,
  "lng": 126.6369419842,
  "phone": "",
  "thumb": "http://tong.visitkorea.or.kr/cms/resource/27/2781727_image3_1.jpg",
  "i18n": {
   "ko": {
    "name": "비스트로페르레이",
    "desc": "",
    "address": "인천광역시 서해구 크리스탈로 100"
   }
  }
 },
 {
  "section": "food",
  "name_ko": "빨간돼지 청라점",
  "district": "서해구",
  "category": "고기·구이",
  "lat": 37.5365295514,
  "lng": 126.6437051827,
  "phone": "",
  "thumb": "http://tong.visitkorea.or.kr/cms/resource/01/2878001_image3_1.jpg",
  "i18n": {
   "ko": {
    "name": "빨간돼지 청라점",
    "desc": "",
    "address": "인천광역시 서해구 청라커낼로319번길 3-13 (청라동)"
   }
  }
 },
 {
  "section": "food",
  "name_ko": "사곶냉면",
  "district": "남동구",
  "category": "면·국물",
  "lat": 37.4017382847,
  "lng": 126.7230961367,
  "phone": "",
  "thumb": "http://tong.visitkorea.or.kr/cms/resource/46/2837046_image3_1.jpg",
  "i18n": {
   "ko": {
    "name": "사곶냉면",
    "desc": "",
    "address": "인천광역시 남동구 논고개로123번길 17 (논현동)"
   }
  }
 },
 {
  "section": "food",
  "name_ko": "사리원",
  "district": "제물포구",
  "category": "한식·백반",
  "lat": 37.4808581147,
  "lng": 126.6361935286,
  "phone": "",
  "thumb": "http://tong.visitkorea.or.kr/cms/resource/43/2835443_image3_1.jpg",
  "i18n": {
   "ko": {
    "name": "사리원",
    "desc": "",
    "address": "인천광역시 제물포구 수문통로 62 (송현동)"
   }
  }
 },
 {
  "section": "food",
  "name_ko": "산당",
  "district": "강화군",
  "category": "한식·백반",
  "lat": 37.7034969479,
  "lng": 126.3697172764,
  "phone": "",
  "thumb": "http://tong.visitkorea.or.kr/cms/resource/33/2780333_image3_1.jpg",
  "i18n": {
   "ko": {
    "name": "산당",
    "desc": "",
    "address": "인천광역시 강화군 내가면 해안서로 987"
   }
  }
 },
 {
  "section": "food",
  "name_ko": "산동만두 공갈빵",
  "district": "제물포구",
  "category": "카페·베이커리",
  "lat": 37.4714590355,
  "lng": 126.6264724544,
  "phone": "",
  "thumb": "",
  "i18n": {
   "ko": {
    "name": "산동만두 공갈빵",
    "desc": "",
    "address": "인천광역시 제물포구 우현로49번길 33"
   }
  }
 },
 {
  "section": "food",
  "name_ko": "산향한정식 구월점",
  "district": "남동구",
  "category": "한식·백반",
  "lat": 37.4407390245,
  "lng": 126.7068576433,
  "phone": "",
  "thumb": "http://tong.visitkorea.or.kr/cms/resource/12/2901012_image3_1.jpg",
  "i18n": {
   "ko": {
    "name": "산향한정식 구월점",
    "desc": "",
    "address": "인천광역시 남동구 선수촌공원로17번길 28 (구월동)"
   }
  }
 },
 {
  "section": "food",
  "name_ko": "삼강옥",
  "district": "제물포구",
  "category": "한식·백반",
  "lat": 37.4730617607,
  "lng": 126.6340494965,
  "phone": "",
  "thumb": "http://tong.visitkorea.or.kr/cms/resource/83/3568683_image3_1.jpg",
  "i18n": {
   "ko": {
    "name": "삼강옥",
    "desc": "",
    "address": "인천광역시 제물포구 참외전로158번길 1"
   }
  }
 },
 {
  "section": "food",
  "name_ko": "삼대인천게장",
  "district": "제물포구",
  "category": "해산물·회",
  "lat": 37.4742451482,
  "lng": 126.6449290266,
  "phone": "",
  "thumb": "http://tong.visitkorea.or.kr/cms/resource/65/2835465_image3_1.jpg",
  "i18n": {
   "ko": {
    "name": "삼대인천게장",
    "desc": "",
    "address": "인천광역시 제물포구 금곡로81번길 22"
   }
  }
 },
 {
  "section": "food",
  "name_ko": "삼대청국장청라본점",
  "district": "서해구",
  "category": "한식·백반",
  "lat": 37.5293194934,
  "lng": 126.6558348323,
  "phone": "",
  "thumb": "http://tong.visitkorea.or.kr/cms/resource/76/2842076_image3_1.jpg",
  "i18n": {
   "ko": {
    "name": "삼대청국장청라본점",
    "desc": "",
    "address": "인천광역시 서해구 청라에메랄드로41번길 24 (청라동)"
   }
  }
 },
 {
  "section": "food",
  "name_ko": "삼미소문난냉면",
  "district": "제물포구",
  "category": "면·국물",
  "lat": 37.4779444584,
  "lng": 126.6302052678,
  "phone": "",
  "thumb": "",
  "i18n": {
   "ko": {
    "name": "삼미소문난냉면",
    "desc": "",
    "address": "인천광역시 제물포구 화평로 10"
   }
  }
 },
 {
  "section": "food",
  "name_ko": "서당골막국수",
  "district": "영종구",
  "category": "면·국물",
  "lat": 37.5040456745,
  "lng": 126.5561251951,
  "phone": "",
  "thumb": "http://tong.visitkorea.or.kr/cms/resource/08/2846808_image3_1.jpg",
  "i18n": {
   "ko": {
    "name": "서당골막국수",
    "desc": "",
    "address": "인천광역시 영종구 중산로29번길 50-20 (중산동)"
   }
  }
 },
 {
  "section": "food",
  "name_ko": "서문김밥",
  "district": "강화군",
  "category": "분식·주점",
  "lat": 37.7477937893,
  "lng": 126.4839833438,
  "phone": "",
  "thumb": "http://tong.visitkorea.or.kr/cms/resource/25/2875325_image3_1.jpg",
  "i18n": {
   "ko": {
    "name": "서문김밥",
    "desc": "",
    "address": "인천광역시 강화군 강화읍 강화대로430번길 2-1"
   }
  }
 },
 {
  "section": "food",
  "name_ko": "서산갯마을",
  "district": "강화군",
  "category": "한식·백반",
  "lat": 37.6394881295,
  "lng": 126.3916892601,
  "phone": "",
  "thumb": "http://tong.visitkorea.or.kr/cms/resource/55/2791355_image2_1.jpg",
  "i18n": {
   "ko": {
    "name": "서산갯마을",
    "desc": "",
    "address": "인천광역시 강화군 화도면 해안남로2845번길 10"
   }
  }
 },
 {
  "section": "food",
  "name_ko": "서울횟집",
  "district": "강화군",
  "category": "해산물·회",
  "lat": 37.7007834779,
  "lng": 126.3755445956,
  "phone": "",
  "thumb": "http://tong.visitkorea.or.kr/cms/resource/84/3577684_image3_1.jpg",
  "i18n": {
   "ko": {
    "name": "서울횟집",
    "desc": "",
    "address": "인천광역시 강화군 내가면 해안서로 917-2"
   }
  }
 },
 {
  "section": "food",
  "name_ko": "서원안길",
  "district": "검단구",
  "category": "카페·베이커리",
  "lat": 37.5920929526,
  "lng": 126.667515346,
  "phone": "",
  "thumb": "http://tong.visitkorea.or.kr/cms/resource/03/2833603_image3_1.jpg",
  "i18n": {
   "ko": {
    "name": "서원안길",
    "desc": "",
    "address": "인천광역시 검단구 원당대로608번안길 14 (주)오엘메이크빌딩"
   }
  }
 },
 {
  "section": "food",
  "name_ko": "서해꽃게전문",
  "district": "강화군",
  "category": "한식·백반",
  "lat": 37.7044582423,
  "lng": 126.3865657049,
  "phone": "",
  "thumb": "http://tong.visitkorea.or.kr/cms/resource/38/3577738_image3_1.jpg",
  "i18n": {
   "ko": {
    "name": "서해꽃게전문",
    "desc": "",
    "address": "인천광역시 강화군 내가면 중앙로 1238"
   }
  }
 },
 {
  "section": "food",
  "name_ko": "서해안조개광장 신관",
  "district": "영종구",
  "category": "해산물·회",
  "lat": 37.4280937659,
  "lng": 126.4187537238,
  "phone": "",
  "thumb": "",
  "i18n": {
   "ko": {
    "name": "서해안조개광장 신관",
    "desc": "",
    "address": "인천광역시 영종구 마시란로 65"
   }
  }
 },
 {
  "section": "food",
  "name_ko": "석남동함흥냉면",
  "district": "서해구",
  "category": "면·국물",
  "lat": 37.5011508229,
  "lng": 126.6714925209,
  "phone": "",
  "thumb": "",
  "i18n": {
   "ko": {
    "name": "석남동함흥냉면",
    "desc": "",
    "address": "인천광역시 서해구 석남로 87"
   }
  }
 },
 {
  "section": "food",
  "name_ko": "석빈가든",
  "district": "남동구",
  "category": "한식·백반",
  "lat": 37.4455223768,
  "lng": 126.7393073307,
  "phone": "",
  "thumb": "",
  "i18n": {
   "ko": {
    "name": "석빈가든",
    "desc": "",
    "address": "인천광역시 남동구 장승로 60"
   }
  }
 },
 {
  "section": "food",
  "name_ko": "선미정",
  "district": "제물포구",
  "category": "한식·백반",
  "lat": 37.4670374324,
  "lng": 126.6324581423,
  "phone": "",
  "thumb": "",
  "i18n": {
   "ko": {
    "name": "선미정",
    "desc": "",
    "address": "인천광역시 제물포구 서해대로449번길 40 (신흥동1가)"
   }
  }
 },
 {
  "section": "food",
  "name_ko": "선재리커피집",
  "district": "옹진군",
  "category": "카페·베이커리",
  "lat": 37.2340211589,
  "lng": 126.5379815019,
  "phone": "",
  "thumb": "http://tong.visitkorea.or.kr/cms/resource/17/2848717_image3_1.jpg",
  "i18n": {
   "ko": {
    "name": "선재리커피집",
    "desc": "",
    "address": "인천광역시 옹진군 선재로34번길 79"
   }
  }
 },
 {
  "section": "food",
  "name_ko": "선한정식",
  "district": "연수구",
  "category": "한식·백반",
  "lat": 37.4145134106,
  "lng": 126.6569157024,
  "phone": "",
  "thumb": "",
  "i18n": {
   "ko": {
    "name": "선한정식",
    "desc": "",
    "address": "인천광역시 연수구 능허대로267번길 59"
   }
  }
 },
 {
  "section": "food",
  "name_ko": "섬마을다리집",
  "district": "옹진군",
  "category": "한식·백반",
  "lat": 37.5284212964,
  "lng": 126.4366104421,
  "phone": "",
  "thumb": "http://tong.visitkorea.or.kr/cms/resource/72/2786872_image2_1.jpg",
  "i18n": {
   "ko": {
    "name": "섬마을다리집",
    "desc": "",
    "address": "인천광역시 옹진군 북도면 신도로 254"
   }
  }
 },
 {
  "section": "food",
  "name_ko": "성진물텀벙",
  "district": "미추홀구",
  "category": "한식·백반",
  "lat": 37.4560056762,
  "lng": 126.6491597028,
  "phone": "",
  "thumb": "http://tong.visitkorea.or.kr/cms/resource/65/1872865_image3_1.jpg",
  "i18n": {
   "ko": {
    "name": "성진물텀벙",
    "desc": "",
    "address": "인천광역시 미추홀구 독배로403번길 10"
   }
  }
 },
 {
  "section": "food",
  "name_ko": "세인트커피",
  "district": "연수구",
  "category": "카페·베이커리",
  "lat": 37.4146606383,
  "lng": 126.6581600292,
  "phone": "",
  "thumb": "http://tong.visitkorea.or.kr/cms/resource/41/2852141_image3_1.jpg",
  "i18n": {
   "ko": {
    "name": "세인트커피",
    "desc": "",
    "address": "인천광역시 연수구 청량로 67"
   }
  }
 },
 {
  "section": "food",
  "name_ko": "셀레브르",
  "district": "연수구",
  "category": "카페·베이커리",
  "lat": 37.399437028,
  "lng": 126.6367096278,
  "phone": "",
  "thumb": "http://tong.visitkorea.or.kr/cms/resource/66/3449366_image3_1.jpg",
  "i18n": {
   "ko": {
    "name": "셀레브르",
    "desc": "",
    "address": "인천광역시 연수구 아트센터대로 131 (송도동)"
   }
  }
 },
 {
  "section": "food",
  "name_ko": "소풀이양평해장국 청라본점",
  "district": "서해구",
  "category": "면·국물",
  "lat": 37.5499891987,
  "lng": 126.6494848356,
  "phone": "",
  "thumb": "http://tong.visitkorea.or.kr/cms/resource/25/2843825_image3_1.jpg",
  "i18n": {
   "ko": {
    "name": "소풀이양평해장국 청라본점",
    "desc": "",
    "address": "인천광역시 서해구 중봉대로 783 (경서동)"
   }
  }
 },
 {
  "section": "food",
  "name_ko": "솔밭회조개구이",
  "district": "영종구",
  "category": "해산물·회",
  "lat": 37.4222945177,
  "lng": 126.4232034765,
  "phone": "",
  "thumb": "",
  "i18n": {
   "ko": {
    "name": "솔밭회조개구이",
    "desc": "",
    "address": "인천광역시 영종구 잠진도길 28"
   }
  }
 },
 {
  "section": "food",
  "name_ko": "솔청청",
  "district": "연수구",
  "category": "한식·백반",
  "lat": 37.4143578649,
  "lng": 126.6564129743,
  "phone": "",
  "thumb": "http://tong.visitkorea.or.kr/cms/resource/66/2852166_image3_1.jpg",
  "i18n": {
   "ko": {
    "name": "솔청청",
    "desc": "",
    "address": "인천광역시 연수구 능허대로267번길 55 (동춘동)"
   }
  }
 },
 {
  "section": "food",
  "name_ko": "솟구쳐차기 큐브점",
  "district": "연수구",
  "category": "일식",
  "lat": 37.3810729189,
  "lng": 126.6608273825,
  "phone": "",
  "thumb": "http://tong.visitkorea.or.kr/cms/resource/82/2852182_image3_1.jpg",
  "i18n": {
   "ko": {
    "name": "솟구쳐차기 큐브점",
    "desc": "",
    "address": "인천광역시 연수구 송도과학로16번길 13-18 송도건원테크노큐브"
   }
  }
 },
 {
  "section": "food",
  "name_ko": "송도갈매기",
  "district": "연수구",
  "category": "한식·백반",
  "lat": 37.4217373965,
  "lng": 126.6469552989,
  "phone": "",
  "thumb": "http://tong.visitkorea.or.kr/cms/resource/49/2926849_image3_1.jpg",
  "i18n": {
   "ko": {
    "name": "송도갈매기",
    "desc": "",
    "address": "인천광역시 연수구 능허대로151번길 25"
   }
  }
 },
 {
  "section": "food",
  "name_ko": "송도국제경양식",
  "district": "연수구",
  "category": "양식·세계요리",
  "lat": 37.3951792551,
  "lng": 126.6404205181,
  "phone": "",
  "thumb": "",
  "i18n": {
   "ko": {
    "name": "송도국제경양식",
    "desc": "",
    "address": "인천광역시 연수구 센트럴로 194"
   }
  }
 },
 {
  "section": "food",
  "name_ko": "송도명품 삼계탕",
  "district": "연수구",
  "category": "한식·백반",
  "lat": 37.3701572769,
  "lng": 126.6470594944,
  "phone": "",
  "thumb": "http://tong.visitkorea.or.kr/cms/resource/62/2906362_image3_1.jpg",
  "i18n": {
   "ko": {
    "name": "송도명품 삼계탕",
    "desc": "",
    "address": "인천광역시 연수구 송도미래로 9 (송도동)"
   }
  }
 },
 {
  "section": "food",
  "name_ko": "송도아구명가",
  "district": "연수구",
  "category": "해산물·회",
  "lat": 37.3681797468,
  "lng": 126.648117786,
  "phone": "",
  "thumb": "http://tong.visitkorea.or.kr/cms/resource/79/2906379_image3_1.jpg",
  "i18n": {
   "ko": {
    "name": "송도아구명가",
    "desc": "",
    "address": "인천광역시 연수구 송도미래로 30 (송도동)"
   }
  }
 },
 {
  "section": "food",
  "name_ko": "송도양평해장국",
  "district": "연수구",
  "category": "면·국물",
  "lat": 37.4148800624,
  "lng": 126.6584349974,
  "phone": "",
  "thumb": "http://tong.visitkorea.or.kr/cms/resource/56/2906956_image3_1.jpg",
  "i18n": {
   "ko": {
    "name": "송도양평해장국",
    "desc": "",
    "address": "인천광역시 연수구 청량로 68 (동춘동)"
   }
  }
 },
 {
  "section": "food",
  "name_ko": "송도주막",
  "district": "연수구",
  "category": "한식·백반",
  "lat": 37.4139107134,
  "lng": 126.6574906666,
  "phone": "",
  "thumb": "",
  "i18n": {
   "ko": {
    "name": "송도주막",
    "desc": "",
    "address": "인천광역시 연수구 청량로79번길 36 (동춘동)"
   }
  }
 },
 {
  "section": "food",
  "name_ko": "송림기사식당",
  "district": "제물포구",
  "category": "한식·백반",
  "lat": 37.4710483808,
  "lng": 126.6496425742,
  "phone": "",
  "thumb": "http://tong.visitkorea.or.kr/cms/resource/77/2996577_image3_1.jpg",
  "i18n": {
   "ko": {
    "name": "송림기사식당",
    "desc": "",
    "address": "인천광역시 제물포구 새천년로 28 (송림동)"
   }
  }
 },
 {
  "section": "food",
  "name_ko": "송쭈집 본점",
  "district": "연수구",
  "category": "한식·백반",
  "lat": 37.3923824156,
  "lng": 126.6437369606,
  "phone": "",
  "thumb": "http://tong.visitkorea.or.kr/cms/resource/74/2787874_image3_1.jpg",
  "i18n": {
   "ko": {
    "name": "송쭈집 본점",
    "desc": "",
    "address": "인천광역시 연수구 센트럴로 160 (송도동, 송도센트럴파크푸르지오)"
   }
  }
 },
 {
  "section": "food",
  "name_ko": "솥고집",
  "district": "연수구",
  "category": "한식·백반",
  "lat": 37.3787121176,
  "lng": 126.6628550406,
  "phone": "",
  "thumb": "http://tong.visitkorea.or.kr/cms/resource/96/2906396_image3_1.jpg",
  "i18n": {
   "ko": {
    "name": "솥고집",
    "desc": "",
    "address": "인천광역시 연수구 송도과학로16번길 33-4 (송도동)"
   }
  }
 },
 {
  "section": "food",
  "name_ko": "수라전통육개장",
  "district": "강화군",
  "category": "한식·백반",
  "lat": 37.7452441129,
  "lng": 126.4854721677,
  "phone": "",
  "thumb": "http://tong.visitkorea.or.kr/cms/resource/55/2878055_image3_1.jpg",
  "i18n": {
   "ko": {
    "name": "수라전통육개장",
    "desc": "",
    "address": "인천광역시 강화군 강화읍 강화대로403번길 14"
   }
  }
 },
 {
  "section": "food",
  "name_ko": "수연생오리구이",
  "district": "연수구",
  "category": "한식·백반",
  "lat": 37.4202848713,
  "lng": 126.6517187934,
  "phone": "",
  "thumb": "",
  "i18n": {
   "ko": {
    "name": "수연생오리구이",
    "desc": "",
    "address": "인천광역시 연수구 능허대로167번길 72"
   }
  }
 },
 {
  "section": "food",
  "name_ko": "수피아",
  "district": "계양구",
  "category": "카페·베이커리",
  "lat": 37.572960368,
  "lng": 126.7408369634,
  "phone": "",
  "thumb": "http://tong.visitkorea.or.kr/cms/resource/69/2873369_image3_1.jpg",
  "i18n": {
   "ko": {
    "name": "수피아",
    "desc": "",
    "address": "인천광역시 계양구 정서진로 1247 귤현프라자"
   }
  }
 },
 {
  "section": "food",
  "name_ko": "숙성명작",
  "district": "서해구",
  "category": "한식·백반",
  "lat": 37.53085552,
  "lng": 126.6611759684,
  "phone": "",
  "thumb": "http://tong.visitkorea.or.kr/cms/resource/94/2877994_image3_1.jpg",
  "i18n": {
   "ko": {
    "name": "숙성명작",
    "desc": "",
    "address": "인천광역시 서해구 담지로8번길 14 (청라동)"
   }
  }
 },
 {
  "section": "food",
  "name_ko": "숭의가든",
  "district": "미추홀구",
  "category": "한식·백반",
  "lat": 37.4653935265,
  "lng": 126.6521258381,
  "phone": "",
  "thumb": "",
  "i18n": {
   "ko": {
    "name": "숭의가든",
    "desc": "",
    "address": "인천광역시 미추홀구 경인로88번길 10"
   }
  }
 },
 {
  "section": "food",
  "name_ko": "숲길따라카페",
  "district": "강화군",
  "category": "카페·베이커리",
  "lat": 37.6082940313,
  "lng": 126.5207921967,
  "phone": "",
  "thumb": "http://tong.visitkorea.or.kr/cms/resource/40/2872440_image3_1.jpg",
  "i18n": {
   "ko": {
    "name": "숲길따라카페",
    "desc": "",
    "address": "인천광역시 강화군 길상면 해안남로 309-12"
   }
  }
 },
 {
  "section": "food",
  "name_ko": "스시에반하다",
  "district": "연수구",
  "category": "일식",
  "lat": 37.3900244069,
  "lng": 126.6466173186,
  "phone": "",
  "thumb": "http://tong.visitkorea.or.kr/cms/resource/33/2854433_image3_1.jpg",
  "i18n": {
   "ko": {
    "name": "스시에반하다",
    "desc": "",
    "address": "인천광역시 연수구 센트럴로 123 (송도동)"
   }
  }
 },
 {
  "section": "food",
  "name_ko": "스시이와",
  "district": "연수구",
  "category": "일식",
  "lat": 37.3942377023,
  "lng": 126.6407010748,
  "phone": "",
  "thumb": "http://tong.visitkorea.or.kr/cms/resource/14/2852214_image3_1.jpg",
  "i18n": {
   "ko": {
    "name": "스시이와",
    "desc": "",
    "address": "인천광역시 연수구 센트럴로 194 더샵 센트럴파크2"
   }
  }
 },
 {
  "section": "food",
  "name_ko": "스시카츠",
  "district": "서해구",
  "category": "일식",
  "lat": 37.5292553887,
  "lng": 126.6431943209,
  "phone": "",
  "thumb": "http://tong.visitkorea.or.kr/cms/resource/15/2838715_image3_1.jpg",
  "i18n": {
   "ko": {
    "name": "스시카츠",
    "desc": "",
    "address": "인천광역시 서해구 청라커낼로233번길 15"
   }
  }
 },
 {
  "section": "food",
  "name_ko": "스시하나",
  "district": "서해구",
  "category": "일식",
  "lat": 37.5268811339,
  "lng": 126.6697475191,
  "phone": "",
  "thumb": "http://tong.visitkorea.or.kr/cms/resource/16/3443716_image3_1.jpg",
  "i18n": {
   "ko": {
    "name": "스시하나",
    "desc": "",
    "address": "인천광역시 서해구 염곡로 472 (가정동)"
   }
  }
 },
 {
  "section": "food",
  "name_ko": "스타파이브 카페",
  "district": "영종구",
  "category": "카페·베이커리",
  "lat": 37.4395676584,
  "lng": 126.4317188915,
  "phone": "",
  "thumb": "http://tong.visitkorea.or.kr/cms/resource/73/2839573_image3_1.jpg",
  "i18n": {
   "ko": {
    "name": "스타파이브 카페",
    "desc": "",
    "address": "인천광역시 영종구 공항서로 133-1 (덕교동)"
   }
  }
 },
 {
  "section": "food",
  "name_ko": "스토리지 인천",
  "district": "제물포구",
  "category": "카페·베이커리",
  "lat": 37.4761360618,
  "lng": 126.6146650689,
  "phone": "",
  "thumb": "http://tong.visitkorea.or.kr/cms/resource/49/3443949_image3_1.jpg",
  "i18n": {
   "ko": {
    "name": "스토리지 인천",
    "desc": "",
    "address": "인천광역시 제물포구 월미로 33 (북성동1가)"
   }
  }
 },
 {
  "section": "food",
  "name_ko": "시골집",
  "district": "미추홀구",
  "category": "한식·백반",
  "lat": 37.4519701728,
  "lng": 126.6570479845,
  "phone": "",
  "thumb": "",
  "i18n": {
   "ko": {
    "name": "시골집",
    "desc": "",
    "address": "인천광역시 미추홀구 경인남길30번길 45-1"
   }
  }
 },
 {
  "section": "food",
  "name_ko": "시굴집",
  "district": "서해구",
  "category": "한식·백반",
  "lat": 37.5593580542,
  "lng": 126.677773657,
  "phone": "",
  "thumb": "http://tong.visitkorea.or.kr/cms/resource/74/2845074_image3_1.jpg",
  "i18n": {
   "ko": {
    "name": "시굴집",
    "desc": "",
    "address": "인천광역시 서해구 서곶로 468 (검암동)"
   }
  }
 },
 {
  "section": "food",
  "name_ko": "식객",
  "district": "미추홀구",
  "category": "한식·백반",
  "lat": 37.4590560783,
  "lng": 126.6919918224,
  "phone": "",
  "thumb": "http://tong.visitkorea.or.kr/cms/resource/73/2901273_image3_1.jpg",
  "i18n": {
   "ko": {
    "name": "식객",
    "desc": "",
    "address": "인천광역시 미추홀구 경인로 469 (주안동)"
   }
  }
 },
 {
  "section": "food",
  "name_ko": "신교령사골순대국 본점",
  "district": "계양구",
  "category": "한식·백반",
  "lat": 37.5823544376,
  "lng": 126.7812385668,
  "phone": "",
  "thumb": "http://tong.visitkorea.or.kr/cms/resource/82/2873382_image3_1.jpg",
  "i18n": {
   "ko": {
    "name": "신교령사골순대국 본점",
    "desc": "",
    "address": "인천광역시 계양구 벌말로 608 (하야동)"
   }
  }
 },
 {
  "section": "food",
  "name_ko": "신송당",
  "district": "강화군",
  "category": "카페·베이커리",
  "lat": 37.6526050397,
  "lng": 126.3342663804,
  "phone": "",
  "thumb": "http://tong.visitkorea.or.kr/cms/resource/10/2838910_image3_1.jpg",
  "i18n": {
   "ko": {
    "name": "신송당",
    "desc": "",
    "address": "인천광역시 강화군 삼산면 어류정길212번길 7-4"
   }
  }
 },
 {
  "section": "food",
  "name_ko": "신신분식",
  "district": "제물포구",
  "category": "분식·주점",
  "lat": 37.4752086246,
  "lng": 126.6278722229,
  "phone": "",
  "thumb": "http://tong.visitkorea.or.kr/cms/resource/05/2845305_image3_1.jpg",
  "i18n": {
   "ko": {
    "name": "신신분식",
    "desc": "",
    "address": "인천광역시 제물포구 자유공원로27번길 1"
   }
  }
 },
 {
  "section": "food",
  "name_ko": "신진말",
  "district": "서해구",
  "category": "한식·백반",
  "lat": 37.4876553073,
  "lng": 126.6792616327,
  "phone": "",
  "thumb": "http://tong.visitkorea.or.kr/cms/resource/69/2877269_image3_1.jpg",
  "i18n": {
   "ko": {
    "name": "신진말",
    "desc": "",
    "address": "인천광역시 서해구 원적로7번길 1 (가좌동)"
   }
  }
 },
 {
  "section": "food",
  "name_ko": "신포닭강정",
  "district": "제물포구",
  "category": "한식·백반",
  "lat": 37.4716590435,
  "lng": 126.6282389545,
  "phone": "",
  "thumb": "http://tong.visitkorea.or.kr/cms/resource/10/2786510_image3_1.jpg",
  "i18n": {
   "ko": {
    "name": "신포닭강정",
    "desc": "",
    "address": "인천광역시 제물포구 우현로49번길 3"
   }
  }
 },
 {
  "section": "food",
  "name_ko": "신화장어",
  "district": "남동구",
  "category": "해산물·회",
  "lat": 37.4117456831,
  "lng": 126.7358863598,
  "phone": "",
  "thumb": "http://tong.visitkorea.or.kr/cms/resource/40/2899140_image3_1.jpg",
  "i18n": {
   "ko": {
    "name": "신화장어",
    "desc": "",
    "address": "인천광역시 남동구 은봉로419번길 35 (논현동)"
   }
  }
 },
 {
  "section": "food",
  "name_ko": "심애선해물칼국수",
  "district": "강화군",
  "category": "해산물·회",
  "lat": 37.6464224409,
  "lng": 126.4933908657,
  "phone": "",
  "thumb": "http://tong.visitkorea.or.kr/cms/resource/57/2878157_image3_1.jpg",
  "i18n": {
   "ko": {
    "name": "심애선해물칼국수",
    "desc": "",
    "address": "인천광역시 강화군 길상면 강화동로 82"
   }
  }
 },
 {
  "section": "food",
  "name_ko": "쌈밥이네",
  "district": "강화군",
  "category": "한식·백반",
  "lat": 37.6351077794,
  "lng": 126.3742909752,
  "phone": "",
  "thumb": "http://tong.visitkorea.or.kr/cms/resource/92/2872392_image3_1.jpg",
  "i18n": {
   "ko": {
    "name": "쌈밥이네",
    "desc": "",
    "address": "인천광역시 강화군 화도면 해안남로 2674"
   }
  }
 },
 {
  "section": "food",
  "name_ko": "쌍둥이네 해물식당",
  "district": "연수구",
  "category": "해산물·회",
  "lat": 37.4155605084,
  "lng": 126.6567517988,
  "phone": "",
  "thumb": "http://tong.visitkorea.or.kr/cms/resource/90/2811790_image2_1.jpg",
  "i18n": {
   "ko": {
    "name": "쌍둥이네 해물식당",
    "desc": "",
    "address": "인천광역시 연수구 솔밭로70번길 7 (동춘동)"
   }
  }
 },
 {
  "section": "food",
  "name_ko": "아띠오아나폴리핏제리아",
  "district": "연수구",
  "category": "양식·세계요리",
  "lat": 37.395765483,
  "lng": 126.6509695409,
  "phone": "",
  "thumb": "http://tong.visitkorea.or.kr/cms/resource/37/2851837_image3_1.jpg",
  "i18n": {
   "ko": {
    "name": "아띠오아나폴리핏제리아",
    "desc": "",
    "address": "인천광역시 연수구 컨벤시아대로 69 송도 밀레니엄"
   }
  }
 },
 {
  "section": "food",
  "name_ko": "아라베스크",
  "district": "제물포구",
  "category": "양식·세계요리",
  "lat": 37.4740032546,
  "lng": 126.6304525767,
  "phone": "",
  "thumb": "",
  "i18n": {
   "ko": {
    "name": "아라베스크",
    "desc": "",
    "address": "인천광역시 제물포구 우현로 80 (인현동)"
   }
  }
 },
 {
  "section": "food",
  "name_ko": "아라짬뽕",
  "district": "영종구",
  "category": "중식",
  "lat": 37.4956579112,
  "lng": 126.5646329837,
  "phone": "",
  "thumb": "http://tong.visitkorea.or.kr/cms/resource/38/2846838_image3_1.jpg",
  "i18n": {
   "ko": {
    "name": "아라짬뽕",
    "desc": "",
    "address": "인천광역시 영종구 오작로 6-9 (중산동)"
   }
  }
 },
 {
  "section": "food",
  "name_ko": "아리아리랑",
  "district": "연수구",
  "category": "한식·백반",
  "lat": 37.4146133335,
  "lng": 126.6531938162,
  "phone": "",
  "thumb": "http://tong.visitkorea.or.kr/cms/resource/22/1885022_image3_1.jpg",
  "i18n": {
   "ko": {
    "name": "아리아리랑",
    "desc": "",
    "address": "인천광역시 연수구 솔밭로 5"
   }
  }
 },
 {
  "section": "food",
  "name_ko": "아저씨냉면",
  "district": "제물포구",
  "category": "면·국물",
  "lat": 37.4783721812,
  "lng": 126.6298941724,
  "phone": "",
  "thumb": "",
  "i18n": {
   "ko": {
    "name": "아저씨냉면",
    "desc": "",
    "address": "인천광역시 제물포구 화도진로91번길 27"
   }
  }
 },
 {
  "section": "food",
  "name_ko": "아키라커피 본점",
  "district": "제물포구",
  "category": "카페·베이커리",
  "lat": 37.4763166699,
  "lng": 126.6188424605,
  "phone": "",
  "thumb": "http://tong.visitkorea.or.kr/cms/resource/39/2848739_image3_1.jpg",
  "i18n": {
   "ko": {
    "name": "아키라커피 본점",
    "desc": "",
    "address": "인천광역시 제물포구 차이나타운로44번길 16-24"
   }
  }
 },
 {
  "section": "food",
  "name_ko": "안동국밥&봉평메밀촌",
  "district": "연수구",
  "category": "면·국물",
  "lat": 37.4010007694,
  "lng": 126.638628854,
  "phone": "",
  "thumb": "http://tong.visitkorea.or.kr/cms/resource/92/2658792_image2_1.jpg",
  "i18n": {
   "ko": {
    "name": "안동국밥&봉평메밀촌",
    "desc": "",
    "address": "인천광역시 연수구 아트센터대로 107"
   }
  }
 },
 {
  "section": "food",
  "name_ko": "애월몽",
  "district": "연수구",
  "category": "한식·백반",
  "lat": 37.3810729189,
  "lng": 126.6608273825,
  "phone": "",
  "thumb": "http://tong.visitkorea.or.kr/cms/resource/63/2912963_image3_1.jpg",
  "i18n": {
   "ko": {
    "name": "애월몽",
    "desc": "",
    "address": "인천광역시 연수구 송도과학로16번길 13-18 송도건원테크노큐브"
   }
  }
 },
 {
  "section": "food",
  "name_ko": "앤드아워",
  "district": "제물포구",
  "category": "카페·베이커리",
  "lat": 37.4788444064,
  "lng": 126.6331633057,
  "phone": "",
  "thumb": "http://tong.visitkorea.or.kr/cms/resource/89/2835489_image3_1.jpg",
  "i18n": {
   "ko": {
    "name": "앤드아워",
    "desc": "",
    "address": "인천광역시 제물포구 수문통로 27 (화평동)"
   }
  }
 },
 {
  "section": "food",
  "name_ko": "양원",
  "district": "서해구",
  "category": "양식·세계요리",
  "lat": 37.5208227523,
  "lng": 126.6271404661,
  "phone": "",
  "thumb": "",
  "i18n": {
   "ko": {
    "name": "양원",
    "desc": "",
    "address": "인천광역시 서해구 보석로12번안길 28 (청라동)"
   }
  }
 },
 {
  "section": "food",
  "name_ko": "양자강",
  "district": "영종구",
  "category": "중식",
  "lat": 37.4620834421,
  "lng": 126.3720126171,
  "phone": "",
  "thumb": "http://tong.visitkorea.or.kr/cms/resource/32/2834232_image3_1.jpg",
  "i18n": {
   "ko": {
    "name": "양자강",
    "desc": "",
    "address": "인천광역시 영종구 용유서로 494 (을왕동)"
   }
  }
 },
 {
  "section": "food",
  "name_ko": "양평신내서울해장국 부평직영점",
  "district": "부평구",
  "category": "면·국물",
  "lat": 37.4952131762,
  "lng": 126.7026537323,
  "phone": "",
  "thumb": "http://tong.visitkorea.or.kr/cms/resource/45/2835945_image3_1.jpg",
  "i18n": {
   "ko": {
    "name": "양평신내서울해장국 부평직영점",
    "desc": "",
    "address": "인천광역시 부평구 마장로 191 (산곡동)"
   }
  }
 },
 {
  "section": "food",
  "name_ko": "어리버리소머리국밥 본점",
  "district": "계양구",
  "category": "면·국물",
  "lat": 37.5394058382,
  "lng": 126.7352661891,
  "phone": "",
  "thumb": "http://tong.visitkorea.or.kr/cms/resource/22/2848822_image3_1.jpg",
  "i18n": {
   "ko": {
    "name": "어리버리소머리국밥 본점",
    "desc": "",
    "address": "인천광역시 계양구 계산새로65번길 13 (계산동)"
   }
  }
 },
 {
  "section": "food",
  "name_ko": "어부신광호",
  "district": "영종구",
  "category": "한식·백반",
  "lat": 37.4419025801,
  "lng": 126.3791319647,
  "phone": "",
  "thumb": "http://tong.visitkorea.or.kr/cms/resource/16/2845316_image3_1.jpg",
  "i18n": {
   "ko": {
    "name": "어부신광호",
    "desc": "",
    "address": "인천광역시 영종구 선녀바위로55번길 14 (을왕동)"
   }
  }
 },
 {
  "section": "food",
  "name_ko": "어부의집",
  "district": "영종구",
  "category": "한식·백반",
  "lat": 37.4491746221,
  "lng": 126.4172727248,
  "phone": "",
  "thumb": "http://tong.visitkorea.or.kr/cms/resource/83/2786483_image3_1.jpg",
  "i18n": {
   "ko": {
    "name": "어부의집",
    "desc": "",
    "address": "인천광역시 영종구 남북로142번길 2"
   }
  }
 },
 {
  "section": "food",
  "name_ko": "얼레꼴레만두",
  "district": "미추홀구",
  "category": "한식·백반",
  "lat": 37.4447156184,
  "lng": 126.6659973695,
  "phone": "",
  "thumb": "http://tong.visitkorea.or.kr/cms/resource/10/2788110_image3_1.jpg",
  "i18n": {
   "ko": {
    "name": "얼레꼴레만두",
    "desc": "",
    "address": "인천광역시 미추홀구 한나루로 420 (학익동)"
   }
  }
 },
 {
  "section": "food",
  "name_ko": "엉클인더키친 센트럴파크 본점",
  "district": "연수구",
  "category": "양식·세계요리",
  "lat": 37.3963957249,
  "lng": 126.6373096572,
  "phone": "",
  "thumb": "http://tong.visitkorea.or.kr/cms/resource/68/2899968_image3_1.jpg",
  "i18n": {
   "ko": {
    "name": "엉클인더키친 센트럴파크 본점",
    "desc": "",
    "address": "인천광역시 연수구 센트럴로 232 (송도동, 더샵센트럴파크1)"
   }
  }
 },
 {
  "section": "food",
  "name_ko": "에이치 123(h' 123)",
  "district": "연수구",
  "category": "양식·세계요리",
  "lat": 37.3816811302,
  "lng": 126.6579304073,
  "phone": "",
  "thumb": "",
  "i18n": {
   "ko": {
    "name": "에이치 123(h' 123)",
    "desc": "",
    "address": "인천광역시 연수구 송도국제대로 123"
   }
  }
 },
 {
  "section": "food",
  "name_ko": "여인천하조개구이",
  "district": "영종구",
  "category": "해산물·회",
  "lat": 37.4390450868,
  "lng": 126.4082293844,
  "phone": "",
  "thumb": "http://tong.visitkorea.or.kr/cms/resource/26/2845126_image3_1.jpg",
  "i18n": {
   "ko": {
    "name": "여인천하조개구이",
    "desc": "",
    "address": "인천광역시 영종구 마시란로 227 (덕교동)"
   }
  }
 },
 {
  "section": "food",
  "name_ko": "연안부두 목포신안18호횟집",
  "district": "제물포구",
  "category": "해산물·회",
  "lat": 37.4494055387,
  "lng": 126.5978479004,
  "phone": "",
  "thumb": "http://tong.visitkorea.or.kr/cms/resource/97/2846797_image3_1.jpg",
  "i18n": {
   "ko": {
    "name": "연안부두 목포신안18호횟집",
    "desc": "",
    "address": "인천광역시 제물포구 연안부두로 119 (항동7가)"
   }
  }
 },
 {
  "section": "food",
  "name_ko": "연화리가는길",
  "district": "영종구",
  "category": "한식·백반",
  "lat": 37.4956303905,
  "lng": 126.5790955527,
  "phone": "",
  "thumb": "http://tong.visitkorea.or.kr/cms/resource/64/2846864_image3_1.jpg",
  "i18n": {
   "ko": {
    "name": "연화리가는길",
    "desc": "",
    "address": "인천광역시 영종구 영종진광장로 46 (중산동)"
   }
  }
 },
 {
  "section": "food",
  "name_ko": "영종원조국수",
  "district": "영종구",
  "category": "면·국물",
  "lat": 37.4924772707,
  "lng": 126.5388048749,
  "phone": "",
  "thumb": "http://tong.visitkorea.or.kr/cms/resource/87/2875687_image3_1.jpg",
  "i18n": {
   "ko": {
    "name": "영종원조국수",
    "desc": "",
    "address": "인천광역시 영종구 운중로48번길 9 (운남동)"
   }
  }
 },
 {
  "section": "food",
  "name_ko": "영흥도바지락해물칼국수",
  "district": "옹진군",
  "category": "해산물·회",
  "lat": 37.2679914691,
  "lng": 126.4950705914,
  "phone": "",
  "thumb": "http://tong.visitkorea.or.kr/cms/resource/05/2837105_image3_1.jpg",
  "i18n": {
   "ko": {
    "name": "영흥도바지락해물칼국수",
    "desc": "",
    "address": "인천광역시 옹진군 영흥면 영흥북로 195"
   }
  }
 },
 {
  "section": "food",
  "name_ko": "영흥일번지식당",
  "district": "옹진군",
  "category": "한식·백반",
  "lat": 37.2565233844,
  "lng": 126.4967401975,
  "phone": "",
  "thumb": "http://tong.visitkorea.or.kr/cms/resource/08/2834008_image3_1.jpg",
  "i18n": {
   "ko": {
    "name": "영흥일번지식당",
    "desc": "",
    "address": "인천광역시 옹진군 영흥면 영흥북로 3"
   }
  }
 },
 {
  "section": "food",
  "name_ko": "오목골즉석메밀우동 박문점",
  "district": "미추홀구",
  "category": "면·국물",
  "lat": 37.4684375951,
  "lng": 126.6508897553,
  "phone": "",
  "thumb": "",
  "i18n": {
   "ko": {
    "name": "오목골즉석메밀우동 박문점",
    "desc": "",
    "address": "인천광역시 미추홀구 석정로 142"
   }
  }
 },
 {
  "section": "food",
  "name_ko": "오션97",
  "district": "연수구",
  "category": "카페·베이커리",
  "lat": 37.3935904268,
  "lng": 126.6334045354,
  "phone": "",
  "thumb": "http://tong.visitkorea.or.kr/cms/resource/27/2852227_image3_1.jpg",
  "i18n": {
   "ko": {
    "name": "오션97",
    "desc": "",
    "address": "인천광역시 연수구 인천타워대로 257 (송도동)"
   }
  }
 },
 {
  "section": "food",
  "name_ko": "옥골한우정육식당",
  "district": "연수구",
  "category": "고기·구이",
  "lat": 37.4272758507,
  "lng": 126.6587818444,
  "phone": "",
  "thumb": "http://tong.visitkorea.or.kr/cms/resource/36/2852236_image3_1.jpg",
  "i18n": {
   "ko": {
    "name": "옥골한우정육식당",
    "desc": "",
    "address": "인천광역시 연수구 비류대로 216 (옥련동)"
   }
  }
 },
 {
  "section": "food",
  "name_ko": "옥천관",
  "district": "부평구",
  "category": "한식·백반",
  "lat": 37.522871206,
  "lng": 126.7102411576,
  "phone": "",
  "thumb": "",
  "i18n": {
   "ko": {
    "name": "옥천관",
    "desc": "",
    "address": "인천광역시 부평구 안남로 447-2"
   }
  }
 },
 {
  "section": "food",
  "name_ko": "옹기꽃게장",
  "district": "남동구",
  "category": "해산물·회",
  "lat": 37.4248024472,
  "lng": 126.732916823,
  "phone": "",
  "thumb": "http://tong.visitkorea.or.kr/cms/resource/74/2837074_image3_1.jpg",
  "i18n": {
   "ko": {
    "name": "옹기꽃게장",
    "desc": "",
    "address": "인천광역시 남동구 도림북로16번길 31 (도림동)"
   }
  }
 },
 {
  "section": "food",
  "name_ko": "왕가",
  "district": "미추홀구",
  "category": "중식",
  "lat": 37.4403298577,
  "lng": 126.6569788695,
  "phone": "",
  "thumb": "http://tong.visitkorea.or.kr/cms/resource/00/3459700_image3_1.jpg",
  "i18n": {
   "ko": {
    "name": "왕가",
    "desc": "",
    "address": "인천광역시 미추홀구 노적산로 70 (학익동)"
   }
  }
 },
 {
  "section": "food",
  "name_ko": "왕자정묵밥",
  "district": "강화군",
  "category": "한식·백반",
  "lat": 37.751662784,
  "lng": 126.4840665614,
  "phone": "",
  "thumb": "http://tong.visitkorea.or.kr/cms/resource/79/2791379_image3_1.jpg",
  "i18n": {
   "ko": {
    "name": "왕자정묵밥",
    "desc": "",
    "address": "인천광역시 강화군 강화읍 북문길 55"
   }
  }
 },
 {
  "section": "food",
  "name_ko": "욕쟁이할머니보리밥",
  "district": "강화군",
  "category": "한식·백반",
  "lat": 37.6370040838,
  "lng": 126.4928439553,
  "phone": "",
  "thumb": "http://tong.visitkorea.or.kr/cms/resource/64/2878164_image3_1.jpg",
  "i18n": {
   "ko": {
    "name": "욕쟁이할머니보리밥",
    "desc": "",
    "address": "인천광역시 강화군 길상면 전등사로 93-2"
   }
  }
 },
 {
  "section": "food",
  "name_ko": "용궁횟집",
  "district": "강화군",
  "category": "해산물·회",
  "lat": 37.6395630443,
  "lng": 126.3873174363,
  "phone": "",
  "thumb": "http://tong.visitkorea.or.kr/cms/resource/17/2787517_image3_1.jpg",
  "i18n": {
   "ko": {
    "name": "용궁횟집",
    "desc": "",
    "address": "인천광역시 강화군 화도면 해안남로 2805"
   }
  }
 },
 {
  "section": "food",
  "name_ko": "우나기노켄",
  "district": "연수구",
  "category": "일식",
  "lat": 37.4153466725,
  "lng": 126.6583544371,
  "phone": "",
  "thumb": "http://tong.visitkorea.or.kr/cms/resource/02/2855302_image3_1.jpg",
  "i18n": {
   "ko": {
    "name": "우나기노켄",
    "desc": "",
    "address": "인천광역시 연수구 청량로70번길 8 (동춘동)"
   }
  }
 },
 {
  "section": "food",
  "name_ko": "우만당",
  "district": "연수구",
  "category": "양식·세계요리",
  "lat": 37.3940347034,
  "lng": 126.6267967918,
  "phone": "",
  "thumb": "http://tong.visitkorea.or.kr/cms/resource/13/2853813_image3_1.jpg",
  "i18n": {
   "ko": {
    "name": "우만당",
    "desc": "",
    "address": "인천광역시 연수구 아트센터대로 222 아트센터 인천(콘서트홀)"
   }
  }
 },
 {
  "section": "food",
  "name_ko": "우순임원조할머니쭈꾸미",
  "district": "제물포구",
  "category": "해산물·회",
  "lat": 37.4809717153,
  "lng": 126.6205977266,
  "phone": "",
  "thumb": "http://tong.visitkorea.or.kr/cms/resource/05/2835505_image3_1.jpg",
  "i18n": {
   "ko": {
    "name": "우순임원조할머니쭈꾸미",
    "desc": "",
    "address": "인천광역시 제물포구 제물량로 340-1 (만석동)"
   }
  }
 },
 {
  "section": "food",
  "name_ko": "우트우트",
  "district": "강화군",
  "category": "카페·베이커리",
  "lat": 37.642208992,
  "lng": 126.4905273558,
  "phone": "",
  "thumb": "http://tong.visitkorea.or.kr/cms/resource/84/2872284_image3_1.jpg",
  "i18n": {
   "ko": {
    "name": "우트우트",
    "desc": "",
    "address": "인천광역시 강화군 마니산로 12"
   }
  }
 },
 {
  "section": "food",
  "name_ko": "우판등심",
  "district": "연수구",
  "category": "한식·백반",
  "lat": 37.4140273845,
  "lng": 126.6585377902,
  "phone": "",
  "thumb": "",
  "i18n": {
   "ko": {
    "name": "우판등심",
    "desc": "",
    "address": "인천광역시 연수구 청량로 61"
   }
  }
 },
 {
  "section": "food",
  "name_ko": "원갈비",
  "district": "서해구",
  "category": "고기·구이",
  "lat": 37.5418266266,
  "lng": 126.6702442788,
  "phone": "",
  "thumb": "http://tong.visitkorea.or.kr/cms/resource/86/2877286_image3_1.jpg",
  "i18n": {
   "ko": {
    "name": "원갈비",
    "desc": "",
    "address": "인천광역시 서해구 심곡로8번길 4 (심곡동)"
   }
  }
 },
 {
  "section": "food",
  "name_ko": "위크엔드 라운지(wknd Lounge)",
  "district": "제물포구",
  "category": "카페·베이커리",
  "lat": 37.4749113823,
  "lng": 126.6248002888,
  "phone": "",
  "thumb": "http://tong.visitkorea.or.kr/cms/resource/74/2847074_image3_1.jpg",
  "i18n": {
   "ko": {
    "name": "위크엔드 라운지(wknd Lounge)",
    "desc": "",
    "address": "인천광역시 제물포구 송학로 63 (송학동2가)"
   }
  }
 },
 {
  "section": "food",
  "name_ko": "유노미",
  "district": "남동구",
  "category": "양식·세계요리",
  "lat": 37.4453190253,
  "lng": 126.705543747,
  "phone": "",
  "thumb": "http://tong.visitkorea.or.kr/cms/resource/10/2828910_image3_1.jpg",
  "i18n": {
   "ko": {
    "name": "유노미",
    "desc": "",
    "address": "인천광역시 남동구 성말로 43 (구월동)"
   }
  }
 },
 {
  "section": "food",
  "name_ko": "유정집",
  "district": "영종구",
  "category": "한식·백반",
  "lat": 37.4962650527,
  "lng": 126.500836016,
  "phone": "",
  "thumb": "http://tong.visitkorea.or.kr/cms/resource/56/2848756_image3_1.jpg",
  "i18n": {
   "ko": {
    "name": "유정집",
    "desc": "",
    "address": "인천광역시 영종구 화랑목로100번길 39 와이디캐슬"
   }
  }
 },
 {
  "section": "food",
  "name_ko": "유진면옥",
  "district": "강화군",
  "category": "한식·백반",
  "lat": 37.6559312925,
  "lng": 126.4278993759,
  "phone": "",
  "thumb": "http://tong.visitkorea.or.kr/cms/resource/68/2878168_image3_1.jpg",
  "i18n": {
   "ko": {
    "name": "유진면옥",
    "desc": "",
    "address": "인천광역시 강화군 양도면 강화남로 606-1"
   }
  }
 },
 {
  "section": "food",
  "name_ko": "육가대표 청라",
  "district": "서해구",
  "category": "한식·백반",
  "lat": 37.5290943044,
  "lng": 126.643677615,
  "phone": "",
  "thumb": "http://tong.visitkorea.or.kr/cms/resource/92/2670792_image3_1.jpg",
  "i18n": {
   "ko": {
    "name": "육가대표 청라",
    "desc": "",
    "address": "인천광역시 서해구 청라커낼로 229-12"
   }
  }
 },
 {
  "section": "food",
  "name_ko": "윤가네칼국수",
  "district": "연수구",
  "category": "면·국물",
  "lat": 37.4238678826,
  "lng": 126.6570515412,
  "phone": "",
  "thumb": "http://tong.visitkorea.or.kr/cms/resource/74/2906974_image3_1.jpg",
  "i18n": {
   "ko": {
    "name": "윤가네칼국수",
    "desc": "",
    "address": "인천광역시 연수구 청룡로30번길 2 (옥련동)"
   }
  }
 },
 {
  "section": "food",
  "name_ko": "은옥",
  "district": "서해구",
  "category": "일식",
  "lat": 37.5377682925,
  "lng": 126.6434912798,
  "phone": "",
  "thumb": "http://tong.visitkorea.or.kr/cms/resource/06/2842106_image3_1.jpg",
  "i18n": {
   "ko": {
    "name": "은옥",
    "desc": "",
    "address": "인천광역시 서해구 청라커낼로329번길 19-3 (청라동)"
   }
  }
 },
 {
  "section": "food",
  "name_ko": "을왕리꾸덕집",
  "district": "영종구",
  "category": "한식·백반",
  "lat": 37.4462216093,
  "lng": 126.3841369444,
  "phone": "",
  "thumb": "",
  "i18n": {
   "ko": {
    "name": "을왕리꾸덕집",
    "desc": "",
    "address": "인천광역시 영종구 용유서로174번길 44"
   }
  }
 },
 {
  "section": "food",
  "name_ko": "을왕리빵판다카페",
  "district": "영종구",
  "category": "카페·베이커리",
  "lat": 37.4671273033,
  "lng": 126.3722152378,
  "phone": "",
  "thumb": "http://tong.visitkorea.or.kr/cms/resource/05/2839605_image3_1.jpg",
  "i18n": {
   "ko": {
    "name": "을왕리빵판다카페",
    "desc": "",
    "address": "인천광역시 영종구 용유로745번길 14 (을왕동)"
   }
  }
 },
 {
  "section": "food",
  "name_ko": "을왕리짱구네",
  "district": "영종구",
  "category": "한식·백반",
  "lat": 37.4452132755,
  "lng": 126.3773375937,
  "phone": "",
  "thumb": "http://tong.visitkorea.or.kr/cms/resource/22/2846822_image3_1.jpg",
  "i18n": {
   "ko": {
    "name": "을왕리짱구네",
    "desc": "",
    "address": "인천광역시 영종구 용유서로274번길 13 (을왕동)"
   }
  }
 },
 {
  "section": "food",
  "name_ko": "이대조감자탕",
  "district": "미추홀구",
  "category": "면·국물",
  "lat": 37.4542000678,
  "lng": 126.6342749995,
  "phone": "",
  "thumb": "http://tong.visitkorea.or.kr/cms/resource/99/2835899_image3_1.jpg",
  "i18n": {
   "ko": {
    "name": "이대조감자탕",
    "desc": "",
    "address": "인천광역시 미추홀구 토금중로 6 (용현동)"
   }
  }
 },
 {
  "section": "food",
  "name_ko": "이스트 바이 게이트",
  "district": "연수구",
  "category": "양식·세계요리",
  "lat": 37.3816811302,
  "lng": 126.6579304073,
  "phone": "",
  "thumb": "http://tong.visitkorea.or.kr/cms/resource/63/2926863_image3_1.jpg",
  "i18n": {
   "ko": {
    "name": "이스트 바이 게이트",
    "desc": "",
    "address": "인천광역시 연수구 송도국제대로 123"
   }
  }
 },
 {
  "section": "food",
  "name_ko": "이화찹쌀순대",
  "district": "제물포구",
  "category": "한식·백반",
  "lat": 37.4643267796,
  "lng": 126.6405547011,
  "phone": "",
  "thumb": "http://tong.visitkorea.or.kr/cms/resource/85/2839685_image3_1.jpg",
  "i18n": {
   "ko": {
    "name": "이화찹쌀순대",
    "desc": "",
    "address": "인천광역시 제물포구 인중로26번길 25 (도원동)"
   }
  }
 },
 {
  "section": "food",
  "name_ko": "인동잔치국수",
  "district": "계양구",
  "category": "면·국물",
  "lat": 37.5270955245,
  "lng": 126.6994947978,
  "phone": "",
  "thumb": "",
  "i18n": {
   "ko": {
    "name": "인동잔치국수",
    "desc": "",
    "address": "인천광역시 계양구 효서로 31-1"
   }
  }
 },
 {
  "section": "food",
  "name_ko": "인하의집",
  "district": "제물포구",
  "category": "한식·백반",
  "lat": 37.4757391325,
  "lng": 126.6286721354,
  "phone": "",
  "thumb": "http://tong.visitkorea.or.kr/cms/resource/88/3037488_image3_1.jpg",
  "i18n": {
   "ko": {
    "name": "인하의집",
    "desc": "",
    "address": "인천광역시 제물포구 우현로67번길 57"
   }
  }
 },
 {
  "section": "food",
  "name_ko": "일년내내칼국수맛있는집",
  "district": "강화군",
  "category": "면·국물",
  "lat": 37.5918754714,
  "lng": 126.4623479995,
  "phone": "",
  "thumb": "http://tong.visitkorea.or.kr/cms/resource/14/2872314_image3_1.jpg",
  "i18n": {
   "ko": {
    "name": "일년내내칼국수맛있는집",
    "desc": "",
    "address": "인천광역시 강화군 화도면 해안남로 1421"
   }
  }
 },
 {
  "section": "food",
  "name_ko": "일미민물장어",
  "district": "강화군",
  "category": "해산물·회",
  "lat": 37.7238637534,
  "lng": 126.5126980482,
  "phone": "",
  "thumb": "",
  "i18n": {
   "ko": {
    "name": "일미민물장어",
    "desc": "",
    "address": "인천광역시 강화군 선원면 더리미길 2"
   }
  }
 },
 {
  "section": "food",
  "name_ko": "일오삼간장게장",
  "district": "강화군",
  "category": "해산물·회",
  "lat": 37.7006034857,
  "lng": 126.4064862079,
  "phone": "",
  "thumb": "http://tong.visitkorea.or.kr/cms/resource/77/2836877_image3_1.jpg",
  "i18n": {
   "ko": {
    "name": "일오삼간장게장",
    "desc": "",
    "address": "인천광역시 강화군 양도면 중앙로1052번길 16"
   }
  }
 },
 {
  "section": "food",
  "name_ko": "임파스토",
  "district": "연수구",
  "category": "양식·세계요리",
  "lat": 37.3953096357,
  "lng": 126.6313907825,
  "phone": "",
  "thumb": "http://tong.visitkorea.or.kr/cms/resource/58/2789458_image3_1.jpg",
  "i18n": {
   "ko": {
    "name": "임파스토",
    "desc": "",
    "address": "인천광역시 연수구 아트센터대로 203"
   }
  }
 },
 {
  "section": "food",
  "name_ko": "잉글랜드왕돈까스",
  "district": "제물포구",
  "category": "한식·백반",
  "lat": 37.4743032298,
  "lng": 126.6310219606,
  "phone": "",
  "thumb": "http://tong.visitkorea.or.kr/cms/resource/42/2787542_image3_1.jpg",
  "i18n": {
   "ko": {
    "name": "잉글랜드왕돈까스",
    "desc": "",
    "address": "인천광역시 제물포구 우현로90번길 7"
   }
  }
 },
 {
  "section": "food",
  "name_ko": "자미궁 제빵소",
  "district": "검단구",
  "category": "카페·베이커리",
  "lat": 37.5959263172,
  "lng": 126.6944322245,
  "phone": "",
  "thumb": "http://tong.visitkorea.or.kr/cms/resource/70/3578370_image3_1.jpg",
  "i18n": {
   "ko": {
    "name": "자미궁 제빵소",
    "desc": "",
    "address": "인천광역시 검단구 원당대로819번길 38 (원당동)"
   }
  }
 },
 {
  "section": "food",
  "name_ko": "잔잔한 식탁",
  "district": "강화군",
  "category": "한식·백반",
  "lat": 37.6387899641,
  "lng": 126.4915551349,
  "phone": "",
  "thumb": "http://tong.visitkorea.or.kr/cms/resource/95/3412795_image3_1.jpg",
  "i18n": {
   "ko": {
    "name": "잔잔한 식탁",
    "desc": "",
    "address": "인천광역시 강화군 길상면 삼랑성길 (7, 라인빌딩)"
   }
  }
 },
 {
  "section": "food",
  "name_ko": "장곶횟집",
  "district": "강화군",
  "category": "해산물·회",
  "lat": 37.6286669204,
  "lng": 126.3775241904,
  "phone": "",
  "thumb": "",
  "i18n": {
   "ko": {
    "name": "장곶횟집",
    "desc": "",
    "address": "인천광역시 강화군 화도면 해안남로 2532"
   }
  }
 },
 {
  "section": "food",
  "name_ko": "장기리추어탕",
  "district": "계양구",
  "category": "면·국물",
  "lat": 37.5770181546,
  "lng": 126.7366372329,
  "phone": "",
  "thumb": "http://tong.visitkorea.or.kr/cms/resource/85/2876185_image3_1.jpg",
  "i18n": {
   "ko": {
    "name": "장기리추어탕",
    "desc": "",
    "address": "인천광역시 계양구 장기로2번길 5 (장기동)"
   }
  }
 },
 {
  "section": "food",
  "name_ko": "장독집",
  "district": "연수구",
  "category": "한식·백반",
  "lat": 37.4148300932,
  "lng": 126.6598570922,
  "phone": "",
  "thumb": "http://tong.visitkorea.or.kr/cms/resource/78/2906978_image3_1.jpg",
  "i18n": {
   "ko": {
    "name": "장독집",
    "desc": "",
    "address": "인천광역시 연수구 청량로46번길 30 (동춘동)"
   }
  }
 },
 {
  "section": "food",
  "name_ko": "장어마을",
  "district": "강화군",
  "category": "해산물·회",
  "lat": 37.6098577235,
  "lng": 126.5199783387,
  "phone": "",
  "thumb": "",
  "i18n": {
   "ko": {
    "name": "장어마을",
    "desc": "",
    "address": "인천광역시 강화군 길상면 해안남로 298"
   }
  }
 },
 {
  "section": "food",
  "name_ko": "장풍송도장어",
  "district": "연수구",
  "category": "해산물·회",
  "lat": 37.3856915283,
  "lng": 126.6438510241,
  "phone": "",
  "thumb": "http://tong.visitkorea.or.kr/cms/resource/49/2852249_image3_1.jpg",
  "i18n": {
   "ko": {
    "name": "장풍송도장어",
    "desc": "",
    "address": "인천광역시 연수구 테크노파크로111번길 10 장풍숯불장어구이"
   }
  }
 },
 {
  "section": "food",
  "name_ko": "전구식당",
  "district": "연수구",
  "category": "한식·백반",
  "lat": 37.3977485997,
  "lng": 126.6516916425,
  "phone": "",
  "thumb": "http://tong.visitkorea.or.kr/cms/resource/57/2852257_image3_1.jpg",
  "i18n": {
   "ko": {
    "name": "전구식당",
    "desc": "",
    "address": "인천광역시 연수구 컨벤시아대로 50 푸르지오월드마크"
   }
  }
 },
 {
  "section": "food",
  "name_ko": "전동삼치",
  "district": "제물포구",
  "category": "한식·백반",
  "lat": 37.476041874,
  "lng": 126.628605466,
  "phone": "",
  "thumb": "",
  "i18n": {
   "ko": {
    "name": "전동삼치",
    "desc": "",
    "address": "인천광역시 제물포구 홍예문로68번길 29"
   }
  }
 },
 {
  "section": "food",
  "name_ko": "전라도대왕조개구이",
  "district": "제물포구",
  "category": "해산물·회",
  "lat": 37.4759913394,
  "lng": 126.5979443767,
  "phone": "",
  "thumb": "http://tong.visitkorea.or.kr/cms/resource/45/2846845_image3_1.jpg",
  "i18n": {
   "ko": {
    "name": "전라도대왕조개구이",
    "desc": "",
    "address": "인천광역시 제물포구 월미문화로 27 (북성동1가)"
   }
  }
 },
 {
  "section": "food",
  "name_ko": "전복촌",
  "district": "남동구",
  "category": "한식·백반",
  "lat": 37.452440385,
  "lng": 126.7035631741,
  "phone": "",
  "thumb": "http://tong.visitkorea.or.kr/cms/resource/20/2906920_image3_1.jpg",
  "i18n": {
   "ko": {
    "name": "전복촌",
    "desc": "",
    "address": "인천광역시 남동구 예술로204번길 35 (구월동)"
   }
  }
 },
 {
  "section": "food",
  "name_ko": "정밀",
  "district": "부평구",
  "category": "한식·백반",
  "lat": 37.4812869009,
  "lng": 126.6960797201,
  "phone": "",
  "thumb": "http://tong.visitkorea.or.kr/cms/resource/96/2873796_image3_1.jpg",
  "i18n": {
   "ko": {
    "name": "정밀",
    "desc": "",
    "address": "인천광역시 부평구 함봉로 25 (십정동)"
   }
  }
 },
 {
  "section": "food",
  "name_ko": "정원식탁",
  "district": "강화군",
  "category": "한식·백반",
  "lat": 37.608588415,
  "lng": 126.519297881,
  "phone": "",
  "thumb": "http://tong.visitkorea.or.kr/cms/resource/39/2872339_image3_1.jpg",
  "i18n": {
   "ko": {
    "name": "정원식탁",
    "desc": "",
    "address": "인천광역시 강화군 길상면 해안남로 309"
   }
  }
 },
 {
  "section": "food",
  "name_ko": "젠젠",
  "district": "연수구",
  "category": "카페·베이커리",
  "lat": 37.3810145195,
  "lng": 126.6566777626,
  "phone": "",
  "thumb": "http://tong.visitkorea.or.kr/cms/resource/31/2787531_image3_1.jpg",
  "i18n": {
   "ko": {
    "name": "젠젠",
    "desc": "",
    "address": "인천광역시 연수구 송도국제대로 157"
   }
  }
 },
 {
  "section": "food",
  "name_ko": "조박사소머리국밥 청라본점",
  "district": "서해구",
  "category": "면·국물",
  "lat": 37.5389406819,
  "lng": 126.6606674555,
  "phone": "",
  "thumb": "http://tong.visitkorea.or.kr/cms/resource/96/2844596_image3_1.jpg",
  "i18n": {
   "ko": {
    "name": "조박사소머리국밥 청라본점",
    "desc": "",
    "address": "인천광역시 서해구 담지로104번길 28 (청라동)"
   }
  }
 },
 {
  "section": "food",
  "name_ko": "조은전골칼국수",
  "district": "영종구",
  "category": "면·국물",
  "lat": 37.4932272575,
  "lng": 126.5430044708,
  "phone": "",
  "thumb": "http://tong.visitkorea.or.kr/cms/resource/48/2845248_image3_1.jpg",
  "i18n": {
   "ko": {
    "name": "조은전골칼국수",
    "desc": "",
    "address": "인천광역시 영종구 운중로 84 (운남동)"
   }
  }
 },
 {
  "section": "food",
  "name_ko": "지금이곳",
  "district": "영종구",
  "category": "카페·베이커리",
  "lat": 37.4861390891,
  "lng": 126.5370940954,
  "phone": "",
  "thumb": "http://tong.visitkorea.or.kr/cms/resource/54/2834254_image3_1.jpg",
  "i18n": {
   "ko": {
    "name": "지금이곳",
    "desc": "",
    "address": "인천광역시 영종구 운남로82번길 40 (운남동)"
   }
  }
 },
 {
  "section": "food",
  "name_ko": "지츠겐",
  "district": "연수구",
  "category": "일식",
  "lat": 37.3840944889,
  "lng": 126.6437010817,
  "phone": "",
  "thumb": "http://tong.visitkorea.or.kr/cms/resource/09/3446409_image3_1.jpg",
  "i18n": {
   "ko": {
    "name": "지츠겐",
    "desc": "",
    "address": "인천광역시 연수구 하모니로 144 (송도동, 송도 지웰 푸르지오시티)"
   }
  }
 },
 {
  "section": "food",
  "name_ko": "진시황감자탕",
  "district": "연수구",
  "category": "면·국물",
  "lat": 37.4140055078,
  "lng": 126.6779471321,
  "phone": "",
  "thumb": "",
  "i18n": {
   "ko": {
    "name": "진시황감자탕",
    "desc": "",
    "address": "인천광역시 연수구 청능대로113번길 37"
   }
  }
 },
 {
  "section": "food",
  "name_ko": "진천토종순대",
  "district": "서해구",
  "category": "한식·백반",
  "lat": 37.4933935369,
  "lng": 126.6797003212,
  "phone": "",
  "thumb": "http://tong.visitkorea.or.kr/cms/resource/59/2833759_image3_1.jpg",
  "i18n": {
   "ko": {
    "name": "진천토종순대",
    "desc": "",
    "address": "인천광역시 서해구 신진말로 37 (가좌동)"
   }
  }
 },
 {
  "section": "food",
  "name_ko": "진해식당",
  "district": "강화군",
  "category": "한식·백반",
  "lat": 37.7352458111,
  "lng": 126.5156224616,
  "phone": "",
  "thumb": "http://tong.visitkorea.or.kr/cms/resource/76/2791376_image2_1.jpg",
  "i18n": {
   "ko": {
    "name": "진해식당",
    "desc": "",
    "address": "인천광역시 강화군 강화읍 해안동로1366번길 9"
   }
  }
 },
 {
  "section": "food",
  "name_ko": "진흥각",
  "district": "제물포구",
  "category": "중식",
  "lat": 37.4717561786,
  "lng": 126.6239337891,
  "phone": "",
  "thumb": "http://tong.visitkorea.or.kr/cms/resource/97/2875697_image3_1.jpg",
  "i18n": {
   "ko": {
    "name": "진흥각",
    "desc": "",
    "address": "인천광역시 제물포구 신포로23번길 20"
   }
  }
 },
 {
  "section": "food",
  "name_ko": "짱구네",
  "district": "영종구",
  "category": "한식·백반",
  "lat": 37.4954262368,
  "lng": 126.499441722,
  "phone": "",
  "thumb": "http://tong.visitkorea.or.kr/cms/resource/69/3578669_image3_1.jpg",
  "i18n": {
   "ko": {
    "name": "짱구네",
    "desc": "",
    "address": "인천광역시 영종구 햇내로안길 18-7"
   }
  }
 },
 {
  "section": "food",
  "name_ko": "쭈꾸미일당백본점",
  "district": "검단구",
  "category": "해산물·회",
  "lat": 37.594348773,
  "lng": 126.6972820079,
  "phone": "",
  "thumb": "http://tong.visitkorea.or.kr/cms/resource/61/2845161_image3_1.jpg",
  "i18n": {
   "ko": {
    "name": "쭈꾸미일당백본점",
    "desc": "",
    "address": "인천광역시 검단구 고산후로121번안길 14 (원당동)"
   }
  }
 },