[{"seq":"580","section":"stay","name_ko":"덴바스타호텔 구서점","thumb":"https://www.visitbusan.net/uploadImgs/files/cntnts/20230216105850454_thumbL","views":0,"likes":0,"district":"금정구","lat":35.244873,"lng":129.09192,"phone":"","homepage":"","category":"호텔","stay_type":"관광호텔","i18n":{"ko":{"name":"덴바스타호텔 구서점","address":"부산광역시 금정구 금정로 242","type":"관광호텔"}},"detail_url":"https://www.visitbusan.net/index.do?menuCd=DOM_000000201004001000&uc_seq=580&lang_cd=ko"},{"seq":"583","section":"stay","name_ko":"라이온호텔","thumb":"https://www.visitbusan.net/uploadImgs/files/cntnts/20221130134519791_thumbL","views":0,"likes":0,"district":"부산진구","lat":35.15511,"lng":129.05612,"phone":"","homepage":"","category":"호텔","stay_type":"관광호텔   2성","i18n":{"ko":{"name":"라이온호텔","address":"부산광역시 부산진구 중앙대로691번가길 14-7","type":"관광호텔   2성"}},"detail_url":"https://www.visitbusan.net/index.do?menuCd=DOM_000000201004001000&uc_seq=583&lang_cd=ko"},{"seq":"584","section":"stay","name_ko":"브라운도트호텔 덕천점","thumb":"https://www.visitbusan.net/uploadImgs/files/cntnts/20230220171931143_thumbL","views":0,"likes":0,"district":"북구","lat":35.21084,"lng":129.00629,"phone":"","homepage":"","category":"호텔","stay_type":"관광호텔   2성","i18n":{"ko":{"name":"브라운도트호텔 덕천점","address":"부산광역시 북구 금곡대로8번길 20 (덕천동)","type":"관광호텔   2성"}},"detail_url":"https://www.visitbusan.net/index.do?menuCd=DOM_000000201004001000&uc_seq=584&lang_cd=ko"},{"seq":"588","section":"stay","name_ko":"유엔송도호텔(뉴엔송도호텔)","thumb":"https://www.visitbusan.net/uploadImgs/files/cntnts/20200309151123446_thumbL","views":0,"likes":0,"district":"서구","lat":35.077236,"lng":129.01642,"phone":"","homepage":"","category":"호텔","stay_type":"관광호텔","i18n":{"ko":{"name":"유엔송도호텔(뉴엔송도호텔)","address":"부산광역시 서구 충무대로 16","type":"관광호텔"}},"detail_url":"https://www.visitbusan.net/index.do?menuCd=DOM_000000201004001000&uc_seq=588&lang_cd=ko"},{"seq":"589","section":"stay","name_ko":"유토피아관광호텔","thumb":"https://www.visitbusan.net/uploadImgs/files/cntnts/20200309160746394_thumbL","views":0,"likes":0,"district":"수영구","lat":35.16744,"lng":129.11711,"phone":"","homepage":"","category":"호텔","stay_type":"관광호텔","i18n":{"ko":{"name":"유토피아관광호텔","address":"부산광역시 수영구 무학로9번길 133 (광안동)","type":"관광호텔"}},"detail_url":"https://www.visitbusan.net/index.do?menuCd=DOM_000000201004001000&uc_seq=589&lang_cd=ko"},{"seq":"590","section":"stay","name_ko":"파크하얏트부산","thumb":"https://www.visitbusan.net/uploadImgs/files/cntnts/20221208221633330_thumbL","views":0,"likes":0,"district":"해운대구","lat":35.156567,"lng":129.14197,"phone":"","homepage":"","category":"호텔","stay_type":"관광호텔   5성","i18n":{"ko":{"name":"파크하얏트부산","address":"부산광역시 해운대구 마린시티1로 51 (우동)","type":"관광호텔   5성"}},"detail_url":"https://www.visitbusan.net/index.do?menuCd=DOM_000000201004001000&uc_seq=590&lang_cd=ko"},{"seq":"591","section":"stay","name_ko":"파라다이스호텔부산","thumb":"https://www.visitbusan.net/uploadImgs/files/cntnts/20221130141810320_thumbL","views":0,"likes":0,"district":"해운대구","lat":35.160034,"lng":129.16446,"phone":"","homepage":"","category":"호텔","stay_type":"관광호텔   5성","i18n":{"ko":{"name":"파라다이스호텔부산","address":"부산광역시 해운대구 해운대해변로 296 (중동, 파라다이스 호텔)","type":"관광호텔   5성"}},"detail_url":"https://www.visitbusan.net/index.do?menuCd=DOM_000000201004001000&uc_seq=591&lang_cd=ko"},{"seq":"592","section":"stay","name_ko":"웨스틴 조선 부산","thumb":"https://www.visitbusan.net/uploadImgs/files/cntnts/20250310140934967_thumbL","views":0,"likes":0,"district":"해운대구","lat":35.156128,"lng":129.15404,"phone":"","homepage":"","category":"호텔","stay_type":"관광호텔   5성","i18n":{"ko":{"name":"웨스틴 조선 부산","address":"부산광역시 해운대구 동백로 67 (우동)","type":"관광호텔   5성"}},"detail_url":"https://www.visitbusan.net/index.do?menuCd=DOM_000000201004001000&uc_seq=592&lang_cd=ko"},{"seq":"593","section":"stay","name_ko":"부산롯데호텔","thumb":"https://www.visitbusan.net/uploadImgs/files/cntnts/20221130131734589_thumbL","views":0,"likes":0,"district":"부산진구","lat":35.15653,"lng":129.0558,"phone":"","homepage":"","category":"호텔","stay_type":"관광호텔   5성","i18n":{"ko":{"name":"부산롯데호텔","address":"부산광역시 부산진구 가야대로 772","type":"관광호텔   5성"}},"detail_url":"https://www.visitbusan.net/index.do?menuCd=DOM_000000201004001000&uc_seq=593&lang_cd=ko"},{"seq":"594","section":"stay","name_ko":"아난티 앳 부산 코브","thumb":"https://www.visitbusan.net/uploadImgs/files/cntnts/20200316133423470_thumbL","views":0,"likes":0,"district":"기장군","lat":35.197693,"lng":129.22807,"phone":"","homepage":"","category":"호텔","stay_type":"관광호텔   5성","i18n":{"ko":{"name":"아난티 앳 부산 코브","address":"부산광역시 기장군 기장읍 기장해안로 268-32","type":"관광호텔   5성"}},"detail_url":"https://www.visitbusan.net/index.do?menuCd=DOM_000000201004001000&uc_seq=594&lang_cd=ko"},{"seq":"595","section":"stay","name_ko":"호텔농심","thumb":"https://www.visitbusan.net/uploadImgs/files/cntnts/20221130171719946_thumbL","views":0,"likes":0,"district":"동래구","lat":35.220238,"lng":129.0823,"phone":"","homepage":"","category":"호텔","stay_type":"관광호텔   5성","i18n":{"ko":{"name":"호텔농심","address":"부산광역시 동래구 금강공원로20번길 23(온천동)","type":"관광호텔   5성"}},"detail_url":"https://www.visitbusan.net/index.do?menuCd=DOM_000000201004001000&uc_seq=595&lang_cd=ko"},{"seq":"596","section":"stay","name_ko":"신라스테이 해운대","thumb":"https://www.visitbusan.net/uploadImgs/files/cntnts/20200316133904323_thumbL","views":0,"likes":0,"district":"해운대구","lat":35.15978,"lng":129.15875,"phone":"","homepage":"","category":"호텔","stay_type":"관광호텔   4성","i18n":{"ko":{"name":"신라스테이 해운대","address":"부산광역시 해운대구 해운대로570번길 46 (우동)","type":"관광호텔   4성"}},"detail_url":"https://www.visitbusan.net/index.do?menuCd=DOM_000000201004001000&uc_seq=596&lang_cd=ko"},{"seq":"597","section":"stay","name_ko":"아스티호텔","thumb":"https://www.visitbusan.net/uploadImgs/files/cntnts/20230220101326445_thumbL","views":0,"likes":0,"district":"동구","lat":35.11618,"lng":129.04189,"phone":"","homepage":"","category":"호텔","stay_type":"관광호텔   4성","i18n":{"ko":{"name":"아스티호텔","address":"부산광역시 동구 중앙대로214번길 7-8 (초량동)","type":"관광호텔   4성"}},"detail_url":"https://www.visitbusan.net/index.do?menuCd=DOM_000000201004001000&uc_seq=597&lang_cd=ko"},{"seq":"600","section":"stay","name_ko":"(주)코모도호텔","thumb":"https://www.visitbusan.net/uploadImgs/files/cntnts/20200316135712076_thumbL","views":0,"likes":0,"district":"중구","lat":35.10922,"lng":129.03549,"phone":"","homepage":"","category":"호텔","stay_type":"관광호텔   4성","i18n":{"ko":{"name":"(주)코모도호텔","address":"부산광역시 중구 중구로 151(영주동)","type":"관광호텔   4성"}},"detail_url":"https://www.visitbusan.net/index.do?menuCd=DOM_000000201004001000&uc_seq=600&lang_cd=ko"},{"seq":"601","section":"stay","name_ko":"한화리조트 해운대","thumb":"https://www.visitbusan.net/uploadImgs/files/cntnts/20221130135738999_thumbL","views":0,"likes":0,"district":"해운대구","lat":35.154415,"lng":129.14507,"phone":"","homepage":"","category":"리조트·콘도","stay_type":"휴양콘도","i18n":{"ko":{"name":"한화리조트 해운대","address":"부산광역시 해운대구 마린시티3로 52 (우동)","type":"휴양콘도"}},"detail_url":"https://www.visitbusan.net/index.do?menuCd=DOM_000000201004001000&uc_seq=601&lang_cd=ko"},{"seq":"602","section":"stay","name_ko":"해운대비치골프앤리조트","thumb":"https://www.visitbusan.net/uploadImgs/files/cntnts/20230220102049961_thumbL","views":0,"likes":0,"district":"기장군","lat":35.224834,"lng":129.22032,"phone":"","homepage":"","category":"리조트·콘도","stay_type":"휴양콘도","i18n":{"ko":{"name":"해운대비치골프앤리조트","address":"부산광역시 기장군 기장읍 대변로 74","type":"휴양콘도"}},"detail_url":"https://www.visitbusan.net/index.do?menuCd=DOM_000000201004001000&uc_seq=602&lang_cd=ko"},{"seq":"605","section":"stay","name_ko":"소노문 해운대","thumb":"https://www.visitbusan.net/uploadImgs/files/cntnts/20250211151934329_thumbL","views":0,"likes":0,"district":"해운대구","lat":35.159817,"lng":129.15796,"phone":"","homepage":"","category":"호텔","stay_type":"관광호텔   3성","i18n":{"ko":{"name":"소노문 해운대","address":"부산광역시 해운대구 해운대해변로237번길 12 (우동)","type":"관광호텔   3성"}},"detail_url":"https://www.visitbusan.net/index.do?menuCd=DOM_000000201004001000&uc_seq=605&lang_cd=ko"},{"seq":"606","section":"stay","name_ko":"베니키아호텔해운대","thumb":"https://www.visitbusan.net/uploadImgs/files/cntnts/20230220102659552_thumbL","views":0,"likes":0,"district":"해운대구","lat":35.162178,"lng":129.16484,"phone":"","homepage":"","category":"호텔","stay_type":"관광호텔   3성","i18n":{"ko":{"name":"베니키아호텔해운대","address":"부산광역시 해운대구 해운대해변로 317 (중동, 베니키아해운대호텔)","type":"관광호텔   3성"}},"detail_url":"https://www.visitbusan.net/index.do?menuCd=DOM_000000201004001000&uc_seq=606&lang_cd=ko"},{"seq":"607","section":"stay","name_ko":"호텔포레 더 스파","thumb":"https://www.visitbusan.net/uploadImgs/files/cntnts/20240809092244140_thumbL","views":0,"likes":0,"district":"동구","lat":35.12256,"lng":129.0446,"phone":"","homepage":"","category":"호텔","stay_type":"관광호텔   2성","i18n":{"ko":{"name":"호텔포레 더 스파","address":"부산광역시 동구 중앙대로296번길 6 (초량동)","type":"관광호텔   2성"}},"detail_url":"https://www.visitbusan.net/index.do?menuCd=DOM_000000201004001000&uc_seq=607&lang_cd=ko"},{"seq":"608","section":"stay","name_ko":"마리안느호텔","thumb":"https://www.visitbusan.net/uploadImgs/files/cntnts/20200316142513795_thumbL","views":0,"likes":0,"district":"해운대구","lat":35.161465,"lng":129.16463,"phone":"","homepage":"","category":"호텔","stay_type":"관광호텔   3성","i18n":{"ko":{"name":"마리안느호텔","address":"부산광역시 해운대구 해운대해변로 310 (중동, 마리안느호텔)","type":"관광호텔   3성"}},"detail_url":"https://www.visitbusan.net/index.do?menuCd=DOM_000000201004001000&uc_seq=608&lang_cd=ko"},{"seq":"609","section":"stay","name_ko":"(주)호텔일루아","thumb":"https://www.visitbusan.net/uploadImgs/files/cntnts/20221201151734337_thumbL","views":0,"likes":0,"district":"해운대구","lat":35.15892,"lng":129.17448,"phone":"","homepage":"","category":"호텔","stay_type":"관광호텔   3성","i18n":{"ko":{"name":"(주)호텔일루아","address":"부산광역시 해운대구 달맞이길 97 (중동)","type":"관광호텔   3성"}},"detail_url":"https://www.visitbusan.net/index.do?menuCd=DOM_000000201004001000&uc_seq=609&lang_cd=ko"},{"seq":"610","section":"stay","name_ko":"스탠포드호텔 부산","thumb":"https://www.visitbusan.net/uploadImgs/files/cntnts/20221130144922111_thumbL","views":0,"likes":0,"district":"중구","lat":35.097836,"lng":129.02992,"phone":"","homepage":"","category":"호텔","stay_type":"관광호텔   3성","i18n":{"ko":{"name":"스탠포드호텔 부산","address":"부산광역시 중구 구덕로 53 (남포동5가)","type":"관광호텔   3성"}},"detail_url":"https://www.visitbusan.net/index.do?menuCd=DOM_000000201004001000&uc_seq=610&lang_cd=ko"},{"seq":"611","section":"stay","name_ko":"타워힐관광호텔","thumb":"https://www.visitbusan.net/uploadImgs/files/cntnts/20200316143739761_thumbL","views":0,"likes":0,"district":"중구","lat":35.10109,"lng":129.0343,"phone":"","homepage":"","category":"호텔","stay_type":"관광호텔   3성","i18n":{"ko":{"name":"타워힐관광호텔","address":"부산광역시 중구 백산길 20 (동광동3가)","type":"관광호텔   3성"}},"detail_url":"https://www.visitbusan.net/index.do?menuCd=DOM_000000201004001000&uc_seq=611&lang_cd=ko"},{"seq":"612","section":"stay","name_ko":"(주)부산관광호텔","thumb":"https://www.visitbusan.net/uploadImgs/files/cntnts/20221130145744870_thumbL","views":0,"likes":0,"district":"중구","lat":35.100533,"lng":129.03455,"phone":"","homepage":"","category":"호텔","stay_type":"관광호텔   3성","i18n":{"ko":{"name":"(주)부산관광호텔","address":"부산광역시 중구 광복로97번길 23 (동광동2가)","type":"관광호텔   3성"}},"detail_url":"https://www.visitbusan.net/index.do?menuCd=DOM_000000201004001000&uc_seq=612&lang_cd=ko"},{"seq":"613","section":"stay","name_ko":"아르반 시티 호텔","thumb":"https://www.visitbusan.net/uploadImgs/files/cntnts/20230220102311170_thumbL","views":0,"likes":0,"district":"연제구","lat":35.186867,"lng":129.08339,"phone":"","homepage":"","category":"호텔","stay_type":"관광호텔   3성","i18n":{"ko":{"name":"아르반 시티 호텔","address":"부산광역시 연제구 반송로 20 (연산동, 동주빌딩)","type":"관광호텔   3성"}},"detail_url":"https://www.visitbusan.net/index.do?menuCd=DOM_000000201004001000&uc_seq=613&lang_cd=ko"},{"seq":"614","section":"stay","name_ko":"호텔아쿠아펠리스","thumb":"https://www.visitbusan.net/uploadImgs/files/cntnts/20221130150849591_thumbL","views":0,"likes":0,"district":"수영구","lat":35.15409,"lng":129.11884,"phone":"","homepage":"","category":"호텔","stay_type":"관광호텔   3성","i18n":{"ko":{"name":"호텔아쿠아펠리스","address":"부산광역시 수영구 광안해변로 225 (광안동)","type":"관광호텔   3성"}},"detail_url":"https://www.visitbusan.net/index.do?menuCd=DOM_000000201004001000&uc_seq=614&lang_cd=ko"},{"seq":"615","section":"stay","name_ko":"호메르스 호텔","thumb":"https://www.visitbusan.net/uploadImgs/files/cntnts/20200316150706319_thumbL","views":0,"likes":0,"district":"수영구","lat":35.1534,"lng":129.11798,"phone":"","homepage":"","category":"호텔","stay_type":"관광호텔   3성","i18n":{"ko":{"name":"호메르스 호텔","address":"부산광역시 수영구 광안해변로 217 (광안동)","type":"관광호텔   3성"}},"detail_url":"https://www.visitbusan.net/index.do?menuCd=DOM_000000201004001000&uc_seq=615&lang_cd=ko"},{"seq":"616","section":"stay","name_ko":"팔레드시즈","thumb":"https://www.visitbusan.net/uploadImgs/files/cntnts/20200316151058608_thumbL","views":0,"likes":0,"district":"해운대구","lat":35.160275,"lng":129.16658,"phone":"","homepage":"","category":"리조트·콘도","stay_type":"휴양콘도","i18n":{"ko":{"name":"팔레드시즈","address":"부산광역시 해운대구 해운대해변로298번길 24, 팔레드시즈 (중동)","type":"휴양콘도"}},"detail_url":"https://www.visitbusan.net/index.do?menuCd=DOM_000000201004001000&uc_seq=616&lang_cd=ko"},{"seq":"618","section":"stay","name_ko":"호텔티티 서면","thumb":"https://www.visitbusan.net/uploadImgs/files/cntnts/20221201165952004_thumbL","views":0,"likes":0,"district":"부산진구","lat":35.160675,"lng":129.05646,"phone":"","homepage":"","category":"호텔","stay_type":"관광호텔   3성","i18n":{"ko":{"name":"호텔티티 서면","address":"부산광역시 부산진구 새싹로 35","type":"관광호텔   3성"}},"detail_url":"https://www.visitbusan.net/index.do?menuCd=DOM_000000201004001000&uc_seq=618&lang_cd=ko"},{"seq":"619","section":"stay","name_ko":"부산비즈니스호텔","thumb":"https://www.visitbusan.net/uploadImgs/files/cntnts/20221130132348396_thumbL","views":0,"likes":0,"district":"부산진구","lat":35.1561,"lng":129.05447,"phone":"","homepage":"","category":"호텔","stay_type":"관광호텔   3성","i18n":{"ko":{"name":"부산비즈니스호텔","address":"부산광역시 부산진구 부전로 67","type":"관광호텔   3성"}},"detail_url":"https://www.visitbusan.net/index.do?menuCd=DOM_000000201004001000&uc_seq=619&lang_cd=ko"},{"seq":"620","section":"stay","name_ko":"이비스앰배서더부산씨티센터","thumb":"https://www.visitbusan.net/uploadImgs/files/cntnts/20200317125719420_thumbL","views":0,"likes":0,"district":"부산진구","lat":35.16181,"lng":129.06187,"phone":"","homepage":"","category":"호텔","stay_type":"관광호텔   3성","i18n":{"ko":{"name":"이비스앰배서더부산씨티센터","address":"부산광역시 부산진구 중앙대로 777","type":"관광호텔   3성"}},"detail_url":"https://www.visitbusan.net/index.do?menuCd=DOM_000000201004001000&uc_seq=620&lang_cd=ko"},{"seq":"621","section":"stay","name_ko":"호텔라온","thumb":"https://www.visitbusan.net/uploadImgs/files/cntnts/20230220113018663_thumbL","views":0,"likes":0,"district":"해운대구","lat":35.177605,"lng":129.19734,"phone":"","homepage":"","category":"호텔","stay_type":"관광호텔","i18n":{"ko":{"name":"호텔라온","address":"부산광역시 해운대구 송정광어골로 39 (송정동)","type":"관광호텔"}},"detail_url":"https://www.visitbusan.net/index.do?menuCd=DOM_000000201004001000&uc_seq=621&lang_cd=ko"},{"seq":"622","section":"stay","name_ko":"선트리 호텔","thumb":"https://www.visitbusan.net/uploadImgs/files/cntnts/20230220112734807_thumbL","views":0,"likes":0,"district":"해운대구","lat":35.159534,"lng":129.183,"phone":"","homepage":"","category":"호텔","stay_type":"관광호텔","i18n":{"ko":{"name":"선트리 호텔","address":"부산광역시 해운대구 달맞이길 209 (중동)","type":"관광호텔"}},"detail_url":"https://www.visitbusan.net/index.do?menuCd=DOM_000000201004001000&uc_seq=622&lang_cd=ko"},{"seq":"623","section":"stay","name_ko":"브라운도트호텔 송정점","thumb":"https://www.visitbusan.net/uploadImgs/files/cntnts/20230220112552903_thumbL","views":0,"likes":0,"district":"해운대구","lat":35.178783,"lng":129.19724,"phone":"","homepage":"","category":"호텔","stay_type":"관광호텔","i18n":{"ko":{"name":"브라운도트호텔 송정점","address":"부산광역시 해운대구 송정광어골로 30 (송정동)","type":"관광호텔"}},"detail_url":"https://www.visitbusan.net/index.do?menuCd=DOM_000000201004001000&uc_seq=623&lang_cd=ko"},{"seq":"626","section":"stay","name_ko":"올라호텔","thumb":"https://www.visitbusan.net/uploadImgs/files/cntnts/20221202091002606_thumbL","views":0,"likes":0,"district":"해운대구","lat":35.17686,"lng":129.1968,"phone":"","homepage":"","category":"호텔","stay_type":"관광호텔   2성","i18n":{"ko":{"name":"올라호텔","address":"부산광역시 해운대구 송정광어골로 49 (송정동)","type":"관광호텔   2성"}},"detail_url":"https://www.visitbusan.net/index.do?menuCd=DOM_000000201004001000&uc_seq=626&lang_cd=ko"},{"seq":"627","section":"stay","name_ko":"JB디자인호텔","thumb":"https://www.visitbusan.net/uploadImgs/files/cntnts/20230220112303332_thumbL","views":0,"likes":0,"district":"해운대구","lat":35.16168,"lng":129.15804,"phone":"","homepage":"","category":"호텔","stay_type":"관광호텔   2성","i18n":{"ko":{"name":"JB디자인호텔","address":"부산광역시 해운대구 구남로12번길 31 (우동)","type":"관광호텔   2성"}},"detail_url":"https://www.visitbusan.net/index.do?menuCd=DOM_000000201004001000&uc_seq=627&lang_cd=ko"},{"seq":"628","section":"stay","name_ko":"리베로 호텔","thumb":"https://www.visitbusan.net/uploadImgs/files/cntnts/20221130110502183_thumbL","views":0,"likes":0,"district":"해운대구","lat":35.16264,"lng":129.1613,"phone":"","homepage":"","category":"호텔","stay_type":"관광호텔","i18n":{"ko":{"name":"리베로 호텔","address":"부산광역시 해운대구 구남로29번길 21, 세이브존 8~16층 (중동)","type":"관광호텔"}},"detail_url":"https://www.visitbusan.net/index.do?menuCd=DOM_000000201004001000&uc_seq=628&lang_cd=ko"},{"seq":"629","section":"stay","name_ko":"넘버25호텔 남포대청점","thumb":"https://www.visitbusan.net/uploadImgs/files/cntnts/20230220112110149_thumbL","views":0,"likes":0,"district":"중구","lat":35.103134,"lng":129.03168,"phone":"","homepage":"","category":"호텔","stay_type":"관광호텔","i18n":{"ko":{"name":"넘버25호텔 남포대청점","address":"부산광역시 중구 대청로 107 (대청동2가)","type":"관광호텔"}},"detail_url":"https://www.visitbusan.net/index.do?menuCd=DOM_000000201004001000&uc_seq=629&lang_cd=ko"},{"seq":"630","section":"stay","name_ko":"호텔노아","thumb":"https://www.visitbusan.net/uploadImgs/files/cntnts/20230220112011358_thumbL","views":0,"likes":0,"district":"중구","lat":35.097466,"lng":129.02924,"phone":"","homepage":"","category":"호텔","stay_type":"관광호텔   2성","i18n":{"ko":{"name":"호텔노아","address":"부산광역시 중구 자갈치로47번길 3-1 (남포동5가)","type":"관광호텔   2성"}},"detail_url":"https://www.visitbusan.net/index.do?menuCd=DOM_000000201004001000&uc_seq=630&lang_cd=ko"},{"seq":"631","section":"stay","name_ko":"토요코인 부산중앙역","thumb":"https://www.visitbusan.net/uploadImgs/files/cntnts/20221130112948454_thumbL","views":0,"likes":0,"district":"중구","lat":35.109055,"lng":129.03659,"phone":"","homepage":"","category":"호텔","stay_type":"관광호텔   2성","i18n":{"ko":{"name":"토요코인 부산중앙역","address":"부산광역시 중구 중앙대로 125 (대창동1가)","type":"관광호텔   2성"}},"detail_url":"https://www.visitbusan.net/index.do?menuCd=DOM_000000201004001000&uc_seq=631&lang_cd=ko"},{"seq":"632","section":"stay","name_ko":"베이하운드호텔","thumb":"https://www.visitbusan.net/uploadImgs/files/cntnts/20221130170937620_thumbL","views":0,"likes":0,"district":"영도구","lat":35.093163,"lng":129.03845,"phone":"","homepage":"","category":"호텔","stay_type":"관광호텔   2성","i18n":{"ko":{"name":"베이하운드호텔","address":"부산광역시 영도구 태종로65번길 11","type":"관광호텔   2성"}},"detail_url":"https://www.visitbusan.net/index.do?menuCd=DOM_000000201004001000&uc_seq=632&lang_cd=ko"},{"seq":"633","section":"stay","name_ko":"더킹호텔","thumb":"https://www.visitbusan.net/uploadImgs/files/cntnts/20230220111733917_thumbL","views":0,"likes":0,"district":"연제구","lat":35.18588,"lng":129.1069,"phone":"","homepage":"","category":"호텔","stay_type":"관광호텔   2성","i18n":{"ko":{"name":"더킹호텔","address":"부산광역시 연제구 과정로 161 (연산동)","type":"관광호텔   2성"}},"detail_url":"https://www.visitbusan.net/index.do?menuCd=DOM_000000201004001000&uc_seq=633&lang_cd=ko"},{"seq":"634","section":"stay","name_ko":"시애틀비 호텔","thumb":"https://www.visitbusan.net/uploadImgs/files/cntnts/20230220111442788_thumbL","views":0,"likes":0,"district":"연제구","lat":35.186306,"lng":129.0789,"phone":"","homepage":"","category":"호텔","stay_type":"관광호텔   2성","i18n":{"ko":{"name":"시애틀비 호텔","address":"부산광역시 연제구 거제천로154번길 42 (연산동)","type":"관광호텔   2성"}},"detail_url":"https://www.visitbusan.net/index.do?menuCd=DOM_000000201004001000&uc_seq=634&lang_cd=ko"},{"seq":"636","section":"stay","name_ko":"오션투헤븐","thumb":"https://www.visitbusan.net/uploadImgs/files/cntnts/20230220111339567_thumbL","views":0,"likes":0,"district":"수영구","lat":35.154015,"lng":129.12448,"phone":"","homepage":"","category":"호텔","stay_type":"소형호텔   2성","i18n":{"ko":{"name":"오션투헤븐","address":"부산광역시 수영구 광안해변로278번길 42, 오션브릿지 A동 5~6층 (민락동)","type":"소형호텔   2성"}},"detail_url":"https://www.visitbusan.net/index.do?menuCd=DOM_000000201004001000&uc_seq=636&lang_cd=ko"},{"seq":"638","section":"stay","name_ko":"베스트루이스해밀턴호텔 광안점","thumb":"https://www.visitbusan.net/uploadImgs/files/cntnts/20230220111012877_thumbL","views":0,"likes":0,"district":"수영구","lat":35.155613,"lng":129.12401,"phone":"","homepage":"","category":"호텔","stay_type":"관광호텔   2성","i18n":{"ko":{"name":"베스트루이스해밀턴호텔 광안점","address":"부산광역시 수영구 광안해변로 276 (민락동)","type":"관광호텔   2성"}},"detail_url":"https://www.visitbusan.net/index.do?menuCd=DOM_000000201004001000&uc_seq=638&lang_cd=ko"},{"seq":"639","section":"stay","name_ko":"런더너호텔 광안점","thumb":"https://www.visitbusan.net/uploadImgs/files/cntnts/20230220110447017_thumbL","views":0,"likes":0,"district":"수영구","lat":35.157684,"lng":129.12872,"phone":"","homepage":"","category":"호텔","stay_type":"관광호텔   1성","i18n":{"ko":{"name":"런더너호텔 광안점","address":"부산광역시 수영구 민락본동로 12-4 (민락동)","type":"관광호텔   1성"}},"detail_url":"https://www.visitbusan.net/index.do?menuCd=DOM_000000201004001000&uc_seq=639&lang_cd=ko"},{"seq":"640","section":"stay","name_ko":"호텔1","thumb":"https://www.visitbusan.net/uploadImgs/files/cntnts/20230220110256596_thumbL","views":0,"likes":0,"district":"수영구","lat":35.152527,"lng":129.1174,"phone":"","homepage":"","category":"호텔","stay_type":"관광호텔   1성","i18n":{"ko":{"name":"호텔1","address":"부산광역시 수영구 광안해변로 203 (광안동)","type":"관광호텔   1성"}},"detail_url":"https://www.visitbusan.net/index.do?menuCd=DOM_000000201004001000&uc_seq=640&lang_cd=ko"},{"seq":"641","section":"stay","name_ko":"하운드호텔 광안","thumb":"https://www.visitbusan.net/uploadImgs/files/cntnts/20221130161719891_thumbL","views":0,"likes":0,"district":"수영구","lat":35.148914,"lng":129.11453,"phone":"","homepage":"","category":"호텔","stay_type":"관광호텔   2성","i18n":{"ko":{"name":"하운드호텔 광안","address":"부산광역시 수영구 남천바다로33번길 12 (광안동)","type":"관광호텔   2성"}},"detail_url":"https://www.visitbusan.net/index.do?menuCd=DOM_000000201004001000&uc_seq=641&lang_cd=ko"},{"seq":"644","section":"stay","name_ko":"부산비치관광호텔","thumb":"https://www.visitbusan.net/uploadImgs/files/cntnts/20230220110109377_thumbL","views":0,"likes":0,"district":"서구","lat":35.084988,"lng":129.02626,"phone":"","homepage":"","category":"호텔","stay_type":"관광호텔   2성","i18n":{"ko":{"name":"부산비치관광호텔","address":"부산광역시 서구 등대로 113","type":"관광호텔   2성"}},"detail_url":"https://www.visitbusan.net/index.do?menuCd=DOM_000000201004001000&uc_seq=644&lang_cd=ko"},{"seq":"645","section":"stay","name_ko":"브라운도트 호텔 하단점","thumb":"https://www.visitbusan.net/uploadImgs/files/cntnts/20230220110005218_thumbL","views":0,"likes":0,"district":"사하구","lat":35.108326,"lng":128.96591,"phone":"","homepage":"","category":"호텔","stay_type":"관광호텔   2성","i18n":{"ko":{"name":"브라운도트 호텔 하단점","address":"부산광역시 사하구 낙동남로1423번길 47","type":"관광호텔   2성"}},"detail_url":"https://www.visitbusan.net/index.do?menuCd=DOM_000000201004001000&uc_seq=645&lang_cd=ko"},{"seq":"646","section":"stay","name_ko":"사우스반데코호텔","thumb":"https://www.visitbusan.net/uploadImgs/files/cntnts/20221130133346167_thumbL","views":0,"likes":0,"district":"부산진구","lat":35.151047,"lng":129.05823,"phone":"","homepage":"","category":"호텔","stay_type":"관광호텔   2성","i18n":{"ko":{"name":"사우스반데코호텔","address":"부산광역시 부산진구 서면로 6","type":"관광호텔   2성"}},"detail_url":"https://www.visitbusan.net/index.do?menuCd=DOM_000000201004001000&uc_seq=646&lang_cd=ko"},{"seq":"649","section":"stay","name_ko":"토요코인 부산서면","thumb":"https://www.visitbusan.net/uploadImgs/files/cntnts/20221130134001702_thumbL","views":0,"likes":0,"district":"부산진구","lat":35.157974,"lng":129.06407,"phone":"","homepage":"","category":"호텔","stay_type":"관광호텔   2성","i18n":{"ko":{"name":"토요코인 부산서면","address":"부산광역시 부산진구 서전로 39","type":"관광호텔   2성"}},"detail_url":"https://www.visitbusan.net/index.do?menuCd=DOM_000000201004001000&uc_seq=649&lang_cd=ko"},{"seq":"652","section":"stay","name_ko":"프라임관광호텔","thumb":"https://www.visitbusan.net/uploadImgs/files/cntnts/20200318093644302_thumbL","views":0,"likes":0,"district":"동구","lat":35.1306,"lng":129.05023,"phone":"","homepage":"","category":"호텔","stay_type":"관광호텔   2성","i18n":{"ko":{"name":"프라임관광호텔","address":"부산광역시 동구 중앙대로 399, 지하1~지상8층 (수정동)","type":"관광호텔   2성"}},"detail_url":"https://www.visitbusan.net/index.do?menuCd=DOM_000000201004001000&uc_seq=652&lang_cd=ko"},{"seq":"653","section":"stay","name_ko":"토요코인부산역1","thumb":"https://www.visitbusan.net/uploadImgs/files/cntnts/20200318093830724_thumbL","views":0,"likes":0,"district":"동구","lat":35.114147,"lng":129.04074,"phone":"","homepage":"","category":"호텔","stay_type":"관광호텔   2성","i18n":{"ko":{"name":"토요코인부산역1","address":"부산광역시 동구 중앙대로196번길 12, 토요코인부산역Ⅰ (초량동)","type":"관광호텔   2성"}},"detail_url":"https://www.visitbusan.net/index.do?menuCd=DOM_000000201004001000&uc_seq=653&lang_cd=ko"},{"seq":"654","section":"stay","name_ko":"라메르관광호텔","thumb":"https://www.visitbusan.net/uploadImgs/files/cntnts/20221130152913985_thumbL","views":0,"likes":0,"district":"동구","lat":35.14054,"lng":129.06235,"phone":"","homepage":"","category":"호텔","stay_type":"관광호텔   2성","i18n":{"ko":{"name":"라메르관광호텔","address":"부산광역시 동구 조방로34번길 9 (범일동)","type":"관광호텔   2성"}},"detail_url":"https://www.visitbusan.net/index.do?menuCd=DOM_000000201004001000&uc_seq=654&lang_cd=ko"},{"seq":"655","section":"stay","name_ko":"광장관광호텔","thumb":"https://www.visitbusan.net/uploadImgs/files/cntnts/20200318094447810_thumbL","views":0,"likes":0,"district":"동구","lat":35.116173,"lng":129.04135,"phone":"","homepage":"","category":"호텔","stay_type":"관광호텔   1성","i18n":{"ko":{"name":"광장관광호텔","address":"부산광역시 동구 중앙대로214번길 7 (초량동)","type":"관광호텔   1성"}},"detail_url":"https://www.visitbusan.net/index.do?menuCd=DOM_000000201004001000&uc_seq=655&lang_cd=ko"},{"seq":"656","section":"stay","name_ko":"하운드호텔 대연점","thumb":"https://www.visitbusan.net/uploadImgs/files/cntnts/20221130143653876_thumbL","views":0,"likes":0,"district":"남구","lat":35.13458,"lng":129.08994,"phone":"","homepage":"","category":"호텔","stay_type":"관광호텔   2성","i18n":{"ko":{"name":"하운드호텔 대연점","address":"부산광역시 남구 유엔평화로4번길 34(대연동)","type":"관광호텔   2성"}},"detail_url":"https://www.visitbusan.net/index.do?menuCd=DOM_000000201004001000&uc_seq=656&lang_cd=ko"},{"seq":"657","section":"stay","name_ko":"동부산온천호텔","thumb":"https://www.visitbusan.net/uploadImgs/files/cntnts/20221130111106963_thumbL","views":0,"likes":0,"district":"기장군","lat":35.343327,"lng":129.25327,"phone":"","homepage":"","category":"호텔","stay_type":"관광호텔   2성","i18n":{"ko":{"name":"동부산온천호텔","address":"부산광역시 기장군 장안읍 장안로 38","type":"관광호텔   2성"}},"detail_url":"https://www.visitbusan.net/index.do?menuCd=DOM_000000201004001000&uc_seq=657&lang_cd=ko"},{"seq":"661","section":"stay","name_ko":"송정해수락","thumb":"https://www.visitbusan.net/uploadImgs/files/cntnts/20230220171738267_thumbL","views":0,"likes":0,"district":"해운대구","lat":35.18144,"lng":129.2044,"phone":"","homepage":"","category":"호텔","stay_type":"가족호텔","i18n":{"ko":{"name":"송정해수락","address":"부산광역시 해운대구 송정해변로 8-17 (송정동, 송정동해수락)","type":"가족호텔"}},"detail_url":"https://www.visitbusan.net/index.do?menuCd=DOM_000000201004001000&uc_seq=661&lang_cd=ko"},{"seq":"662","section":"stay","name_ko":"부산숙박닷컴 게스트하우스","thumb":"https://www.visitbusan.net/uploadImgs/files/cntnts/20230220171553953_thumbL","views":0,"likes":0,"district":"동구","lat":35.117153,"lng":129.03854,"phone":"","homepage":"","category":"게스트하우스","stay_type":"호스텔","i18n":{"ko":{"name":"부산숙박닷컴 게스트하우스","address":"부산광역시 동구 초량중로 60, 2, 3층 (초량동)","type":"호스텔"}},"detail_url":"https://www.visitbusan.net/index.do?menuCd=DOM_000000201004001000&uc_seq=662&lang_cd=ko"},{"seq":"663","section":"stay","name_ko":"소호스텔","thumb":"https://www.visitbusan.net/uploadImgs/files/cntnts/20221130130624476_thumbL","views":0,"likes":0,"district":"동구","lat":35.11709,"lng":129.04167,"phone":"","homepage":"","category":"게스트하우스","stay_type":"호스텔","i18n":{"ko":{"name":"소호스텔","address":"부산광역시 동구 중앙대로226번길 3-2 (초량동)","type":"호스텔"}},"detail_url":"https://www.visitbusan.net/index.do?menuCd=DOM_000000201004001000&uc_seq=663&lang_cd=ko"},{"seq":"664","section":"stay","name_ko":"게스트하우스 싱글싱글","thumb":"https://www.visitbusan.net/uploadImgs/files/cntnts/20221201091353080_thumbL","views":0,"likes":0,"district":"동구","lat":35.113712,"lng":129.03683,"phone":"","homepage":"","category":"게스트하우스","stay_type":"호스텔","i18n":{"ko":{"name":"게스트하우스 싱글싱글","address":"부산광역시 동구 초량중로 18-1 (초량동)","type":"호스텔"}},"detail_url":"https://www.visitbusan.net/index.do?menuCd=DOM_000000201004001000&uc_seq=664&lang_cd=ko"},{"seq":"665","section":"stay","name_ko":"워라밸 게스트하우스","thumb":"https://www.visitbusan.net/uploadImgs/files/cntnts/20230220171350252_thumbL","views":0,"likes":0,"district":"동구","lat":35.113163,"lng":129.03627,"phone":"","homepage":"","category":"게스트하우스","stay_type":"호스텔","i18n":{"ko":{"name":"워라밸 게스트하우스","address":"부산광역시 동구 초량중로 11, 2층 (초량동)","type":"호스텔"}},"detail_url":"https://www.visitbusan.net/index.do?menuCd=DOM_000000201004001000&uc_seq=665&lang_cd=ko"},{"seq":"668","section":"stay","name_ko":"트래블라이트","thumb":"https://www.visitbusan.net/uploadImgs/files/cntnts/20230220165733697_thumbL","views":0,"likes":0,"district":"부산진구","lat":35.15469,"lng":129.05827,"phone":"","homepage":"","category":"게스트하우스","stay_type":"호스텔","i18n":{"ko":{"name":"트래블라이트","address":"부산광역시 부산진구 서면로 68번길 52, 7층(부전동)","type":"호스텔"}},"detail_url":"https://www.visitbusan.net/index.do?menuCd=DOM_000000201004001000&uc_seq=668&lang_cd=ko"},{"seq":"672","section":"stay","name_ko":"팝콘호스텔","thumb":"https://www.visitbusan.net/uploadImgs/files/cntnts/20230220164208509_thumbL","views":0,"likes":0,"district":"해운대구","lat":35.16248,"lng":129.16528,"phone":"","homepage":"","category":"게스트하우스","stay_type":"호스텔","i18n":{"ko":{"name":"팝콘호스텔","address":"부산광역시 해운대구 해운대해변로 321, 해운대구중동마린타워 10~11층 (중동)","type":"호스텔"}},"detail_url":"https://www.visitbusan.net/index.do?menuCd=DOM_000000201004001000&uc_seq=672&lang_cd=ko"},{"seq":"676","section":"stay","name_ko":"일로와 스테이","thumb":"https://www.visitbusan.net/uploadImgs/files/cntnts/20230220163450616_thumbL","views":0,"likes":0,"district":"해운대구","lat":35.15867,"lng":129.17162,"phone":"","homepage":"","category":"게스트하우스","stay_type":"호스텔","i18n":{"ko":{"name":"일로와 스테이","address":"부산광역시 해운대구 달맞이길62번가길 31, 2층 (중동)","type":"호스텔"}},"detail_url":"https://www.visitbusan.net/index.do?menuCd=DOM_000000201004001000&uc_seq=676&lang_cd=ko"},{"seq":"677","section":"stay","name_ko":"제이썬 호스텔","thumb":"https://www.visitbusan.net/uploadImgs/files/cntnts/20230220163339274_thumbL","views":0,"likes":0,"district":"해운대구","lat":35.163853,"lng":129.15703,"phone":"","homepage":"","category":"게스트하우스","stay_type":"호스텔","i18n":{"ko":{"name":"제이썬 호스텔","address":"부산광역시 해운대구 우동1로 20번길 5 2층","type":"호스텔"}},"detail_url":"https://www.visitbusan.net/index.do?menuCd=DOM_000000201004001000&uc_seq=677&lang_cd=ko"},{"seq":"678","section":"stay","name_ko":"모네의 여름","thumb":"https://www.visitbusan.net/uploadImgs/files/cntnts/20230220163106016_thumbL","views":0,"likes":0,"district":"해운대구","lat":35.175613,"lng":129.19647,"phone":"","homepage":"","category":"게스트하우스","stay_type":"호스텔","i18n":{"ko":{"name":"모네의 여름","address":"부산광역시 해운대구 송정광어골로 65 (송정동, 모닝캄)","type":"호스텔"}},"detail_url":"https://www.visitbusan.net/index.do?menuCd=DOM_000000201004001000&uc_seq=678&lang_cd=ko"},{"seq":"679","section":"stay","name_ko":"해운대 캔버스게스트하우스","thumb":"https://www.visitbusan.net/uploadImgs/files/cntnts/20250204150806099_thumbL","views":0,"likes":0,"district":"해운대구","lat":35.159172,"lng":129.15266,"phone":"","homepage":"","category":"게스트하우스","stay_type":"호스텔","i18n":{"ko":{"name":"해운대 캔버스게스트하우스","address":"부산광역시 해운대구 해운대해변로197번길 13 (우동)","type":"호스텔"}},"detail_url":"https://www.visitbusan.net/index.do?menuCd=DOM_000000201004001000&uc_seq=679&lang_cd=ko"},{"seq":"680","section":"stay","name_ko":"스테이 모어 호스텔","thumb":"https://www.visitbusan.net/uploadImgs/files/cntnts/20230220162625223_thumbL","views":0,"likes":0,"district":"해운대구","lat":35.173725,"lng":129.19629,"phone":"","homepage":"","category":"게스트하우스","stay_type":"호스텔","i18n":{"ko":{"name":"스테이 모어 호스텔","address":"부산광역시 해운대구 송정광어골로 88, 1~2층(송정동)","type":"호스텔"}},"detail_url":"https://www.visitbusan.net/index.do?menuCd=DOM_000000201004001000&uc_seq=680&lang_cd=ko"},{"seq":"681","section":"stay","name_ko":"송정아토 호스텔","thumb":"https://www.visitbusan.net/uploadImgs/files/cntnts/20230220162513024_thumbL","views":0,"likes":0,"district":"해운대구","lat":35.18355,"lng":129.20532,"phone":"","homepage":"","category":"게스트하우스","stay_type":"호스텔","i18n":{"ko":{"name":"송정아토 호스텔","address":"부산광역시 해운대구 송정강변로 23, 2~4층 (송정동)","type":"호스텔"}},"detail_url":"https://www.visitbusan.net/index.do?menuCd=DOM_000000201004001000&uc_seq=681&lang_cd=ko"},{"seq":"682","section":"stay","name_ko":"스테이 안","thumb":"https://www.visitbusan.net/uploadImgs/files/cntnts/20230220162204106_thumbL","views":0,"likes":0,"district":"해운대구","lat":35.18763,"lng":129.12128,"phone":"","homepage":"","category":"게스트하우스","stay_type":"호스텔","i18n":{"ko":{"name":"스테이 안","address":"부산광역시 해운대구 해운대로 107, 스테이안 3~5층 (재송동)","type":"호스텔"}},"detail_url":"https://www.visitbusan.net/index.do?menuCd=DOM_000000201004001000&uc_seq=682&lang_cd=ko"},{"seq":"684","section":"stay","name_ko":"이너피스","thumb":"https://www.visitbusan.net/uploadImgs/files/cntnts/20230220161847598_thumbL","views":0,"likes":0,"district":"해운대구","lat":35.17425,"lng":129.19577,"phone":"","homepage":"","category":"게스트하우스","stay_type":"호스텔","i18n":{"ko":{"name":"이너피스","address":"부산광역시 해운대구 송정광어골로82번길 16 (송정동)","type":"호스텔"}},"detail_url":"https://www.visitbusan.net/index.do?menuCd=DOM_000000201004001000&uc_seq=684&lang_cd=ko"},{"seq":"688","section":"stay","name_ko":"호텔야자 재송점","thumb":"https://www.visitbusan.net/uploadImgs/files/cntnts/20230220160224821_thumbL","views":0,"likes":0,"district":"해운대구","lat":35.18438,"lng":129.1223,"phone":"","homepage":"","category":"게스트하우스","stay_type":"호스텔","i18n":{"ko":{"name":"호텔야자 재송점","address":"부산광역시 해운대구 해운대로143번길 16-9, 야자호텔 6층 (재송동)","type":"호스텔"}},"detail_url":"https://www.visitbusan.net/index.do?menuCd=DOM_000000201004001000&uc_seq=688&lang_cd=ko"},{"seq":"690","section":"stay","name_ko":"MARINE K POOL VILLA","thumb":"https://www.visitbusan.net/uploadImgs/files/cntnts/20230220155944080_thumbL","views":0,"likes":0,"district":"해운대구","lat":35.180595,"lng":129.19923,"phone":"","homepage":"","category":"게스트하우스","stay_type":"호스텔","i18n":{"ko":{"name":"MARINE K POOL VILLA","address":"부산광역시 해운대구 송정광어골로 3 (송정동)","type":"호스텔"}},"detail_url":"https://www.visitbusan.net/index.do?menuCd=DOM_000000201004001000&uc_seq=690&lang_cd=ko"},{"seq":"692","section":"stay","name_ko":"더크립56","thumb":"https://www.visitbusan.net/uploadImgs/files/cntnts/20230220155648139_thumbL","views":0,"likes":0,"district":"해운대구","lat":35.164886,"lng":129.1684,"phone":"","homepage":"","category":"게스트하우스","stay_type":"호스텔","i18n":{"ko":{"name":"더크립56","address":"부산광역시 해운대구 해운대해변로359번길 27, 승훈빌딩 5~6층 (중동)","type":"호스텔"}},"detail_url":"https://www.visitbusan.net/index.do?menuCd=DOM_000000201004001000&uc_seq=692&lang_cd=ko"},{"seq":"693","section":"stay","name_ko":"휘겔리 스위트","thumb":"https://www.visitbusan.net/uploadImgs/files/cntnts/20230220155546031_thumbL","views":0,"likes":0,"district":"해운대구","lat":35.158455,"lng":129.1719,"phone":"","homepage":"","category":"게스트하우스","stay_type":"호스텔","i18n":{"ko":{"name":"휘겔리 스위트","address":"부산광역시 해운대구 달맞이길62번가길 37, 휘겔리 1,6층 (중동)","type":"호스텔"}},"detail_url":"https://www.visitbusan.net/index.do?menuCd=DOM_000000201004001000&uc_seq=693&lang_cd=ko"},{"seq":"694","section":"stay","name_ko":"앙스모멍","thumb":"https://www.visitbusan.net/uploadImgs/files/cntnts/20221208221034660_thumbL","views":0,"likes":0,"district":"해운대구","lat":35.181496,"lng":129.20312,"phone":"","homepage":"","category":"게스트하우스","stay_type":"호스텔","i18n":{"ko":{"name":"앙스모멍","address":"부산광역시 해운대구 송정중앙로36번길 25, 3~5층 (송정동)","type":"호스텔"}},"detail_url":"https://www.visitbusan.net/index.do?menuCd=DOM_000000201004001000&uc_seq=694&lang_cd=ko"},{"seq":"696","section":"stay","name_ko":"송정미연","thumb":"https://www.visitbusan.net/uploadImgs/files/cntnts/20230220155145074_thumbL","views":0,"likes":0,"district":"해운대구","lat":35.176456,"lng":129.19588,"phone":"","homepage":"","category":"게스트하우스","stay_type":"호스텔","i18n":{"ko":{"name":"송정미연","address":"부산광역시 해운대구 송정광어골로 58-1, 3~5층 (송정동)","type":"호스텔"}},"detail_url":"https://www.visitbusan.net/index.do?menuCd=DOM_000000201004001000&uc_seq=696&lang_cd=ko"},{"seq":"697","section":"stay","name_ko":"그림하우스","thumb":"https://www.visitbusan.net/uploadImgs/files/cntnts/20221130111929797_thumbL","views":0,"likes":0,"district":"해운대구","lat":35.17296,"lng":129.19751,"phone":"","homepage":"","category":"게스트하우스","stay_type":"호스텔","i18n":{"ko":{"name":"그림하우스","address":"부산광역시 해운대구 송정구덕포길 64, 1동 2~4층 (송정동)","type":"호스텔"}},"detail_url":"https://www.visitbusan.net/index.do?menuCd=DOM_000000201004001000&uc_seq=697&lang_cd=ko"},{"seq":"699","section":"stay","name_ko":"송정스카이풀빌라펜션","thumb":"https://www.visitbusan.net/uploadImgs/files/cntnts/20230220153052004_thumbL","views":0,"likes":0,"district":"해운대구","lat":35.179348,"lng":129.19841,"phone":"","homepage":"","category":"게스트하우스","stay_type":"호스텔","i18n":{"ko":{"name":"송정스카이풀빌라펜션","address":"부산광역시 해운대구 송정광어골로 19, 상림빌딩 3~5층 (송정동)","type":"호스텔"}},"detail_url":"https://www.visitbusan.net/index.do?menuCd=DOM_000000201004001000&uc_seq=699&lang_cd=ko"},{"seq":"700","section":"stay","name_ko":"더뷰 호스텔","thumb":"https://www.visitbusan.net/uploadImgs/files/cntnts/20230220152759507_thumbL","views":0,"likes":0,"district":"수영구","lat":35.150497,"lng":129.11531,"phone":"","homepage":"","category":"게스트하우스","stay_type":"호스텔","i18n":{"ko":{"name":"더뷰 호스텔","address":"부산광역시 수영구 남천바다로33번길 47 (광안동)","type":"호스텔"}},"detail_url":"https://www.visitbusan.net/index.do?menuCd=DOM_000000201004001000&uc_seq=700&lang_cd=ko"},{"seq":"702","section":"stay","name_ko":"게스트하우스 어반","thumb":"https://www.visitbusan.net/uploadImgs/files/cntnts/20230220152458479_thumbL","views":0,"likes":0,"district":"수영구","lat":35.157005,"lng":129.12592,"phone":"","homepage":"","category":"게스트하우스","stay_type":"호스텔","i18n":{"ko":{"name":"게스트하우스 어반","address":"부산광역시 수영구 광안해변로295번길 4-7, 2~4층 (민락동)","type":"호스텔"}},"detail_url":"https://www.visitbusan.net/index.do?menuCd=DOM_000000201004001000&uc_seq=702&lang_cd=ko"},{"seq":"704","section":"stay","name_ko":"벡스코호스텔","thumb":"https://www.visitbusan.net/uploadImgs/files/cntnts/20230220151849413_thumbL","views":0,"likes":0,"district":"수영구","lat":35.154045,"lng":129.12558,"phone":"","homepage":"","category":"게스트하우스","stay_type":"호스텔","i18n":{"ko":{"name":"벡스코호스텔","address":"부산광역시 수영구 광안해변로284번길 43 (민락동)","type":"호스텔"}},"detail_url":"https://www.visitbusan.net/index.do?menuCd=DOM_000000201004001000&uc_seq=704&lang_cd=ko"},{"seq":"705","section":"stay","name_ko":"플라야","thumb":"https://www.visitbusan.net/uploadImgs/files/cntnts/20230220151614071_thumbL","views":0,"likes":0,"district":"수영구","lat":35.151573,"lng":129.11668,"phone":"","homepage":"","category":"게스트하우스","stay_type":"호스텔","i18n":{"ko":{"name":"플라야","address":"부산광역시 수영구 광안해변로 191, 4~5층 (광안동)","type":"호스텔"}},"detail_url":"https://www.visitbusan.net/index.do?menuCd=DOM_000000201004001000&uc_seq=705&lang_cd=ko"},{"seq":"707","section":"stay","name_ko":"헤븐리 펜트하우스","thumb":"https://www.visitbusan.net/uploadImgs/files/cntnts/20230220150607522_thumbL","views":0,"likes":0,"district":"수영구","lat":35.15464,"lng":129.12418,"phone":"","homepage":"","category":"게스트하우스","stay_type":"호스텔","i18n":{"ko":{"name":"헤븐리 펜트하우스","address":"부산광역시 수영구 민락수변로 13-1 (민락동)","type":"호스텔"}},"detail_url":"https://www.visitbusan.net/index.do?menuCd=DOM_000000201004001000&uc_seq=707&lang_cd=ko"},{"seq":"709","section":"stay","name_ko":"호텔미라주","thumb":"https://www.visitbusan.net/uploadImgs/files/cntnts/20230220145849656_thumbL","views":0,"likes":0,"district":"수영구","lat":35.149204,"lng":129.11433,"phone":"","homepage":"","category":"게스트하우스","stay_type":"호스텔","i18n":{"ko":{"name":"호텔미라주","address":"부산광역시 수영구 남천바다로33번길 15 (광안동, 미라쥬)","type":"호스텔"}},"detail_url":"https://www.visitbusan.net/index.do?menuCd=DOM_000000201004001000&uc_seq=709&lang_cd=ko"},{"seq":"710","section":"stay","name_ko":"어반하우스","thumb":"https://www.visitbusan.net/uploadImgs/files/cntnts/20230220145626250_thumbL","views":0,"likes":0,"district":"수영구","lat":35.15525,"lng":129.12454,"phone":"","homepage":"","category":"게스트하우스","stay_type":"호스텔","i18n":{"ko":{"name":"어반하우스","address":"부산광역시 수영구 민락수변로 7번길 16 , 6층 (민락동, 비치프라자)","type":"호스텔"}},"detail_url":"https://www.visitbusan.net/index.do?menuCd=DOM_000000201004001000&uc_seq=710&lang_cd=ko"},{"seq":"714","section":"stay","name_ko":"솔게스트하우스 부산파티점","thumb":"https://www.visitbusan.net/uploadImgs/files/cntnts/20230220143744250_thumbL","views":0,"likes":0,"district":"수영구","lat":35.15459,"lng":129.11874,"phone":"","homepage":"","category":"게스트하우스","stay_type":"호스텔","i18n":{"ko":{"name":"솔게스트하우스 부산파티점","address":"부산광역시 수영구 광안로62번길 1, 3~4층 (광안동)","type":"호스텔"}},"detail_url":"https://www.visitbusan.net/index.do?menuCd=DOM_000000201004001000&uc_seq=714&lang_cd=ko"},{"seq":"715","section":"stay","name_ko":"루크하우스","thumb":"https://www.visitbusan.net/uploadImgs/files/cntnts/20221130154703238_thumbL","views":0,"likes":0,"district":"수영구","lat":35.14874,"lng":129.11401,"phone":"","homepage":"","category":"게스트하우스","stay_type":"호스텔","i18n":{"ko":{"name":"루크하우스","address":"부산광역시 수영구 남천바다로 31-1, 7~8층 (광안동, 광안동 AK빌딩)","type":"호스텔"}},"detail_url":"https://www.visitbusan.net/index.do?menuCd=DOM_000000201004001000&uc_seq=715&lang_cd=ko"},{"seq":"718","section":"stay","name_ko":"반달호텔","thumb":"https://www.visitbusan.net/uploadImgs/files/cntnts/20230220143239358_thumbL","views":0,"likes":0,"district":"중구","lat":35.10605,"lng":129.03517,"phone":"","homepage":"","category":"호텔","stay_type":"소형호텔   1성","i18n":{"ko":{"name":"반달호텔","address":"부산광역시 중구 해관로 79-1 (중앙동4가)","type":"소형호텔   1성"}},"detail_url":"https://www.visitbusan.net/index.do?menuCd=DOM_000000201004001000&uc_seq=718&lang_cd=ko"},{"seq":"719","section":"stay","name_ko":"H-에비뉴 광안리해변점","thumb":"https://www.visitbusan.net/uploadImgs/files/cntnts/20221130155801357_thumbL","views":0,"likes":0,"district":"수영구","lat":35.153973,"lng":129.12454,"phone":"","homepage":"","category":"호텔","stay_type":"관광호텔   2성","i18n":{"ko":{"name":"H-에비뉴 광안리해변점","address":"부산광역시 수영구 광안해변로278번길 42, 오션브릿지 8~10층 (민락동)","type":"관광호텔   2성"}},"detail_url":"https://www.visitbusan.net/index.do?menuCd=DOM_000000201004001000&uc_seq=719&lang_cd=ko"},{"seq":"720","section":"stay","name_ko":"몰디브호텔","thumb":"https://www.visitbusan.net/uploadImgs/files/cntnts/20230220142930368_thumbL","views":0,"likes":0,"district":"수영구","lat":35.145535,"lng":129.11066,"phone":"","homepage":"","category":"게스트하우스","stay_type":"호스텔","i18n":{"ko":{"name":"몰디브호텔","address":"부산광역시 수영구 광남로 29, 3층 (남천동, 한사리빌딩)","type":"호스텔"}},"detail_url":"https://www.visitbusan.net/index.do?menuCd=DOM_000000201004001000&uc_seq=720&lang_cd=ko"},{"seq":"722","section":"stay","name_ko":"No25호스텔","thumb":"https://www.visitbusan.net/uploadImgs/files/cntnts/20230220141754898_thumbL","views":0,"likes":0,"district":"수영구","lat":35.15519,"lng":129.12482,"phone":"","homepage":"","category":"게스트하우스","stay_type":"호스텔","i18n":{"ko":{"name":"No25호스텔","address":"부산광역시 수영구 광안해변로284번길 16, 1~2층 (민락동)","type":"호스텔"}},"detail_url":"https://www.visitbusan.net/index.do?menuCd=DOM_000000201004001000&uc_seq=722&lang_cd=ko"},{"seq":"724","section":"stay","name_ko":"레드 하우스","thumb":"https://www.visitbusan.net/uploadImgs/files/cntnts/20230220141410036_thumbL","views":0,"likes":0,"district":"수영구","lat":35.15655,"lng":129.12459,"phone":"","homepage":"","category":"게스트하우스","stay_type":"호스텔","i18n":{"ko":{"name":"레드 하우스","address":"부산광역시 수영구 민락본동로 11번길 79(민락동)","type":"호스텔"}},"detail_url":"https://www.visitbusan.net/index.do?menuCd=DOM_000000201004001000&uc_seq=724&lang_cd=ko"},{"seq":"726","section":"stay","name_ko":"누리 호텔","thumb":"https://www.visitbusan.net/uploadImgs/files/cntnts/20230220140733836_thumbL","views":0,"likes":0,"district":"수영구","lat":35.15173,"lng":129.11664,"phone":"","homepage":"","category":"게스트하우스","stay_type":"호스텔","i18n":{"ko":{"name":"누리 호텔","address":"부산광역시 수영구 남천바다로33번길 86, 7층 (광안동)","type":"호스텔"}},"detail_url":"https://www.visitbusan.net/index.do?menuCd=DOM_000000201004001000&uc_seq=726&lang_cd=ko"},{"seq":"729","section":"stay","name_ko":"더폼하우스","thumb":"https://www.visitbusan.net/uploadImgs/files/cntnts/20230220134559817_thumbL","views":0,"likes":0,"district":"수영구","lat":35.15746,"lng":129.12631,"phone":"","homepage":"","category":"게스트하우스","stay_type":"호스텔","i18n":{"ko":{"name":"더폼하우스","address":"부산광역시 수영구 민락본동로11번길 42, 9층(민락동)","type":"호스텔"}},"detail_url":"https://www.visitbusan.net/index.do?menuCd=DOM_000000201004001000&uc_seq=729&lang_cd=ko"},{"seq":"731","section":"stay","name_ko":"H-AVENUE 광안리점","thumb":"https://www.visitbusan.net/uploadImgs/files/cntnts/20230220134352189_thumbL","views":0,"likes":0,"district":"수영구","lat":35.153255,"lng":129.12466,"phone":"","homepage":"","category":"호텔","stay_type":"관광호텔   2성","i18n":{"ko":{"name":"H-AVENUE 광안리점","address":"부산광역시 수영구 민락수변로 29, 민락동 바다마루 11~12층 (민락동)","type":"관광호텔   2성"}},"detail_url":"https://www.visitbusan.net/index.do?menuCd=DOM_000000201004001000&uc_seq=731&lang_cd=ko"},{"seq":"733","section":"stay","name_ko":"브라운도트 호텔 수영점","thumb":"https://www.visitbusan.net/uploadImgs/files/cntnts/20230220134022307_thumbL","views":0,"likes":0,"district":"수영구","lat":35.154037,"lng":129.12428,"phone":"","homepage":"","category":"게스트하우스","stay_type":"호스텔","i18n":{"ko":{"name":"브라운도트 호텔 수영점","address":"부산광역시 수영구 망미번영로52번길 112 (수영동)","type":"호스텔"}},"detail_url":"https://www.visitbusan.net/index.do?menuCd=DOM_000000201004001000&uc_seq=733&lang_cd=ko"},{"seq":"734","section":"stay","name_ko":"오션스테이 호텔","thumb":"https://www.visitbusan.net/uploadImgs/files/cntnts/20230220133845653_thumbL","views":0,"likes":0,"district":"수영구","lat":35.15415,"lng":129.12434,"phone":"","homepage":"","category":"게스트하우스","stay_type":"호스텔","i18n":{"ko":{"name":"오션스테이 호텔","address":"부산광역시 수영구 광안해변로278번길 42, 오션브릿지 B동 7층 (민락동)","type":"호스텔"}},"detail_url":"https://www.visitbusan.net/index.do?menuCd=DOM_000000201004001000&uc_seq=734&lang_cd=ko"},{"seq":"735","section":"stay","name_ko":"H7L호텔","thumb":"https://www.visitbusan.net/uploadImgs/files/cntnts/20230220133651586_thumbL","views":0,"likes":0,"district":"수영구","lat":35.150597,"lng":129.11588,"phone":"","homepage":"","category":"게스트하우스","stay_type":"호스텔","i18n":{"ko":{"name":"H7L호텔","address":"부산광역시 수영구 광안해변로 179, 7층 (광안동)","type":"호스텔"}},"detail_url":"https://www.visitbusan.net/index.do?menuCd=DOM_000000201004001000&uc_seq=735&lang_cd=ko"},{"seq":"736","section":"stay","name_ko":"URBANE pool villa(어베인 풀빌라)","thumb":"https://www.visitbusan.net/uploadImgs/files/cntnts/20230220133402305_thumbL","views":0,"likes":0,"district":"기장군","lat":35.261223,"lng":129.23306,"phone":"","homepage":"","category":"게스트하우스","stay_type":"호스텔","i18n":{"ko":{"name":"URBANE pool villa(어베인 풀빌라)","address":"부산광역시 기장군 일광면 일역길 78-1","type":"호스텔"}},"detail_url":"https://www.visitbusan.net/index.do?menuCd=DOM_000000201004001000&uc_seq=736&lang_cd=ko"},{"seq":"737","section":"stay","name_ko":"브라운도트호텔 광안리해수욕장점","thumb":"https://www.visitbusan.net/uploadImgs/files/cntnts/20230220133249136_thumbL","views":0,"likes":0,"district":"수영구","lat":35.14983,"lng":129.11478,"phone":"","homepage":"","category":"호텔","stay_type":"소형호텔   1성","i18n":{"ko":{"name":"브라운도트호텔 광안리해수욕장점","address":"부산광역시 수영구 남천바다로33번길 31 (광안동)","type":"소형호텔   1성"}},"detail_url":"https://www.visitbusan.net/index.do?menuCd=DOM_000000201004001000&uc_seq=737&lang_cd=ko"},{"seq":"740","section":"stay","name_ko":"투헤븐호텔","thumb":"https://www.visitbusan.net/uploadImgs/files/cntnts/20230220133003272_thumbL","views":0,"likes":0,"district":"수영구","lat":35.14953,"lng":129.11456,"phone":"","homepage":"","category":"호텔","stay_type":"관광호텔","i18n":{"ko":{"name":"투헤븐호텔","address":"부산광역시 수영구 남천바다로33번길 25 (광안동)","type":"관광호텔"}},"detail_url":"https://www.visitbusan.net/index.do?menuCd=DOM_000000201004001000&uc_seq=740&lang_cd=ko"},{"seq":"742","section":"stay","name_ko":"옐로우라이트하우스","thumb":"https://www.visitbusan.net/uploadImgs/files/cntnts/20221130144458725_thumbL","views":0,"likes":0,"district":"수영구","lat":35.15679,"lng":129.13426,"phone":"","homepage":"","category":"게스트하우스","stay_type":"호스텔","i18n":{"ko":{"name":"옐로우라이트하우스","address":"부산광역시 수영구 광안해변로370번길 9-32, 401호 (민락동)","type":"호스텔"}},"detail_url":"https://www.visitbusan.net/index.do?menuCd=DOM_000000201004001000&uc_seq=742&lang_cd=ko"},{"seq":"744","section":"stay","name_ko":"수이호스텔","thumb":"https://www.visitbusan.net/uploadImgs/files/cntnts/20230220131911756_thumbL","views":0,"likes":0,"district":"중구","lat":35.101147,"lng":129.03601,"phone":"","homepage":"","category":"게스트하우스","stay_type":"호스텔","i18n":{"ko":{"name":"수이호스텔","address":"부산광역시 중구 중앙대로41번길 3-1 (중앙동1가)","type":"호스텔"}},"detail_url":"https://www.visitbusan.net/index.do?menuCd=DOM_000000201004001000&uc_seq=744&lang_cd=ko"},{"seq":"745","section":"stay","name_ko":"해운대 카라반 호스텔","thumb":"https://www.visitbusan.net/uploadImgs/files/cntnts/20230220131346636_thumbL","views":0,"likes":0,"district":"해운대구","lat":35.176704,"lng":129.19673,"phone":"","homepage":"","category":"게스트하우스","stay_type":"호스텔","i18n":{"ko":{"name":"해운대 카라반 호스텔","address":"부산광역시 해운대구 송정중앙로6번길 180 (송정동)","type":"호스텔"}},"detail_url":"https://www.visitbusan.net/index.do?menuCd=DOM_000000201004001000&uc_seq=745&lang_cd=ko"},{"seq":"747","section":"stay","name_ko":"카이브","thumb":"https://www.visitbusan.net/uploadImgs/files/cntnts/20230220132419743_thumbL","views":0,"likes":0,"district":"해운대구","lat":35.179657,"lng":129.19861,"phone":"","homepage":"","category":"게스트하우스","stay_type":"호스텔","i18n":{"ko":{"name":"카이브","address":"부산광역시 해운대구 송정광어골로 15, 5~9층 (송정동)","type":"호스텔"}},"detail_url":"https://www.visitbusan.net/index.do?menuCd=DOM_000000201004001000&uc_seq=747&lang_cd=ko"},{"seq":"748","section":"stay","name_ko":"안리고택","thumb":"https://www.visitbusan.net/uploadImgs/files/cntnts/20230220130337790_thumbL","views":0,"likes":0,"district":"수영구","lat":35.155167,"lng":129.12117,"phone":"","homepage":"","category":"게스트하우스","stay_type":"호스텔","i18n":{"ko":{"name":"안리고택","address":"부산광역시 수영구 광안해변로 249, 홍륜빌딩 7층, 9층 (민락동)","type":"호스텔"}},"detail_url":"https://www.visitbusan.net/index.do?menuCd=DOM_000000201004001000&uc_seq=748&lang_cd=ko"},{"seq":"750","section":"stay","name_ko":"언플랜드88","thumb":"https://www.visitbusan.net/uploadImgs/files/cntnts/20240809141438241_thumbL","views":0,"likes":0,"district":"수영구","lat":35.150528,"lng":129.1153,"phone":"","homepage":"","category":"게스트하우스","stay_type":"호스텔","i18n":{"ko":{"name":"언플랜드88","address":"부산광역시 수영구 남천바다로33번길 47, 마린빌딩 7,8층 (광안동)","type":"호스텔"}},"detail_url":"https://www.visitbusan.net/index.do?menuCd=DOM_000000201004001000&uc_seq=750&lang_cd=ko"},{"seq":"752","section":"stay","name_ko":"브라운도트 호텔 정관점","thumb":"https://www.visitbusan.net/uploadImgs/files/cntnts/20230220104339643_thumbL","views":0,"likes":0,"district":"기장군","lat":35.316082,"lng":129.18175,"phone":"","homepage":"","category":"호텔","stay_type":"관광호텔   1성","i18n":{"ko":{"name":"브라운도트 호텔 정관점","address":"부산광역시 기장군 산단1로 98-31","type":"관광호텔   1성"}},"detail_url":"https://www.visitbusan.net/index.do?menuCd=DOM_000000201004001000&uc_seq=752&lang_cd=ko"},{"seq":"753","section":"stay","name_ko":"라움103","thumb":"https://www.visitbusan.net/uploadImgs/files/cntnts/20230220113548618_thumbL","views":0,"likes":0,"district":"수영구","lat":35.15481,"lng":129.13185,"phone":"","homepage":"","category":"게스트하우스","stay_type":"호스텔","i18n":{"ko":{"name":"라움103","address":"부산광역시 수영구 민락수변로 103, 6층 (민락동)","type":"호스텔"}},"detail_url":"https://www.visitbusan.net/index.do?menuCd=DOM_000000201004001000&uc_seq=753&lang_cd=ko"},{"seq":"754","section":"stay","name_ko":"토요코인 부산해운대2","thumb":"https://www.visitbusan.net/uploadImgs/files/cntnts/20221130141028672_thumbL","views":0,"likes":0,"district":"해운대구","lat":35.15949,"lng":129.15738,"phone":"","homepage":"","category":"호텔","stay_type":"관광호텔   2성","i18n":{"ko":{"name":"토요코인 부산해운대2","address":"부산광역시 해운대구 해운대해변로237번길 5 (우동, 토요코인부산해운대2호점)","type":"관광호텔   2성"}},"detail_url":"https://www.visitbusan.net/index.do?menuCd=DOM_000000201004001000&uc_seq=754&lang_cd=ko"},{"seq":"755","section":"stay","name_ko":"퀸스호텔","thumb":"https://www.visitbusan.net/uploadImgs/files/cntnts/20221130132856979_thumbL","views":0,"likes":0,"district":"부산진구","lat":35.15504,"lng":129.05528,"phone":"","homepage":"","category":"게스트하우스","stay_type":"호스텔","i18n":{"ko":{"name":"퀸스호텔","address":"부산광역시 부산진구 부전로 56 (부전동)","type":"호스텔"}},"detail_url":"https://www.visitbusan.net/index.do?menuCd=DOM_000000201004001000&uc_seq=755&lang_cd=ko"},{"seq":"820","section":"stay","name_ko":"페어필드 바이 메리어트 부산 송도비치호텔","thumb":"https://www.visitbusan.net/uploadImgs/files/cntnts/20221130162341840_thumbL","views":0,"likes":0,"district":"서구","lat":35.077686,"lng":129.01923,"phone":"","homepage":"","category":"호텔","stay_type":"관광호텔   3성","i18n":{"ko":{"name":"페어필드 바이 메리어트 부산 송도비치호텔","address":"부산광역시 서구 송도해변로 113(암남동)","type":"관광호텔   3성"}},"detail_url":"https://www.visitbusan.net/index.do?menuCd=DOM_000000201004001000&uc_seq=820&lang_cd=ko"},{"seq":"821","section":"stay","name_ko":"시그니엘 부산","thumb":"https://www.visitbusan.net/uploadImgs/files/cntnts/20251027172827976_thumbL","views":0,"likes":0,"district":"해운대구","lat":35.159912,"lng":129.16983,"phone":"","homepage":"","category":"호텔","stay_type":"관광호텔   5성","i18n":{"ko":{"name":"시그니엘 부산","address":"부산광역시 해운대구 달맞이길 30, 랜드마크타워동동 3~19층 (중동, 엘시티)","type":"관광호텔   5성"}},"detail_url":"https://www.visitbusan.net/index.do?menuCd=DOM_000000201004001000&uc_seq=821&lang_cd=ko"},{"seq":"823","section":"stay","name_ko":"캔버스 호스텔 블랙","thumb":"https://www.visitbusan.net/uploadImgs/files/cntnts/20230220100508741_thumbL","views":0,"likes":0,"district":"해운대구","lat":35.159363,"lng":129.15298,"phone":"","homepage":"","category":"게스트하우스","stay_type":"호스텔","i18n":{"ko":{"name":"캔버스 호스텔 블랙","address":"부산광역시 해운대구 해운대해변로197번길 14 (우동)","type":"호스텔"}},"detail_url":"https://www.visitbusan.net/index.do?menuCd=DOM_000000201004001000&uc_seq=823&lang_cd=ko"},{"seq":"827","section":"stay","name_ko":"제이스테이","thumb":"https://www.visitbusan.net/uploadImgs/files/cntnts/20230220095921360_thumbL","views":0,"likes":0,"district":"수영구","lat":35.148754,"lng":129.11403,"phone":"","homepage":"","category":"게스트하우스","stay_type":"호스텔","i18n":{"ko":{"name":"제이스테이","address":"부산광역시 수영구 남천바다로 31-1 (광안동)","type":"호스텔"}},"detail_url":"https://www.visitbusan.net/index.do?menuCd=DOM_000000201004001000&uc_seq=827&lang_cd=ko"},{"seq":"829","section":"stay","name_ko":"타이드어웨이 풀빌라","thumb":"https://www.visitbusan.net/uploadImgs/files/cntnts/20221208221525236_thumbL","views":0,"likes":0,"district":"기장군","lat":35.18217,"lng":129.20856,"phone":"","homepage":"","category":"게스트하우스","stay_type":"호스텔","i18n":{"ko":{"name":"타이드어웨이 풀빌라","address":"부산 기장군 기장읍 기장해안로 26","type":"호스텔"}},"detail_url":"https://www.visitbusan.net/index.do?menuCd=DOM_000000201004001000&uc_seq=829&lang_cd=ko"},{"seq":"1035","section":"stay","name_ko":"브라운도트호텔 만덕점","thumb":"https://www.visitbusan.net/uploadImgs/files/cntnts/20230220095038325_thumbL","views":0,"likes":0,"district":"북구","lat":35.21167,"lng":129.04672,"phone":"","homepage":"","category":"호텔","stay_type":"관광호텔","i18n":{"ko":{"name":"브라운도트호텔 만덕점","address":"부산광역시 북구 만덕고개길 70 (만덕동)","type":"관광호텔"}},"detail_url":"https://www.visitbusan.net/index.do?menuCd=DOM_000000201004001000&uc_seq=1035&lang_cd=ko"},{"seq":"1036","section":"stay","name_ko":"본레브호텔","thumb":"https://www.visitbusan.net/uploadImgs/files/cntnts/20230220094133770_thumbL","views":0,"likes":0,"district":"기장군","lat":35.215626,"lng":129.22305,"phone":"","homepage":"","category":"게스트하우스","stay_type":"호스텔","i18n":{"ko":{"name":"본레브호텔","address":"부산광역시 기장군 기장읍 기장해안로 460","type":"호스텔"}},"detail_url":"https://www.visitbusan.net/index.do?menuCd=DOM_000000201004001000&uc_seq=1036&lang_cd=ko"},{"seq":"1037","section":"stay","name_ko":"테라스","thumb":"https://www.visitbusan.net/uploadImgs/files/cntnts/20230220093647958_thumbL","views":0,"likes":0,"district":"기장군","lat":35.260773,"lng":129.23314,"phone":"","homepage":"","category":"게스트하우스","stay_type":"호스텔","i18n":{"ko":{"name":"테라스","address":"부산광역시 기장군 일광면 기장해안로 1309-4","type":"호스텔"}},"detail_url":"https://www.visitbusan.net/index.do?menuCd=DOM_000000201004001000&uc_seq=1037&lang_cd=ko"},{"seq":"1038","section":"stay","name_ko":"하운드호텔 기장일광점","thumb":"https://www.visitbusan.net/uploadImgs/files/cntnts/20230220091937281_thumbL","views":0,"likes":0,"district":"기장군","lat":35.265545,"lng":129.23051,"phone":"","homepage":"","category":"호텔","stay_type":"관광호텔   2성","i18n":{"ko":{"name":"하운드호텔 기장일광점","address":"부산광역시 기장군 일광면 해송3로 2","type":"관광호텔   2성"}},"detail_url":"https://www.visitbusan.net/index.do?menuCd=DOM_000000201004001000&uc_seq=1038&lang_cd=ko"},{"seq":"1039","section":"stay","name_ko":"TRT HOTEL","thumb":"https://www.visitbusan.net/uploadImgs/files/cntnts/20230220091709407_thumbL","views":0,"likes":0,"district":"부산진구","lat":35.153225,"lng":129.05585,"phone":"","homepage":"","category":"호텔","stay_type":"관광호텔   2성","i18n":{"ko":{"name":"TRT HOTEL","address":"부산광역시 부산진구 부전로 33-1","type":"관광호텔   2성"}},"detail_url":"https://www.visitbusan.net/index.do?menuCd=DOM_000000201004001000&uc_seq=1039&lang_cd=ko"},{"seq":"1040","section":"stay","name_ko":"엣지 993(edge 993)","thumb":"https://www.visitbusan.net/uploadImgs/files/cntnts/20230220091508536_thumbL","views":0,"likes":0,"district":"해운대구","lat":35.15638,"lng":129.17511,"phone":"","homepage":"","category":"게스트하우스","stay_type":"호스텔","i18n":{"ko":{"name":"엣지 993(edge 993)","address":"부산광역시 해운대구 달맞이길62번길 78, 1~4층 (중동)","type":"호스텔"}},"detail_url":"https://www.visitbusan.net/index.do?menuCd=DOM_000000201004001000&uc_seq=1040&lang_cd=ko"},{"seq":"1042","section":"stay","name_ko":"미포오션사이드호텔","thumb":"https://www.visitbusan.net/uploadImgs/files/cntnts/20230220091205099_thumbL","views":0,"likes":0,"district":"해운대구","lat":35.158836,"lng":129.17056,"phone":"","homepage":"","category":"호텔","stay_type":"소형호텔   2성","i18n":{"ko":{"name":"미포오션사이드호텔","address":"부산광역시 해운대구 달맞이길62번길 28, 미포오션사이드호텔 (중동)","type":"소형호텔   2성"}},"detail_url":"https://www.visitbusan.net/index.do?menuCd=DOM_000000201004001000&uc_seq=1042&lang_cd=ko"},{"seq":"1043","section":"stay","name_ko":"호텔센트럴베이","thumb":"https://www.visitbusan.net/uploadImgs/files/cntnts/20230217175846020_thumbL","views":0,"likes":0,"district":"수영구","lat":35.15145,"lng":129.11644,"phone":"","homepage":"","category":"호텔","stay_type":"관광호텔   3성","i18n":{"ko":{"name":"호텔센트럴베이","address":"부산광역시 수영구 광안해변로 189 (광안동)","type":"관광호텔   3성"}},"detail_url":"https://www.visitbusan.net/index.do?menuCd=DOM_000000201004001000&uc_seq=1043&lang_cd=ko"},{"seq":"1044","section":"stay","name_ko":"어반하우스 펜트","thumb":"https://www.visitbusan.net/uploadImgs/files/cntnts/20230217175654074_thumbL","views":0,"likes":0,"district":"수영구","lat":35.155327,"lng":129.1239,"phone":"","homepage":"","category":"게스트하우스","stay_type":"호스텔","i18n":{"ko":{"name":"어반하우스 펜트","address":"부산광역시 수영구 민락수변로 5, 성진회센터 9층 (민락동)","type":"호스텔"}},"detail_url":"https://www.visitbusan.net/index.do?menuCd=DOM_000000201004001000&uc_seq=1044&lang_cd=ko"},{"seq":"1045","section":"stay","name_ko":"더클럽호텔 광안리점","thumb":"https://www.visitbusan.net/uploadImgs/files/cntnts/20221130125338896_thumbL","views":0,"likes":0,"district":"수영구","lat":35.153942,"lng":129.12462,"phone":"","homepage":"","category":"게스트하우스","stay_type":"호스텔","i18n":{"ko":{"name":"더클럽호텔 광안리점","address":"부산광역시 수영구 광안해변로278번길 42, 오션브릿지 B동 1501호 (민락동)","type":"호스텔"}},"detail_url":"https://www.visitbusan.net/index.do?menuCd=DOM_000000201004001000&uc_seq=1045&lang_cd=ko"},{"seq":"1046","section":"stay","name_ko":"더웨이브펜션","thumb":"https://www.visitbusan.net/uploadImgs/files/cntnts/20221130142811285_thumbL","views":0,"likes":0,"district":"수영구","lat":35.15501,"lng":129.12405,"phone":"","homepage":"","category":"게스트하우스","stay_type":"호스텔","i18n":{"ko":{"name":"더웨이브펜션","address":"부산광역시 수영구 민락수변로 9, 5~6층 (민락동)","type":"호스텔"}},"detail_url":"https://www.visitbusan.net/index.do?menuCd=DOM_000000201004001000&uc_seq=1046&lang_cd=ko"},{"seq":"1050","section":"stay","name_ko":"레이어스호텔","thumb":"https://www.visitbusan.net/uploadImgs/files/cntnts/20230217174806457_thumbL","views":0,"likes":0,"district":"사하구","lat":35.10661,"lng":128.96434,"phone":"","homepage":"","category":"호텔","stay_type":"관광호텔   4성","i18n":{"ko":{"name":"레이어스호텔","address":"부산광역시 사하구 낙동남로 1395(하단동)","type":"관광호텔   4성"}},"detail_url":"https://www.visitbusan.net/index.do?menuCd=DOM_000000201004001000&uc_seq=1050&lang_cd=ko"},{"seq":"1052","section":"stay","name_ko":"첵앤아웃게스트하우스","thumb":"https://www.visitbusan.net/uploadImgs/files/cntnts/20230217174016938_thumbL","views":0,"likes":0,"district":"중구","lat":35.11281,"lng":129.03635,"phone":"","homepage":"","category":"게스트하우스","stay_type":"호스텔","i18n":{"ko":{"name":"첵앤아웃게스트하우스","address":"부산광역시 중구 초량중로 8-1, 2층 (영주동)","type":"호스텔"}},"detail_url":"https://www.visitbusan.net/index.do?menuCd=DOM_000000201004001000&uc_seq=1052&lang_cd=ko"},{"seq":"1053","section":"stay","name_ko":"브로시스 호텔","thumb":"https://www.visitbusan.net/uploadImgs/files/cntnts/20221130142230724_thumbL","views":0,"likes":0,"district":"중구","lat":35.09857,"lng":129.03088,"phone":"","homepage":"","category":"게스트하우스","stay_type":"호스텔","i18n":{"ko":{"name":"브로시스 호텔","address":"부산광역시 중구 구덕로48번길 4 (남포동4가)","type":"호스텔"}},"detail_url":"https://www.visitbusan.net/index.do?menuCd=DOM_000000201004001000&uc_seq=1053&lang_cd=ko"},{"seq":"1054","section":"stay","name_ko":"브라운도트사직야구장점","thumb":"https://www.visitbusan.net/uploadImgs/files/cntnts/20230217172240908_thumbL","views":0,"likes":0,"district":"동래구","lat":35.196674,"lng":129.0601,"phone":"","homepage":"","category":"호텔","stay_type":"관광호텔   2성","i18n":{"ko":{"name":"브라운도트사직야구장점","address":"부산광역시 동래구 사직북로13번길 11(사직동)","type":"관광호텔   2성"}},"detail_url":"https://www.visitbusan.net/index.do?menuCd=DOM_000000201004001000&uc_seq=1054&lang_cd=ko"},{"seq":"1067","section":"stay","name_ko":"오션 더 포인트 호텔","thumb":"https://www.visitbusan.net/uploadImgs/files/cntnts/20221130161202094_thumbL","views":0,"likes":0,"district":"수영구","lat":35.15413,"lng":129.12434,"phone":"","homepage":"","category":"호텔","stay_type":"관광호텔   2성","i18n":{"ko":{"name":"오션 더 포인트 호텔","address":"부산광역시 수영구 광안해변로278번길 42, 오션브릿지 A동 7~10층 (민락동)","type":"관광호텔   2성"}},"detail_url":"https://www.visitbusan.net/index.do?menuCd=DOM_000000201004001000&uc_seq=1067&lang_cd=ko"},{"seq":"1068","section":"stay","name_ko":"허니슬립","thumb":"https://www.visitbusan.net/uploadImgs/files/cntnts/20230217172143413_thumbL","views":0,"likes":0,"district":"수영구","lat":35.15516,"lng":129.11862,"phone":"","homepage":"","category":"게스트하우스","stay_type":"호스텔","i18n":{"ko":{"name":"허니슬립","address":"부산광역시 수영구 광남로 158(민락동)","type":"호스텔"}},"detail_url":"https://www.visitbusan.net/index.do?menuCd=DOM_000000201004001000&uc_seq=1068&lang_cd=ko"},{"seq":"1069","section":"stay","name_ko":"ND.1226호텔","thumb":"https://www.visitbusan.net/uploadImgs/files/cntnts/20221130114727746_thumbL","views":0,"likes":0,"district":"사상구","lat":35.1694,"lng":128.97707,"phone":"","homepage":"","category":"게스트하우스","stay_type":"호스텔","i18n":{"ko":{"name":"ND.1226호텔","address":"부산광역시 사상구 낙동대로 1226(괘법동)","type":"호스텔"}},"detail_url":"https://www.visitbusan.net/index.do?menuCd=DOM_000000201004001000&uc_seq=1069&lang_cd=ko"},{"seq":"1070","section":"stay","name_ko":"그랜드 조선 부산","thumb":"https://www.visitbusan.net/uploadImgs/files/cntnts/20250804183023830_thumbL","views":0,"likes":0,"district":"해운대구","lat":35.160007,"lng":129.16301,"phone":"","homepage":"","category":"호텔","stay_type":"관광호텔   5성","i18n":{"ko":{"name":"그랜드 조선 부산","address":"부산광역시 해운대구 해운대해변로 292, 그랜드 조선 부산(중동)","type":"관광호텔   5성"}},"detail_url":"https://www.visitbusan.net/index.do?menuCd=DOM_000000201004001000&uc_seq=1070&lang_cd=ko"},{"seq":"1071","section":"stay","name_ko":"헤르몬 호텔","thumb":"https://www.visitbusan.net/uploadImgs/files/cntnts/20230217171803713_thumbL","views":0,"likes":0,"district":"강서구","lat":35.150116,"lng":128.83224,"phone":"","homepage":"","category":"호텔","stay_type":"관광호텔","i18n":{"ko":{"name":"헤르몬 호텔","address":"부산광역시 강서구 과학산단2로10번길 23 (지사동)","type":"관광호텔"}},"detail_url":"https://www.visitbusan.net/index.do?menuCd=DOM_000000201004001000&uc_seq=1071&lang_cd=ko"},{"seq":"1072","section":"stay","name_ko":"더 브레인 호텔","thumb":"https://www.visitbusan.net/uploadImgs/files/cntnts/20230217171640464_thumbL","views":0,"likes":0,"district":"강서구","lat":35.08182,"lng":128.87221,"phone":"","homepage":"","category":"호텔","stay_type":"관광호텔","i18n":{"ko":{"name":"더 브레인 호텔","address":"부산 강서구 신호산단1로 72번길 58","type":"관광호텔"}},"detail_url":"https://www.visitbusan.net/index.do?menuCd=DOM_000000201004001000&uc_seq=1072&lang_cd=ko"},{"seq":"1073","section":"stay","name_ko":"부산 명지 오이아호텔","thumb":"https://www.visitbusan.net/uploadImgs/files/cntnts/20230217170843134_thumbL","views":0,"likes":0,"district":"강서구","lat":35.09398,"lng":128.90009,"phone":"","homepage":"","category":"호텔","stay_type":"관광호텔   2성","i18n":{"ko":{"name":"부산 명지 오이아호텔","address":"부산광역시 강서구 명지국제6로1번길 24(명지동)","type":"관광호텔   2성"}},"detail_url":"https://www.visitbusan.net/index.do?menuCd=DOM_000000201004001000&uc_seq=1073&lang_cd=ko"},{"seq":"1074","section":"stay","name_ko":"베스트루이스 해밀턴호텔 서부산점","thumb":"https://www.visitbusan.net/uploadImgs/files/cntnts/20230217170545451_thumbL","views":0,"likes":0,"district":"강서구","lat":35.1469,"lng":128.87883,"phone":"","homepage":"","category":"호텔","stay_type":"관광호텔   2성","i18n":{"ko":{"name":"베스트루이스 해밀턴호텔 서부산점","address":"부산광역시 강서구 범방3로29번길 6(범방동)","type":"관광호텔   2성"}},"detail_url":"https://www.visitbusan.net/index.do?menuCd=DOM_000000201004001000&uc_seq=1074&lang_cd=ko"},{"seq":"1075","section":"stay","name_ko":"에어스카이관광호텔","thumb":"https://www.visitbusan.net/uploadImgs/files/cntnts/20221130131326893_thumbL","views":0,"likes":0,"district":"강서구","lat":35.166805,"lng":128.95424,"phone":"","homepage":"","category":"호텔","stay_type":"관광호텔   2성","i18n":{"ko":{"name":"에어스카이관광호텔","address":"부산 강서구 유통단지1로57번길 2","type":"관광호텔   2성"}},"detail_url":"https://www.visitbusan.net/index.do?menuCd=DOM_000000201004001000&uc_seq=1075&lang_cd=ko"},{"seq":"1076","section":"stay","name_ko":"씨엘오션 호텔","thumb":"https://www.visitbusan.net/uploadImgs/files/cntnts/20230217153217051_thumbL","views":0,"likes":0,"district":"강서구","lat":35.090717,"lng":128.90207,"phone":"","homepage":"","category":"호텔","stay_type":"관광호텔","i18n":{"ko":{"name":"씨엘오션 호텔","address":"부산광역시 강서구 명지국제6로34번길 22","type":"관광호텔"}},"detail_url":"https://www.visitbusan.net/index.do?menuCd=DOM_000000201004001000&uc_seq=1076&lang_cd=ko"},{"seq":"1077","section":"stay","name_ko":"신라스테이 서부산","thumb":"https://www.visitbusan.net/uploadImgs/files/cntnts/20230217152513872_thumbL","views":0,"likes":0,"district":"강서구","lat":35.09674,"lng":128.90515,"phone":"","homepage":"","category":"호텔","stay_type":"관광호텔   4성","i18n":{"ko":{"name":"신라스테이 서부산","address":"부산광역시 강서구 명지국제7로 38(명지동)","type":"관광호텔   4성"}},"detail_url":"https://www.visitbusan.net/index.do?menuCd=DOM_000000201004001000&uc_seq=1077&lang_cd=ko"},{"seq":"1080","section":"stay","name_ko":"Plaire(플레르) 관광호텔","thumb":"https://www.visitbusan.net/uploadImgs/files/cntnts/20230217150218009_thumbL","views":0,"likes":0,"district":"해운대구","lat":35.17536,"lng":129.19595,"phone":"","homepage":"","category":"호텔","stay_type":"관광호텔   2성","i18n":{"ko":{"name":"Plaire(플레르) 관광호텔","address":"부산광역시 해운대구 송정광어골로 70 (송정동)","type":"관광호텔   2성"}},"detail_url":"https://www.visitbusan.net/index.do?menuCd=DOM_000000201004001000&uc_seq=1080&lang_cd=ko"},{"seq":"1081","section":"stay","name_ko":"AG405 HOTEL","thumb":"https://www.visitbusan.net/uploadImgs/files/cntnts/20221130165315599_thumbL","views":0,"likes":0,"district":"수영구","lat":35.156445,"lng":129.1346,"phone":"","homepage":"","category":"호텔","stay_type":"관광호텔   3성","i18n":{"ko":{"name":"AG405 HOTEL","address":"부산광역시 수영구 민락수변로 141 (민락동)","type":"관광호텔   3성"}},"detail_url":"https://www.visitbusan.net/index.do?menuCd=DOM_000000201004001000&uc_seq=1081&lang_cd=ko"},{"seq":"1082","section":"stay","name_ko":"광안숲","thumb":"https://www.visitbusan.net/uploadImgs/files/cntnts/20240812173254624_thumbL","views":0,"likes":0,"district":"수영구","lat":35.15125,"lng":129.11555,"phone":"","homepage":"","category":"게스트하우스","stay_type":"호스텔","i18n":{"ko":{"name":"광안숲","address":"부산광역시 수영구 광남로 106, 3층 (광안동)","type":"호스텔"}},"detail_url":"https://www.visitbusan.net/index.do?menuCd=DOM_000000201004001000&uc_seq=1082&lang_cd=ko"},{"seq":"1083","section":"stay","name_ko":"광안273","thumb":"https://www.visitbusan.net/uploadImgs/files/cntnts/20230217145617360_thumbL","views":0,"likes":0,"district":"수영구","lat":35.155903,"lng":129.12357,"phone":"","homepage":"","category":"게스트하우스","stay_type":"호스텔","i18n":{"ko":{"name":"광안273","address":"부산광역시 수영구 광안해변로 273, 2~4층 (민락동)","type":"호스텔"}},"detail_url":"https://www.visitbusan.net/index.do?menuCd=DOM_000000201004001000&uc_seq=1083&lang_cd=ko"},{"seq":"1084","section":"stay","name_ko":"디옴므호텔","thumb":"https://www.visitbusan.net/uploadImgs/files/cntnts/20221130113948331_thumbL","views":0,"likes":0,"district":"수영구","lat":35.15408,"lng":129.1245,"phone":"","homepage":"","category":"게스트하우스","stay_type":"호스텔","i18n":{"ko":{"name":"디옴므호텔","address":"부산광역시 수영구 광안해변로278번길 42, 오션브릿지 A동 3층(민락동)","type":"호스텔"}},"detail_url":"https://www.visitbusan.net/index.do?menuCd=DOM_000000201004001000&uc_seq=1084&lang_cd=ko"},{"seq":"1085","section":"stay","name_ko":"제이스테이펜트하우스","thumb":"https://www.visitbusan.net/uploadImgs/files/cntnts/20230217145406361_thumbL","views":0,"likes":0,"district":"수영구","lat":35.150574,"lng":129.1159,"phone":"","homepage":"","category":"게스트하우스","stay_type":"호스텔","i18n":{"ko":{"name":"제이스테이펜트하우스","address":"부산광역시 수영구 광안해변로 179, 5층 (광안동)","type":"호스텔"}},"detail_url":"https://www.visitbusan.net/index.do?menuCd=DOM_000000201004001000&uc_seq=1085&lang_cd=ko"},{"seq":"1086","section":"stay","name_ko":"해운대센트럴호텔","thumb":"https://www.visitbusan.net/uploadImgs/files/cntnts/20230217145045858_thumbL","views":0,"likes":0,"district":"해운대구","lat":35.16094,"lng":129.1672,"phone":"","homepage":"","category":"호텔","stay_type":"관광호텔   3성","i18n":{"ko":{"name":"해운대센트럴호텔","address":"부산광역시 해운대구 해운대해변로298번길 33(중동)","type":"관광호텔   3성"}},"detail_url":"https://www.visitbusan.net/index.do?menuCd=DOM_000000201004001000&uc_seq=1086&lang_cd=ko"},{"seq":"1087","section":"stay","name_ko":"송정 오셔너스","thumb":"https://www.visitbusan.net/uploadImgs/files/cntnts/20230217144909642_thumbL","views":0,"likes":0,"district":"해운대구","lat":35.17702,"lng":129.1969,"phone":"","homepage":"","category":"게스트하우스","stay_type":"호스텔","i18n":{"ko":{"name":"송정 오셔너스","address":"부산광역시 해운대구 송정광어골로 47, 6~9층 (송정동)","type":"호스텔"}},"detail_url":"https://www.visitbusan.net/index.do?menuCd=DOM_000000201004001000&uc_seq=1087&lang_cd=ko"},{"seq":"1088","section":"stay","name_ko":"팬톤나인 2호점","thumb":"https://www.visitbusan.net/uploadImgs/files/cntnts/20230217144634738_thumbL","views":0,"likes":0,"district":"해운대구","lat":35.179993,"lng":129.199,"phone":"","homepage":"","category":"게스트하우스","stay_type":"호스텔","i18n":{"ko":{"name":"팬톤나인 2호점","address":"부산광역시 해운대구 송정중앙로6번길 94 (송정동)","type":"호스텔"}},"detail_url":"https://www.visitbusan.net/index.do?menuCd=DOM_000000201004001000&uc_seq=1088&lang_cd=ko"},{"seq":"1089","section":"stay","name_ko":"㈜샤이어호텔","thumb":"https://www.visitbusan.net/uploadImgs/files/cntnts/20230217144026580_thumbL","views":0,"likes":0,"district":"부산진구","lat":35.15223,"lng":129.0571,"phone":"","homepage":"","category":"호텔","stay_type":"관광호텔   2성","i18n":{"ko":{"name":"㈜샤이어호텔","address":"부산광역시 부산진구 부전로 18-5","type":"관광호텔   2성"}},"detail_url":"https://www.visitbusan.net/index.do?menuCd=DOM_000000201004001000&uc_seq=1089&lang_cd=ko"},{"seq":"1090","section":"stay","name_ko":"아바니센트럴부산","thumb":"https://www.visitbusan.net/uploadImgs/files/cntnts/20221130164427314_thumbL","views":0,"likes":0,"district":"남구","lat":35.148273,"lng":129.06544,"phone":"","homepage":"","category":"호텔","stay_type":"관광호텔   4성","i18n":{"ko":{"name":"아바니센트럴부산","address":"부산광역시 남구 전포대로 133(문현동)","type":"관광호텔   4성"}},"detail_url":"https://www.visitbusan.net/index.do?menuCd=DOM_000000201004001000&uc_seq=1090&lang_cd=ko"},{"seq":"1159","section":"stay","name_ko":"굿올데이즈호텔","thumb":"https://www.visitbusan.net/uploadImgs/files/cntnts/20230217143620849_thumbL","views":0,"likes":0,"district":"중구","lat":35.101116,"lng":129.03589,"phone":"","homepage":"","category":"게스트하우스","stay_type":"호스텔","i18n":{"ko":{"name":"굿올데이즈호텔","address":"부산광역시 중구 중앙대로41번길 5 (중앙동1가)","type":"호스텔"}},"detail_url":"https://www.visitbusan.net/index.do?menuCd=DOM_000000201004001000&uc_seq=1159&lang_cd=ko"},{"seq":"1160","section":"stay","name_ko":"소르젠떼 비지니스호텔","thumb":"https://www.visitbusan.net/uploadImgs/files/cntnts/20221130172241592_thumbL","views":0,"likes":0,"district":"사상구","lat":35.164867,"lng":128.984,"phone":"","homepage":"","category":"호텔","stay_type":"관광호텔   2성","i18n":{"ko":{"name":"소르젠떼 비지니스호텔","address":"부산광역시 사상구 광장로81번길 55(괘법동)","type":"관광호텔   2성"}},"detail_url":"https://www.visitbusan.net/index.do?menuCd=DOM_000000201004001000&uc_seq=1160&lang_cd=ko"},{"seq":"1161","section":"stay","name_ko":"빌라드연화","thumb":"https://www.visitbusan.net/uploadImgs/files/cntnts/20230217143426114_thumbL","views":0,"likes":0,"district":"기장군","lat":35.21345,"lng":129.222,"phone":"","homepage":"","category":"게스트하우스","stay_type":"호스텔","i18n":{"ko":{"name":"빌라드연화","address":"부산광역시 기장군 기장읍 연화1길 21","type":"호스텔"}},"detail_url":"https://www.visitbusan.net/index.do?menuCd=DOM_000000201004001000&uc_seq=1161&lang_cd=ko"},{"seq":"1162","section":"stay","name_ko":"그랜드베른호텔","thumb":"https://www.visitbusan.net/uploadImgs/files/cntnts/20230217143323528_thumbL","views":0,"likes":0,"district":"영도구","lat":35.097885,"lng":129.05948,"phone":"","homepage":"","category":"호텔","stay_type":"관광호텔   2성","i18n":{"ko":{"name":"그랜드베른호텔","address":"부산광역시 영도구 해양로 38","type":"관광호텔   2성"}},"detail_url":"https://www.visitbusan.net/index.do?menuCd=DOM_000000201004001000&uc_seq=1162&lang_cd=ko"},{"seq":"1163","section":"stay","name_ko":"호텔오션뷰","thumb":"https://www.visitbusan.net/uploadImgs/files/cntnts/20230217143218514_thumbL","views":0,"likes":0,"district":"수영구","lat":35.15409,"lng":129.12437,"phone":"","homepage":"","category":"호텔","stay_type":"관광호텔   2성","i18n":{"ko":{"name":"호텔오션뷰","address":"부산광역시 수영구 광안해변로278번길 42, 오션브릿지 B동 13~14층 (민락동)","type":"관광호텔   2성"}},"detail_url":"https://www.visitbusan.net/index.do?menuCd=DOM_000000201004001000&uc_seq=1163&lang_cd=ko"},{"seq":"1164","section":"stay","name_ko":"Stay here","thumb":"https://www.visitbusan.net/uploadImgs/files/cntnts/20230217143032433_thumbL","views":0,"likes":0,"district":"수영구","lat":35.157146,"lng":129.12604,"phone":"","homepage":"","category":"게스트하우스","stay_type":"호스텔","i18n":{"ko":{"name":"Stay here","address":"부산광역시 수영구 광안해변로295번길 4-11 (민락동)","type":"호스텔"}},"detail_url":"https://www.visitbusan.net/index.do?menuCd=DOM_000000201004001000&uc_seq=1164&lang_cd=ko"},{"seq":"1165","section":"stay","name_ko":"부띠끄호텔 휴","thumb":"https://www.visitbusan.net/uploadImgs/files/cntnts/20230217142847802_thumbL","views":0,"likes":0,"district":"수영구","lat":35.153214,"lng":129.11705,"phone":"","homepage":"","category":"게스트하우스","stay_type":"호스텔","i18n":{"ko":{"name":"부띠끄호텔 휴","address":"부산광역시 수영구 광남로 132, 6층 (광안동)","type":"호스텔"}},"detail_url":"https://www.visitbusan.net/index.do?menuCd=DOM_000000201004001000&uc_seq=1165&lang_cd=ko"},{"seq":"1166","section":"stay","name_ko":"폴마레","thumb":"https://www.visitbusan.net/uploadImgs/files/cntnts/20221201090919977_thumbL","views":0,"likes":0,"district":"해운대구","lat":35.1803,"lng":129.19922,"phone":"","homepage":"","category":"게스트하우스","stay_type":"호스텔","i18n":{"ko":{"name":"폴마레","address":"부산광역시 해운대구 송정중앙로6번길 86, 4~8층 (송정동)","type":"호스텔"}},"detail_url":"https://www.visitbusan.net/index.do?menuCd=DOM_000000201004001000&uc_seq=1166&lang_cd=ko"},{"seq":"1167","section":"stay","name_ko":"네버엔딩웨이브","thumb":"https://www.visitbusan.net/uploadImgs/files/cntnts/20221208220933757_thumbL","views":0,"likes":0,"district":"해운대구","lat":35.180454,"lng":129.19928,"phone":"","homepage":"","category":"게스트하우스","stay_type":"호스텔","i18n":{"ko":{"name":"네버엔딩웨이브","address":"부산광역시 해운대구 송정중앙로6번길 82 (송정동)","type":"호스텔"}},"detail_url":"https://www.visitbusan.net/index.do?menuCd=DOM_000000201004001000&uc_seq=1167&lang_cd=ko"},{"seq":"1168","section":"stay","name_ko":"펜톤나인","thumb":"https://www.visitbusan.net/uploadImgs/files/cntnts/20221130140411949_thumbL","views":0,"likes":0,"district":"해운대구","lat":35.1795,"lng":129.19865,"phone":"","homepage":"","category":"게스트하우스","stay_type":"호스텔","i18n":{"ko":{"name":"펜톤나인","address":"부산광역시 해운대구 송정광어골로 15-1, 2~4층 (송정동)","type":"호스텔"}},"detail_url":"https://www.visitbusan.net/index.do?menuCd=DOM_000000201004001000&uc_seq=1168&lang_cd=ko"},{"seq":"1290","section":"stay","name_ko":"로즈베이호텔","thumb":"https://www.visitbusan.net/uploadImgs/files/cntnts/20230217141815257_thumbL","views":0,"likes":0,"district":"금정구","lat":35.24799,"lng":129.09164,"phone":"","homepage":"","category":"게스트하우스","stay_type":"호스텔","i18n":{"ko":{"name":"로즈베이호텔","address":"부산광역시 금정구 금정로237번길 36","type":"호스텔"}},"detail_url":"https://www.visitbusan.net/index.do?menuCd=DOM_000000201004001000&uc_seq=1290&lang_cd=ko"},{"seq":"1292","section":"stay","name_ko":"베스트루이스해밀턴호텔 오션테라스","thumb":"https://www.visitbusan.net/uploadImgs/files/cntnts/20221130170035673_thumbL","views":0,"likes":0,"district":"기장군","lat":35.213806,"lng":129.22234,"phone":"","homepage":"","category":"호텔","stay_type":"관광호텔   2성","i18n":{"ko":{"name":"베스트루이스해밀턴호텔 오션테라스","address":"부산광역시 기장군 기장읍 연화1길 27","type":"관광호텔   2성"}},"detail_url":"https://www.visitbusan.net/index.do?menuCd=DOM_000000201004001000&uc_seq=1292&lang_cd=ko"},{"seq":"1293","section":"stay","name_ko":"주식회사 시티호텔","thumb":"https://www.visitbusan.net/uploadImgs/files/cntnts/20221130170505818_thumbL","views":0,"likes":0,"district":"동구","lat":35.122772,"lng":129.0442,"phone":"","homepage":"","category":"호텔","stay_type":"관광호텔   2성","i18n":{"ko":{"name":"주식회사 시티호텔","address":"부산광역시 동구 중앙대로294(초량동)","type":"관광호텔   2성"}},"detail_url":"https://www.visitbusan.net/index.do?menuCd=DOM_000000201004001000&uc_seq=1293&lang_cd=ko"},{"seq":"1294","section":"stay","name_ko":"문베이호텔","thumb":"https://www.visitbusan.net/uploadImgs/files/cntnts/20221130163533884_thumbL","views":0,"likes":0,"district":"수영구","lat":35.15066,"lng":129.11542,"phone":"","homepage":"","category":"호텔","stay_type":"관광호텔   1성","i18n":{"ko":{"name":"문베이호텔","address":"부산광역시 수영구 남천바다로33번길 51 (광안동)","type":"관광호텔   1성"}},"detail_url":"https://www.visitbusan.net/index.do?menuCd=DOM_000000201004001000&uc_seq=1294&lang_cd=ko"},{"seq":"1295","section":"stay","name_ko":"호텔 프리마베라 in BUSAN","thumb":"https://www.visitbusan.net/uploadImgs/files/cntnts/20230217141210211_thumbL","views":0,"likes":0,"district":"수영구","lat":35.153976,"lng":129.12436,"phone":"","homepage":"","category":"게스트하우스","stay_type":"호스텔","i18n":{"ko":{"name":"호텔 프리마베라 in BUSAN","address":"부산광역시 수영구 광안해변로278번길 42, 오션브릿지 A동 13층 1302호 (민락동)","type":"호스텔"}},"detail_url":"https://www.visitbusan.net/index.do?menuCd=DOM_000000201004001000&uc_seq=1295&lang_cd=ko"},{"seq":"1296","section":"stay","name_ko":"누리다광안","thumb":"https://www.visitbusan.net/uploadImgs/files/cntnts/20230217135415182_thumbL","views":0,"likes":0,"district":"수영구","lat":35.155827,"lng":129.12457,"phone":"","homepage":"","category":"게스트하우스","stay_type":"호스텔","i18n":{"ko":{"name":"누리다광안","address":"부산광역시 수영구 광안해변로 282, 3~5층 (민락동)","type":"호스텔"}},"detail_url":"https://www.visitbusan.net/index.do?menuCd=DOM_000000201004001000&uc_seq=1296&lang_cd=ko"},{"seq":"1298","section":"stay","name_ko":"쿠무다레스메종","thumb":"https://www.visitbusan.net/uploadImgs/files/cntnts/20221130130032763_thumbL","views":0,"likes":0,"district":"해운대구","lat":35.17743,"lng":129.19716,"phone":"","homepage":"","category":"게스트하우스","stay_type":"호스텔","i18n":{"ko":{"name":"쿠무다레스메종","address":"부산광역시 해운대구 송정광어골로 41, 5~8층 (송정동)","type":"호스텔"}},"detail_url":"https://www.visitbusan.net/index.do?menuCd=DOM_000000201004001000&uc_seq=1298&lang_cd=ko"},{"seq":"1299","section":"stay","name_ko":"휴가스테이","thumb":"https://www.visitbusan.net/uploadImgs/files/cntnts/20230217134826502_thumbL","views":0,"likes":0,"district":"해운대구","lat":35.16854,"lng":129.19704,"phone":"","homepage":"","category":"게스트하우스","stay_type":"호스텔","i18n":{"ko":{"name":"휴가스테이","address":"부산광역시 해운대구 송정구덕포길 164 (송정동)","type":"호스텔"}},"detail_url":"https://www.visitbusan.net/index.do?menuCd=DOM_000000201004001000&uc_seq=1299&lang_cd=ko"},{"seq":"1300","section":"stay","name_ko":"스테이모어 빌리지","thumb":"https://www.visitbusan.net/uploadImgs/files/cntnts/20230217134347691_thumbL","views":0,"likes":0,"district":"해운대구","lat":35.17356,"lng":129.19623,"phone":"","homepage":"","category":"게스트하우스","stay_type":"호스텔","i18n":{"ko":{"name":"스테이모어 빌리지","address":"부산광역시 해운대구 송정광어골로 90, A동 1~2층 (송정동)","type":"호스텔"}},"detail_url":"https://www.visitbusan.net/index.do?menuCd=DOM_000000201004001000&uc_seq=1300&lang_cd=ko"},{"seq":"1301","section":"stay","name_ko":"플라쥬","thumb":"https://www.visitbusan.net/uploadImgs/files/cntnts/20230217133524414_thumbL","views":0,"likes":0,"district":"해운대구","lat":35.184338,"lng":129.20302,"phone":"","homepage":"","category":"게스트하우스","stay_type":"호스텔","i18n":{"ko":{"name":"플라쥬","address":"부산광역시 해운대구 송정중앙로9번길 24-9, 2층 (송정동)","type":"호스텔"}},"detail_url":"https://www.visitbusan.net/index.do?menuCd=DOM_000000201004001000&uc_seq=1301&lang_cd=ko"},{"seq":"1387","section":"stay","name_ko":"더 클럽 호텔 연화리점","thumb":"https://www.visitbusan.net/uploadImgs/files/cntnts/20230217132922037_thumbL","views":0,"likes":0,"district":"기장군","lat":35.220436,"lng":129.22707,"phone":"","homepage":"","category":"호텔","stay_type":"관광호텔   2성","i18n":{"ko":{"name":"더 클럽 호텔 연화리점","address":"부산광역시 기장군 기장읍 연화길 78","type":"관광호텔   2성"}},"detail_url":"https://www.visitbusan.net/index.do?menuCd=DOM_000000201004001000&uc_seq=1387&lang_cd=ko"},{"seq":"1388","section":"stay","name_ko":"골드스톤호텔","thumb":"https://www.visitbusan.net/uploadImgs/files/cntnts/20230217132332042_thumbL","views":0,"likes":0,"district":"동구","lat":35.113525,"lng":129.03802,"phone":"","homepage":"","category":"호텔","stay_type":"관광호텔   2성","i18n":{"ko":{"name":"골드스톤호텔","address":"부산광역시 동구 중앙대로179번길 9(초량동)","type":"관광호텔   2성"}},"detail_url":"https://www.visitbusan.net/index.do?menuCd=DOM_000000201004001000&uc_seq=1388&lang_cd=ko"},{"seq":"1389","section":"stay","name_ko":"호텔티티 구포","thumb":"https://www.visitbusan.net/uploadImgs/files/cntnts/20221201165843890_thumbL","views":0,"likes":0,"district":"북구","lat":35.204983,"lng":128.99586,"phone":"","homepage":"","category":"호텔","stay_type":"관광호텔   3성","i18n":{"ko":{"name":"호텔티티 구포","address":"부산광역시 북구 낙동대로 1684(구포동)","type":"관광호텔   3성"}},"detail_url":"https://www.visitbusan.net/index.do?menuCd=DOM_000000201004001000&uc_seq=1389&lang_cd=ko"},{"seq":"1390","section":"stay","name_ko":"보나트리 호텔","thumb":"https://www.visitbusan.net/uploadImgs/files/cntnts/20230217131741143_thumbL","views":0,"likes":0,"district":"수영구","lat":35.15577,"lng":129.12502,"phone":"","homepage":"","category":"호텔","stay_type":"관광호텔   2성","i18n":{"ko":{"name":"보나트리 호텔","address":"부산광역시 수영구 광안해변로284번길 3 (민락동)","type":"관광호텔   2성"}},"detail_url":"https://www.visitbusan.net/index.do?menuCd=DOM_000000201004001000&uc_seq=1390&lang_cd=ko"},{"seq":"1391","section":"stay","name_ko":"플로트하우스","thumb":"https://www.visitbusan.net/uploadImgs/files/cntnts/20230217131609742_thumbL","views":0,"likes":0,"district":"수영구","lat":35.15492,"lng":129.12401,"phone":"","homepage":"","category":"게스트하우스","stay_type":"호스텔","i18n":{"ko":{"name":"플로트하우스","address":"부산광역시 수영구 민락수변로 9-1, 6층 (민락동)","type":"호스텔"}},"detail_url":"https://www.visitbusan.net/index.do?menuCd=DOM_000000201004001000&uc_seq=1391&lang_cd=ko"},{"seq":"1392","section":"stay","name_ko":"부산시티호텔","thumb":"https://www.visitbusan.net/uploadImgs/files/cntnts/20230217131304087_thumbL","views":0,"likes":0,"district":"연제구","lat":35.18272,"lng":129.07617,"phone":"","homepage":"","category":"호텔","stay_type":"관광호텔   3성","i18n":{"ko":{"name":"부산시티호텔","address":"부산광역시 연제구 신촌로 19(연산동)","type":"관광호텔   3성"}},"detail_url":"https://www.visitbusan.net/index.do?menuCd=DOM_000000201004001000&uc_seq=1392&lang_cd=ko"},{"seq":"1393","section":"stay","name_ko":"아라뷰스테이","thumb":"https://www.visitbusan.net/uploadImgs/files/cntnts/20230217130804683_thumbL","views":0,"likes":0,"district":"해운대구","lat":35.17704,"lng":129.19685,"phone":"","homepage":"","category":"게스트하우스","stay_type":"호스텔","i18n":{"ko":{"name":"아라뷰스테이","address":"부산광역시 해운대구 송정광어골로 47, 3층 (송정동)","type":"호스텔"}},"detail_url":"https://www.visitbusan.net/index.do?menuCd=DOM_000000201004001000&uc_seq=1393&lang_cd=ko"},{"seq":"1394","section":"stay","name_ko":"바이브 부산 송정","thumb":"https://www.visitbusan.net/uploadImgs/files/cntnts/20230217125914914_thumbL","views":0,"likes":0,"district":"해운대구","lat":35.175144,"lng":129.19646,"phone":"","homepage":"","category":"게스트하우스","stay_type":"호스텔","i18n":{"ko":{"name":"바이브 부산 송정","address":"부산광역시 해운대구 송정광어골로 71, 4~5층 (송정동)","type":"호스텔"}},"detail_url":"https://www.visitbusan.net/index.do?menuCd=DOM_000000201004001000&uc_seq=1394&lang_cd=ko"},{"seq":"1395","section":"stay","name_ko":"고홍집","thumb":"https://www.visitbusan.net/uploadImgs/files/cntnts/20230217121448045_thumbL","views":0,"likes":0,"district":"해운대구","lat":35.168064,"lng":129.19695,"phone":"","homepage":"","category":"게스트하우스","stay_type":"호스텔","i18n":{"ko":{"name":"고홍집","address":"부산광역시 해운대구 송정구덕포길 174 (송정동)","type":"호스텔"}},"detail_url":"https://www.visitbusan.net/index.do?menuCd=DOM_000000201004001000&uc_seq=1395&lang_cd=ko"},{"seq":"1396","section":"stay","name_ko":"월하정인","thumb":"https://www.visitbusan.net/uploadImgs/files/cntnts/20221130174031355_thumbL","views":0,"likes":0,"district":"해운대구","lat":35.183426,"lng":129.20265,"phone":"","homepage":"","category":"게스트하우스","stay_type":"호스텔","i18n":{"ko":{"name":"월하정인","address":"부산광역시 해운대구 송정중앙로15번길 6 (송정동)","type":"호스텔"}},"detail_url":"https://www.visitbusan.net/index.do?menuCd=DOM_000000201004001000&uc_seq=1396&lang_cd=ko"},{"seq":"1398","section":"stay","name_ko":"더 웨스턴 부산","thumb":"https://www.visitbusan.net/uploadImgs/files/cntnts/20230217112744689_thumbL","views":0,"likes":0,"district":"강서구","lat":35.111652,"lng":128.88248,"phone":"","homepage":"","category":"호텔","stay_type":"관광호텔   2성","i18n":{"ko":{"name":"더 웨스턴 부산","address":"부산 강서구 화전산단4로25번길 53","type":"관광호텔   2성"}},"detail_url":"https://www.visitbusan.net/index.do?menuCd=DOM_000000201004001000&uc_seq=1398&lang_cd=ko"},{"seq":"1647","section":"stay","name_ko":"STAY고우담","thumb":"https://www.visitbusan.net/uploadImgs/files/cntnts/20230621104056325_thumbL","views":0,"likes":0,"district":"부산진구","lat":35.156586,"lng":129.06462,"phone":"","homepage":"","category":"게스트하우스","stay_type":"호스텔","i18n":{"ko":{"name":"STAY고우담","address":"부산광역시 부산진구 전포대로223번길 10","type":"호스텔"}},"detail_url":"https://www.visitbusan.net/index.do?menuCd=DOM_000000201004001000&uc_seq=1647&lang_cd=ko"},{"seq":"1648","section":"stay","name_ko":"시점 광안점","thumb":"https://www.visitbusan.net/uploadImgs/files/cntnts/20230621111926950_thumbL","views":0,"likes":0,"district":"수영구","lat":35.155163,"lng":129.12117,"phone":"","homepage":"","category":"게스트하우스","stay_type":"호스텔","i18n":{"ko":{"name":"시점 광안점","address":"부산광역시 수영구 광안해변로 249, 249타워 8층 (민락동)","type":"호스텔"}},"detail_url":"https://www.visitbusan.net/index.do?menuCd=DOM_000000201004001000&uc_seq=1648&lang_cd=ko"},{"seq":"1649","section":"stay","name_ko":"송정스카이펜트하우스","thumb":"https://www.visitbusan.net/uploadImgs/files/cntnts/20230621131727143_thumbL","views":0,"likes":0,"district":"해운대구","lat":35.179344,"lng":129.1984,"phone":"","homepage":"","category":"게스트하우스","stay_type":"호스텔","i18n":{"ko":{"name":"송정스카이펜트하우스","address":"부산광역시 해운대구 송정광어골로 19, 씨엔씨빌딩 8층(송정동)","type":"호스텔"}},"detail_url":"https://www.visitbusan.net/index.do?menuCd=DOM_000000201004001000&uc_seq=1649&lang_cd=ko"},{"seq":"1650","section":"stay","name_ko":"카이브 부산송정2호점","thumb":"https://www.visitbusan.net/uploadImgs/files/cntnts/20230621133145322_thumbL","views":0,"likes":0,"district":"해운대구","lat":35.176403,"lng":129.19643,"phone":"","homepage":"","category":"게스트하우스","stay_type":"호스텔","i18n":{"ko":{"name":"카이브 부산송정2호점","address":"부산광역시 해운대구 송정광어골로 55, 하얀집 6~7층 (송정동)","type":"호스텔"}},"detail_url":"https://www.visitbusan.net/index.do?menuCd=DOM_000000201004001000&uc_seq=1650&lang_cd=ko"},{"seq":"1970","section":"stay","name_ko":"덕성민박","thumb":"https://www.visitbusan.net/uploadImgs/files/cntnts/20240808145145377_thumbL","views":0,"likes":0,"district":"중구","lat":35.10596,"lng":129.03485,"phone":"","homepage":"","category":"게스트하우스","stay_type":"호스텔","i18n":{"ko":{"name":"덕성민박","address":"부산광역시 중구 동광길 71-1 (동광동5가)","type":"호스텔"}},"detail_url":"https://www.visitbusan.net/index.do?menuCd=DOM_000000201004001000&uc_seq=1970&lang_cd=ko"},{"seq":"1971","section":"stay","name_ko":"윈덤그랜드부산","thumb":"https://www.visitbusan.net/uploadImgs/files/cntnts/20250207145704336_thumbL","views":0,"likes":0,"district":"서구","lat":35.078457,"lng":129.0243,"phone":"","homepage":"","category":"호텔","stay_type":"관광호텔   5성","i18n":{"ko":{"name":"윈덤그랜드부산","address":"부산광역시 서구 등대로 27","type":"관광호텔   5성"}},"detail_url":"https://www.visitbusan.net/index.do?menuCd=DOM_000000201004001000&uc_seq=1971&lang_cd=ko"},{"seq":"1972","section":"stay","name_ko":"이터널블루","thumb":"https://www.visitbusan.net/uploadImgs/files/cntnts/20240808151637176_thumbL","views":0,"likes":0,"district":"서구","lat":35.071617,"lng":129.01721,"phone":"","homepage":"","category":"게스트하우스","stay_type":"호스텔","i18n":{"ko":{"name":"이터널블루","address":"부산광역시 서구 송도해변로 27, 4층","type":"호스텔"}},"detail_url":"https://www.visitbusan.net/index.do?menuCd=DOM_000000201004001000&uc_seq=1972&lang_cd=ko"},{"seq":"1973","section":"stay","name_ko":"정이든 스테이","thumb":"https://www.visitbusan.net/uploadImgs/files/cntnts/20240808154802356_thumbL","views":0,"likes":0,"district":"동구","lat":35.140648,"lng":129.05565,"phone":"","homepage":"","category":"게스트하우스","stay_type":"호스텔","i18n":{"ko":{"name":"정이든 스테이","address":"부산광역시 동구 범곡로28번길 7 (범일동)","type":"호스텔"}},"detail_url":"https://www.visitbusan.net/index.do?menuCd=DOM_000000201004001000&uc_seq=1973&lang_cd=ko"},{"seq":"1974","section":"stay","name_ko":"H AVENUE 호텔 서면역점","thumb":"https://www.visitbusan.net/uploadImgs/files/cntnts/20240808155912998_thumbL","views":0,"likes":0,"district":"부산진구","lat":35.152958,"lng":129.0565,"phone":"","homepage":"","category":"호텔","stay_type":"관광호텔   2성","i18n":{"ko":{"name":"H AVENUE 호텔 서면역점","address":"부산광역시 부산진구 부전로 28 (부전동)","type":"관광호텔   2성"}},"detail_url":"https://www.visitbusan.net/index.do?menuCd=DOM_000000201004001000&uc_seq=1974&lang_cd=ko"},{"seq":"1975","section":"stay","name_ko":"벨리타","thumb":"https://www.visitbusan.net/uploadImgs/files/cntnts/20240808160553546_thumbL","views":0,"likes":0,"district":"영도구","lat":35.08804,"lng":129.06061,"phone":"","homepage":"","category":"게스트하우스","stay_type":"호스텔","i18n":{"ko":{"name":"벨리타","address":"부산광역시 영도구 와치로 54, 2~4층","type":"호스텔"}},"detail_url":"https://www.visitbusan.net/index.do?menuCd=DOM_000000201004001000&uc_seq=1975&lang_cd=ko"},{"seq":"1976","section":"stay","name_ko":"전포207stay","thumb":"https://www.visitbusan.net/uploadImgs/files/cntnts/20240808161241268_thumbL","views":0,"likes":0,"district":"부산진구","lat":35.15743,"lng":129.06601,"phone":"","homepage":"","category":"게스트하우스","stay_type":"호스텔","i18n":{"ko":{"name":"전포207stay","address":"부산광역시 부산진구 서전로58번길 8, 4층 (전포동)","type":"호스텔"}},"detail_url":"https://www.visitbusan.net/index.do?menuCd=DOM_000000201004001000&uc_seq=1976&lang_cd=ko"},{"seq":"1977","section":"stay","name_ko":"피코 관광호스텔","thumb":"https://www.visitbusan.net/uploadImgs/files/cntnts/20240808162255250_thumbL","views":0,"likes":0,"district":"북구","lat":35.214207,"lng":129.0452,"phone":"","homepage":"","category":"게스트하우스","stay_type":"호스텔","i18n":{"ko":{"name":"피코 관광호스텔","address":"부산광역시 북구 구만덕로80번길 4 (만덕동)","type":"호스텔"}},"detail_url":"https://www.visitbusan.net/index.do?menuCd=DOM_000000201004001000&uc_seq=1977&lang_cd=ko"},{"seq":"1978","section":"stay","name_ko":"호텔롯데 L7해운대","thumb":"https://www.visitbusan.net/uploadImgs/files/cntnts/20240808164056273_thumbL","views":0,"likes":0,"district":"해운대구","lat":35.1602,"lng":129.16006,"phone":"","homepage":"","category":"호텔","stay_type":"관광호텔   4성","i18n":{"ko":{"name":"호텔롯데 L7해운대","address":"부산광역시 해운대구 해운대로570번길 55, 호텔롯데 L7해운대 (우동)","type":"관광호텔   4성"}},"detail_url":"https://www.visitbusan.net/index.do?menuCd=DOM_000000201004001000&uc_seq=1978&lang_cd=ko"},{"seq":"1979","section":"stay","name_ko":"브라운도트 해운대점","thumb":"https://www.visitbusan.net/uploadImgs/files/cntnts/20240808165603758_thumbL","views":0,"likes":0,"district":"해운대구","lat":35.161613,"lng":129.15933,"phone":"","homepage":"","category":"호텔","stay_type":"관광호텔   2성","i18n":{"ko":{"name":"브라운도트 해운대점","address":"부산광역시 해운대구 구남로24번길 16 (우동)","type":"관광호텔   2성"}},"detail_url":"https://www.visitbusan.net/index.do?menuCd=DOM_000000201004001000&uc_seq=1979&lang_cd=ko"},{"seq":"1980","section":"stay","name_ko":"더쿨리스트 호텔","thumb":"https://www.visitbusan.net/uploadImgs/files/cntnts/20240808170343196_thumbL","views":0,"likes":0,"district":"해운대구","lat":35.17983,"lng":129.19878,"phone":"","homepage":"","category":"호텔","stay_type":"관광호텔","i18n":{"ko":{"name":"더쿨리스트 호텔","address":"부산광역시 해운대구 송정광어골로 11, 더쿨리스트 호텔 (송정동)","type":"관광호텔"}},"detail_url":"https://www.visitbusan.net/index.do?menuCd=DOM_000000201004001000&uc_seq=1980&lang_cd=ko"},{"seq":"1981","section":"stay","name_ko":"J. SUN 게스트하우스","thumb":"https://www.visitbusan.net/uploadImgs/files/cntnts/20240808171924132_thumbL","views":0,"likes":0,"district":"해운대구","lat":35.163837,"lng":129.157,"phone":"","homepage":"","category":"게스트하우스","stay_type":"호스텔","i18n":{"ko":{"name":"J. SUN 게스트하우스","address":"부산광역시 해운대구 우동1로20번길 5 (우동)","type":"호스텔"}},"detail_url":"https://www.visitbusan.net/index.do?menuCd=DOM_000000201004001000&uc_seq=1981&lang_cd=ko"},{"seq":"1982","section":"stay","name_ko":"갱이하우스","thumb":"https://www.visitbusan.net/uploadImgs/files/cntnts/20240808173350541_thumbL","views":0,"likes":0,"district":"해운대구","lat":35.164886,"lng":129.1684,"phone":"","homepage":"","category":"게스트하우스","stay_type":"호스텔","i18n":{"ko":{"name":"갱이하우스","address":"부산광역시 해운대구 해운대해변로359번길 27, 7층 (중동)","type":"호스텔"}},"detail_url":"https://www.visitbusan.net/index.do?menuCd=DOM_000000201004001000&uc_seq=1982&lang_cd=ko"},{"seq":"1983","section":"stay","name_ko":"더크립24","thumb":"https://www.visitbusan.net/uploadImgs/files/cntnts/20240808174328101_thumbL","views":0,"likes":0,"district":"해운대구","lat":35.16487,"lng":129.16841,"phone":"","homepage":"","category":"게스트하우스","stay_type":"호스텔","i18n":{"ko":{"name":"더크립24","address":"부산광역시 해운대구 해운대해변로359번길 27, 승훈빌딩 3~4층 (중동)","type":"호스텔"}},"detail_url":"https://www.visitbusan.net/index.do?menuCd=DOM_000000201004001000&uc_seq=1983&lang_cd=ko"},{"seq":"1984","section":"stay","name_ko":"부산 송정놀다가 풀빌라 펜션","thumb":"https://www.visitbusan.net/uploadImgs/files/cntnts/20240809104914900_thumbL","views":0,"likes":0,"district":"해운대구","lat":35.170036,"lng":129.19724,"phone":"","homepage":"","category":"게스트하우스","stay_type":"호스텔","i18n":{"ko":{"name":"부산 송정놀다가 풀빌라 펜션","address":"부산광역시 해운대구 송정구덕포길 130 (송정동)","type":"호스텔"}},"detail_url":"https://www.visitbusan.net/index.do?menuCd=DOM_000000201004001000&uc_seq=1984&lang_cd=ko"},{"seq":"1985","section":"stay","name_ko":"송정맨션","thumb":"https://www.visitbusan.net/uploadImgs/files/cntnts/20240809112546650_thumbL","views":0,"likes":0,"district":"해운대구","lat":35.169025,"lng":129.19716,"phone":"","homepage":"","category":"게스트하우스","stay_type":"호스텔","i18n":{"ko":{"name":"송정맨션","address":"부산광역시 해운대구 송정구덕포길 150-3 (송정동)","type":"호스텔"}},"detail_url":"https://www.visitbusan.net/index.do?menuCd=DOM_000000201004001000&uc_seq=1985&lang_cd=ko"},{"seq":"1986","section":"stay","name_ko":"스토브","thumb":"https://www.visitbusan.net/uploadImgs/files/cntnts/20240809112946027_thumbL","views":0,"likes":0,"district":"해운대구","lat":35.180687,"lng":129.1995,"phone":"","homepage":"","category":"게스트하우스","stay_type":"호스텔","i18n":{"ko":{"name":"스토브","address":"부산광역시 해운대구 송정중앙로6번길 76 (송정동)","type":"호스텔"}},"detail_url":"https://www.visitbusan.net/index.do?menuCd=DOM_000000201004001000&uc_seq=1986&lang_cd=ko"},{"seq":"1987","section":"stay","name_ko":"미니먼트","thumb":"https://www.visitbusan.net/uploadImgs/files/cntnts/20240809113522950_thumbL","views":0,"likes":0,"district":"해운대구","lat":35.18654,"lng":129.20409,"phone":"","homepage":"","category":"게스트하우스","stay_type":"호스텔","i18n":{"ko":{"name":"미니먼트","address":"부산광역시 해운대구 송정중앙로9번길 78-2 (송정동)","type":"호스텔"}},"detail_url":"https://www.visitbusan.net/index.do?menuCd=DOM_000000201004001000&uc_seq=1987&lang_cd=ko"},{"seq":"1988","section":"stay","name_ko":"스텔라 프라이빗 풀빌라","thumb":"https://www.visitbusan.net/uploadImgs/files/cntnts/20240809114146537_thumbL","views":0,"likes":0,"district":"해운대구","lat":35.175827,"lng":129.19589,"phone":"","homepage":"","category":"게스트하우스","stay_type":"호스텔","i18n":{"ko":{"name":"스텔라 프라이빗 풀빌라","address":"부산광역시 해운대구 송정광어골로 64, 스텔라빌딩 3,4층 (송정동)","type":"호스텔"}},"detail_url":"https://www.visitbusan.net/index.do?menuCd=DOM_000000201004001000&uc_seq=1988&lang_cd=ko"},{"seq":"1989","section":"stay","name_ko":"보다스테이 송정점","thumb":"https://www.visitbusan.net/uploadImgs/files/cntnts/20240809115217297_thumbL","views":0,"likes":0,"district":"해운대구","lat":35.178566,"lng":129.1979,"phone":"","homepage":"","category":"게스트하우스","stay_type":"호스텔","i18n":{"ko":{"name":"보다스테이 송정점","address":"부산광역시 해운대구 송정광어골로 29, 수정빌딩 4층 (송정동)","type":"호스텔"}},"detail_url":"https://www.visitbusan.net/index.do?menuCd=DOM_000000201004001000&uc_seq=1989&lang_cd=ko"},{"seq":"1990","section":"stay","name_ko":"송정담다펜션","thumb":"https://www.visitbusan.net/uploadImgs/files/cntnts/20240809130331611_thumbL","views":0,"likes":0,"district":"해운대구","lat":35.17872,"lng":129.19814,"phone":"","homepage":"","category":"게스트하우스","stay_type":"호스텔","i18n":{"ko":{"name":"송정담다펜션","address":"부산광역시 해운대구 송정중앙로6번길 126, 3,4,5층 (송정동)","type":"호스텔"}},"detail_url":"https://www.visitbusan.net/index.do?menuCd=DOM_000000201004001000&uc_seq=1990&lang_cd=ko"},{"seq":"1991","section":"stay","name_ko":"HY리얼티호텔","thumb":"https://www.visitbusan.net/uploadImgs/files/cntnts/20240809134939249_thumbL","views":0,"likes":0,"district":"수영구","lat":35.15585,"lng":129.12524,"phone":"","homepage":"","category":"게스트하우스","stay_type":"호스텔","i18n":{"ko":{"name":"HY리얼티호텔","address":"부산광역시 수영구 광안해변로290번길 6, 2층, 7층 (민락동)","type":"호스텔"}},"detail_url":"https://www.visitbusan.net/index.do?menuCd=DOM_000000201004001000&uc_seq=1991&lang_cd=ko"},{"seq":"1992","section":"stay","name_ko":"안리파티하우스","thumb":"https://www.visitbusan.net/uploadImgs/files/cntnts/20240809140118358_thumbL","views":0,"likes":0,"district":"수영구","lat":35.154713,"lng":129.12413,"phone":"","homepage":"","category":"게스트하우스","stay_type":"호스텔","i18n":{"ko":{"name":"안리파티하우스","address":"부산광역시 수영구 민락수변로 13, 2층 (민락동)","type":"호스텔"}},"detail_url":"https://www.visitbusan.net/index.do?menuCd=DOM_000000201004001000&uc_seq=1992&lang_cd=ko"},{"seq":"1993","section":"stay","name_ko":"광안리가","thumb":"https://www.visitbusan.net/uploadImgs/files/cntnts/20240809142456011_thumbL","views":0,"likes":0,"district":"수영구","lat":35.155094,"lng":129.12096,"phone":"","homepage":"","category":"게스트하우스","stay_type":"호스텔","i18n":{"ko":{"name":"광안리가","address":"부산광역시 수영구 광안해변로 247-1, 5~8층 (민락동, 행복빌딩)","type":"호스텔"}},